     3.04           OBSERVATION DATA    M: Mixed            RINEX VERSION / TYPE
CONVBIN EX 2.5.0                        20260627 164940 UTC PGM / RUN BY / DATE 
format: RTCM 3                                              COMMENT             
log: C:\Users\jinyu\Desktop\540423496360\2026-06-08\1.rtcm3 COMMENT             
BASE                                                        MARKER NAME         
                                                            MARKER NUMBER       
                                                            MARKER TYPE         
                                                            OBSERVER / AGENCY   
                    NONE                                    REC # / TYPE / VERS 
NONE                NONE                                    ANT # / TYPE        
  -493099.6505  5551400.7556  3092551.4870                  APPROX POSITION XYZ 
        0.0000        0.0000        0.0000                  ANTENNA: DELTA H/E/N
C    6 C2I L2I S2I C7I L7I S7I                              SYS / # / OBS TYPES 
  2026    06    07    17    00   18.0000000     GPS         TIME OF FIRST OBS   
  2026    06    07    18    00   03.0000000     GPS         TIME OF LAST OBS    
C L2I                                                       SYS / PHASE SHIFT   
C L7I                                                       SYS / PHASE SHIFT   
  0                                                         GLONASS SLOT / FRQ #
 C1C    0.000 C1P    0.000 C2C    0.000 C2P    0.000        GLONASS COD/PHS/BIS 
                                                            END OF HEADER       
> 2026 06 07 17 00 18.0000000  0 12                     
C01  38581984.884   200906514.345          47.000                                                  
C02  36961954.657   192470585.510          49.000                                                  
C03  37001014.536   192673992.224          49.000                                                  
C07                                                                                                
C08  38354962.611   199724374.987          45.000                                                  
C09  38634601.599   201180515.654          42.000    38634606.763   155565501.153          44.000  
C12  22691269.881   118159375.662          50.000                                                  
C19  22249296.770   115857942.736          51.000                                                  
C20  24451595.580   127325787.560          47.000                                                  
C22  23574426.685   122758220.702          29.000                                                  
C36  22571319.204   117534853.005          50.000                                                  
C39  26358965.075   137258089.527          39.000                                                  
> 2026 06 07 17 00 33.0000000  0 12                     
C01  38581961.637   200906393.379          47.000                                                  
C02  36962155.272   192471629.822          49.000                                                  
C03  37001164.368   192674772.615          49.000                                                  
C07  37175312.917   193581609.050          30.000                                                  
C08  38349989.269   199698476.050          46.000                                                  
C09  38640122.180   201209260.523          42.000    38640126.986   155587728.498          45.000  
C12  22698491.540   118196980.302          49.000                                                  
C19  22252347.942   115873830.149          51.000                                                  
C20  24460662.161   127372998.085          47.000                                                  
C22                                                                                                
C36  22569158.661   117523603.215          50.000                                                  
C39  26352990.157   137226971.815          41.000                                                  
> 2026 06 07 17 00 48.0000000  0 12                     
C01  38581939.551   200906278.286          47.000                                                  
C02  36962357.031   192472680.193          49.000                                                  
C03  37001315.343   192675558.871          49.000                                                  
C07  37175329.375   193581697.3881         29.000                                                  
C08  38345019.893   199672597.426          45.000                                                  
C09  38645646.227   201238023.054          44.000    38645650.677   155609969.528          45.000  
C12  22705729.638   118234671.117          49.000                                                  
C19  22255423.272   115889844.564          51.000                                                  
C20  24469738.446   127420260.077          47.000                                                  
C22                                                                                                
C36  22567008.427   117512406.308          51.000                                                  
C39  26347022.403   137195891.609          40.000                                                  
> 2026 06 07 17 01 03.0000000  0 12                     
C01  38581918.394   200906168.201          47.000                                                  
C02  36962559.773   192473735.749          49.000                                                  
C03  37001467.284   192676350.131          49.000                                                  
C07                                                                                                
C08  38340053.949   199646738.325          44.000                                                  
C09  38651173.527   201266802.154          44.000    38651177.565   155632223.351          45.000  
C12  22712983.907   118272447.024          48.000                                                  
C19  22258522.743   115905985.006          51.000                                                  
C20  24478824.540   127467572.394          47.000                                                  
C22                                                                                                
C36  22564868.183   117501261.372          50.000                                                  
C39  26341061.387   137164847.984          41.000                                                  
> 2026 06 07 17 01 18.0000000  0 12                     
C01  38581895.915   200906051.288          46.000                                                  
C02  36962761.247   192474784.647          49.000                                                  
C03  37001617.902   192677134.569          49.000                                                  
C07                                                                                                
C08  38335089.094   199620887.000          45.000                                                  
C09  38656701.631   201295585.877          44.000    38656705.223   155654480.756          46.000  
C12  22720251.918   118310295.885          47.000                                                  
C19  22261644.337   115922239.562          52.000                                                  
C20  24487917.603   127514922.891          46.000                                                  
C22  23551630.762   122639517.0871         30.000                                                  
C36  22562735.569   117490156.426          49.000                                                  
C39  26335105.194   137133829.042          40.000                                                  
> 2026 06 07 17 01 33.0000000  0 12                     
C01  38581873.811   200905936.129          46.000                                                  
C02  36962963.095   192475835.469          49.000                                                  
C03  37001768.877   192677920.760          49.000                                                  
C07                                                                                                
C08  38330127.474   199595052.022          45.000                                                  
C09  38662231.897   201324382.891          44.000    38662235.596   155676748.448          46.000  
C12  22727535.564   118348226.071          48.000                                                  
C19  22264789.517   115938616.684          52.000                                                  
C20  24497019.726   127562319.897          47.000                                                  
C22  23545978.754   122610089.822          31.000                                                  
C36  22560612.032   117479100.003          50.000                                                  
C39  26329154.881   137102843.415          40.000                                                  
> 2026 06 07 17 01 48.0000000  0 12                     
C01  38581852.886   200905827.207          46.000                                                  
C02  36963166.212   192476892.732          49.000                                                  
C03  37001921.014   192678713.204          49.000                                                  
C07                                                                                                
C08  38325170.143   199569238.056          44.000                                                  
C09  38667765.236   201353197.538          43.000    38667769.185   155699029.790          46.000  
C12  22734836.150   118386241.853          49.000                                                  
C19  22267958.856   115955120.751          51.000                                                  
C20  24506131.641   127609767.643          47.000                                                  
C22  23540347.296   122580766.695          32.000                                                  
C36  22558498.770   117468096.503          50.000                                                  
C39  26323212.073   137071895.568          39.000                                                  
> 2026 06 07 17 02 03.0000000  0 12                     
C01  38581830.317   200905709.526          47.000                                                  
C02  36963367.650   192477941.382          49.000                                                  
C03  37002071.435   192679496.854          49.000                                                  
C07  37175370.956   193581910.030          30.000                                                  
C08  38320213.955   199543430.123          43.000                                                  
C09  38673299.255   201382014.555          43.000    38673303.311   155721312.933          45.000  
C12  22742150.423   118424327.924          50.000                                                  
C19  22271149.585   115971736.610          51.000                                                  
C20  24515250.043   127657250.815          46.000                                                  
C22  23534732.920   122551533.035          33.000                                                  
C36  22556393.120   117457130.712          51.000                                                  
C39  26317273.357   137040970.475          36.000                                                  
> 2026 06 07 17 02 18.0000000  0 12                     
C01  38581805.515   200905580.424          46.000                                                  
C02  36963566.889   192478978.764          49.000                                                  
C03  37002219.730   192680269.068          48.000                                                  
C07  37175368.847   193581895.544          31.000                                                  
C08  38315258.124   199517625.673          43.000                                                  
C09  38678833.202   201410831.427          43.000    38678837.348   155743595.982          46.000  
C12  22749477.795   118462481.414          50.000                                                  
C19  22274361.416   115988461.537          51.000                                                  
C20  24524374.538   127704766.481          45.000                                                  
C22  23529135.306   122522386.411          36.000                                                  
C36  22554294.135   117446199.966          51.000                                                  
C39  26311336.821   137010065.547          33.000                                                  
> 2026 06 07 17 02 33.0000000  0 13                     
C01  38581782.482   200905460.711          46.000                                                  
C02  36963767.970   192480025.719          49.000                                                  
C03  37002369.794   192681050.689          48.000                                                  
C07  37175364.684   193581875.489          31.000                                                  
C08  38310307.047   199491845.516          45.000                                                  
C09  38684371.098   201439668.705          43.000    38684375.315   155765894.815          46.000  
C10                                                                                                
C12  22756821.767   118500722.819          50.000                                                  
C19  22277598.122   116005316.182          51.000                                                  
C20  24533509.558   127752335.148          46.000                                                  
C22  23523558.562   122493347.854          37.000                                                  
C36  22552205.639   117435324.969          50.000                                                  
C39  26305407.825   136979201.380          38.000                                                  
> 2026 06 07 17 02 48.0000000  0 12                     
C01  38581760.128   200905344.258          46.000                                                  
C02  36963969.675   192481076.087          49.000                                                  
C03  37002520.484   192681835.549          48.000                                                  
C07  37175358.001   193581843.582          31.000                                                  
C08  38305360.044   199466083.619          45.000                                                  
C09  38689911.728   201468520.261          43.000    38689915.945   155788204.715          46.000  
C12  22764181.392   118539045.774          49.000                                                  
C19  22280858.790   116022294.349          52.000                                                  
C20  24542653.798   127799950.463          46.000                                                  
C22  23518001.368   122464411.446          37.000                                                  
C36  22550126.614   117424499.475          51.000                                                  
C39  26299487.479   136948371.889          40.000                                                  
> 2026 06 07 17 03 03.0000000  0 13                     
C01  38581737.470   200905226.301          46.000                                                  
C02  36964171.148   192482125.078          49.000                                                  
C03  37002670.870   192682618.894          48.000                                                  
C07  37175348.566   193581795.185          32.000                                                  
C08  38300415.685   199440335.336          44.000                                                  
C09  38695454.181   201497381.182          43.000    38695458.362   155810521.819          46.000  
C10                                                                                                
C12  22771555.669   118577445.271          50.000                                                  
C19  22284141.973   116039391.087          51.000                                                  
C20  24551806.169   127847607.369          47.000                                                  
C22  23512463.043   122435572.685          37.000                                                  
C36  22548056.363   117413718.618          51.000                                                  
C39  26293573.297   136917572.199          38.000                                                  
> 2026 06 07 17 03 18.0000000  0 13                     
C01  38581714.544   200905107.001          47.000                                                  
C02  36964372.389   192483172.855          49.000                                                  
C03  37002821.005   192683400.866          49.000                                                  
C07  37175336.594   193581730.382          34.000                                                  
C08  38295473.667   199414600.877          44.000                                                  
C09  38700998.492   201526251.554          43.000    38701002.477   155832846.222          45.000  
C10                                                                                                
C12  22778944.493   118615921.182          49.000                                                  
C19  22287447.903   116056606.482          51.000                                                  
C20  24560966.259   127895305.707          46.000                                                  
C22  23506943.641   122406831.956          36.000                                                  
C36  22545994.421   117402982.477          50.000                                                  
C39  26287664.082   136886802.642          36.000                                                  
> 2026 06 07 17 03 33.0000000  0 13                     
C01  38581690.993   200904984.392          46.000                                                  
C02  36964573.040   192484217.536          49.000                                                  
C03  37002970.533   192684179.509          48.000                                                  
C07  37175321.084   193581647.249          32.000                                                  
C08  38290533.740   199388878.365          44.000                                                  
C09  38706544.000   201555129.390          42.000    38706548.092   155855176.390          45.000  
C10                                                                                                
C12  22786347.361   118654471.353          49.000                                                  
C19  22290776.348   116073938.455          51.000                                                  
C20  24570133.568   127943043.280          45.000                                                  
C22  23501442.805   122378187.510          34.000                                                  
C36  22543940.698   117392288.972          50.000                                                  
C39  26281759.085   136856061.221          37.000                                                  
> 2026 06 07 17 03 48.0000000  0 12                     
C01  38581667.477   200904862.155          46.000                                                  
C02  36964773.799   192485262.723          49.000                                                  
C03  37003120.133   192684958.492          49.000                                                  
C07  37175302.410   193581549.589          30.000                                                  
C08  38285596.511   199363171.536          43.000                                                  
C09  38712091.278   201584018.118          42.000    38712095.852   155877515.001          46.000  
C12  22793765.400   118693099.177          49.000                                                  
C19  22294127.897   116091390.569          51.000                                                  
C20  24579309.472   127990823.507          47.000                                                  
C22  23495961.250   122349643.288          33.000                                                  
C36  22541896.107   117381641.719          50.000                                                  
C39  26275861.307   136825351.388          38.000                                                  
> 2026 06 07 17 04 03.0000000  0 12                     
C01  38581645.713   200904748.947          47.000                                                  
C02  36964976.309   192486317.084          50.000                                                  
C03  37003271.465   192685746.449          49.000                                                  
C08  38280663.857   199337489.097          44.000                                                  
C09  38717642.325   201612926.335          42.000    38717647.525   155899868.688          46.000  
C10                                                                                                
C12  22801200.021   118731813.016          50.000                                                  
C19  22297504.035   116108971.305          50.000                                                  
C20  24588495.257   128038654.745          47.000                                                  
C22  23490500.709   122321208.137          32.000                                                  
C36  22539861.897   117371049.204          50.000                                                  
C39  26269972.248   136794681.925          39.000                                                  
> 2026 06 07 17 04 18.0000000  0 11                     
C01  38581622.358   200904627.483          47.000                                                  
C02  36965177.228   192487363.309          49.000                                                  
C03  37003421.226   192686526.177          49.000                                                  
C08  38275732.775   199311813.889          44.000                                                  
C09  38723194.052   201641836.735          42.000    38723199.520   155922224.063          46.000  
C12  22808647.991   118770595.388          50.000                                                  
C19  22300901.151   116126663.267          49.000                                                  
C20  24597687.297   128086519.413          48.000                                                  
C22  23485058.198   122292865.102          33.000                                                  
C36  22537834.835   117360494.124          49.000                                                  
C39  26264087.372   136764035.510          37.000                                                  
> 2026 06 07 17 04 33.0000000  0 12                     
C01  38581599.396   200904508.032          46.000                                                  
C02  36965378.594   192488411.718          49.000                                                  
C03  37003571.343   192687307.861          48.000                                                  
C08  38270805.195   199286156.218          44.000                                                  
C09  38728748.191   201670759.560          42.000    38728753.874   155944589.019          45.000  
C10  37315182.284   194309958.283          30.000                                                  
C12  22816111.042   118809456.273          50.000                                                  
C19  22304322.282   116144476.668          51.000                                                  
C20  24606887.664   128134427.539          47.000                                                  
C22  23479635.235   122264624.524          33.000                                                  
C36  22535816.994   117349986.624          50.000                                                  
C39  26258208.695   136733422.380          40.000                                                  
> 2026 06 07 17 04 48.0000000  0 12                     
C01  38581577.042   200904391.646          46.000                                                  
C02  36965580.550   192489463.351          49.000                                                  
C03  37003722.033   192688092.617          48.000                                                  
C08  38265881.404   199260517.230          45.000                                                  
C09  38734304.886   201699695.609          41.000    38734310.800   155966964.222          45.000  
C10  37315171.562   194309911.541          31.000                                                  
C12  22823589.407   118848396.484          50.000                                                  
C19  22307766.929   116162412.394          51.000                                                  
C20  24616096.322   128182379.839          46.000                                                  
C22  23474231.946   122236487.760          33.000                                                  
C36  22533808.623   117339527.616          51.000                                                  
C39  26252337.310   136702843.503          40.000                                                  
> 2026 06 07 17 05 03.0000000  0 12                     
C01  38581555.742   200904280.793          46.000                                                  
C02  36965783.631   192490520.640          50.000                                                  
C03  37003873.830   192688882.897          49.000                                                  
C08  38260961.758   199234899.451          44.000                                                  
C09  38739865.100   201728647.399          42.000    38739870.854   155989351.593          46.000  
C10  37315160.287   194309852.635          29.000                                                  
C12  22831083.121   118887418.172          50.000                                                  
C19  22311235.360   116180472.758          51.000                                                  
C20  24625314.022   128230378.530          47.000                                                  
C22  23468849.028   122208457.374          33.000                                                  
C36  22531809.901   117329119.504          50.000                                                  
C39  26246472.982   136672301.329          40.000                                                  
> 2026 06 07 17 05 18.0000000  0 12                     
C01  38581530.725   200904150.559          47.000                                                  
C02  36965982.996   192491558.688          50.000                                                  
C03  37004021.911   192689653.753          49.000                                                  
C08  38256041.594   199209278.017          46.000                                                  
C09  38745423.564   201757589.889          44.000    38745429.246   156011731.758          46.000  
C10  37315140.792   194309736.5861         29.000                                                  
C12  22838587.485   118926496.171          49.000                                                  
C19  22314723.126   116198632.757          51.000                                                  
C20  24634535.635   128278398.433          46.000                                                  
C22  23463481.889   122180508.931          32.000                                                  
C36  22529815.932   117318737.291          49.000                                                  
C39  26240609.923   136641771.073          37.000                                                  
> 2026 06 07 17 05 33.0000000  0 11                     
C01  38581506.995   200904026.938          46.000                                                  
C02  36966183.665   192492603.515          50.000                                                  
C03  37004171.224   192690431.218          49.000                                                  
C08  38251125.969   199183679.051          46.000                                                  
C09  38750985.082   201786548.974          43.000    38750990.836   156034124.773          47.000  
C12  22846107.824   118965656.332          50.000                                                  
C19  22318234.818   116216918.253          52.000                                                  
C20  24643766.397   128326465.267          47.000                                                  
C22  23458135.227   122152668.551          31.000                                                  
C36  22527831.917   117308406.877          49.000                                                  
C39  26234753.012   136611278.644          39.000                                                  
> 2026 06 07 17 05 48.0000000  0 12                     
C01  38581482.926   200903901.770          46.000                                                  
C02  36966384.048   192493646.922          50.000                                                  
C03  37004320.252   192691207.099          49.000                                                  
C08  38246213.077   199158094.391          45.000                                                  
C09  38756548.210   201815516.387          43.000    38756553.856   156056524.268          46.000  
C10                                                  37315093.814   150252432.444          29.000  
C12  22853642.137   119004890.098          49.000                                                  
C19  22321769.096   116235320.940          52.000                                                  
C20  24653005.057   128374570.612          48.000                                                  
C22  23452803.736   122124904.3361         28.000                                                  
C36  22525856.568   117298119.931          49.000                                                  
C39  26228902.854   136580815.733          40.000                                                  
> 2026 06 07 17 06 03.0000000  0 11                     
C01  38581458.034   200903772.133          46.000                                                  
C02  36966583.609   192494686.014          50.000                                                  
C03  37004468.422   192691978.516          49.000                                                  
C08  38241302.152   199132521.302          45.000                                                  
C09  38762112.302   201844489.240          42.000    38762117.841   156078927.898          46.000  
C12  22861190.030   119044194.348          49.000                                                  
C19  22325325.174   116253837.761          51.000                                                  
C20  24662250.204   128422711.228          47.000                                                  
C22  23447496.028   122097272.335          29.000                                                  
C36  22523888.867   117287873.522          48.000                                                  
C39  26223057.968   136550379.430          40.000                                                  
> 2026 06 07 17 06 18.0000000  0 12                     
C01  38581434.554   200903650.068          47.000                                                  
C02  36966784.636   192495732.815          50.000                                                  
C03  37004618.039   192692757.456          49.000                                                  
C08  38236395.657   199106971.791          44.000                                                  
C09  38767679.914   201873479.237          44.000    38767685.060   156101344.846          46.000  
C10                                                  37315035.579   150252187.189          31.000  
C12  22868753.594   119083580.824          49.000                                                  
C19  22328905.144   116272480.604          51.000                                                  
C20  24671503.731   128470898.866          45.000                                                  
C22  23442204.350   122069691.1581         29.000                                                  
C36  22521930.958   117277679.558          50.000                                                  
C39  26217220.302   136519981.865          36.000                                                  
> 2026 06 07 17 06 33.0000000  0 12                     
C01  38581410.735   200903526.267          47.000                                                  
C02  36966985.359   192496778.008          50.000                                                  
C03  37004767.281   192693534.625          49.000                                                  
C08  38231491.879   199081436.686          45.000                                                  
C09  38773248.938   201902477.126          44.000    38773253.691   156123767.875          46.000  
C10                                                  37315001.646   150252048.991          32.000  
C12  22876331.865   119123040.050          50.000                                                  
C19  22332507.449   116291240.035          51.000                                                  
C20  24680764.138   128519123.991          45.000                                                  
C22  23436939.903   122042258.476          30.000                                                  
C36  22519981.698   117267528.580          51.000                                                  
C39  26211386.923   136489613.709          36.000                                                  
> 2026 06 07 17 06 48.0000000  0 12                     
C01  38581388.667   200903411.424          47.000                                                  
C02  36967187.850   192497832.296          50.000                                                  
C03  37004918.257   192694320.732          49.000                                                  
C08  38226593.033   199055926.756          44.000                                                  
C09  38778821.375   201931493.474          43.000    38778825.717   156146205.165          45.000  
C10                                                  37314965.586   150251903.951          32.000  
C12  22883925.699   119162582.385          50.000                                                  
C19  22336134.522   116310126.660          52.000                                                  
C20  24690033.389   128567396.905          42.000                                                  
C22  23431693.790   122014937.194          30.000                                                  
C36  22518042.784   117257431.244          52.000                                                  
C39  26205562.247   136459285.430          38.000                                                  
> 2026 06 07 17 07 03.0000000  0 12                     
C01  38581364.097   200903283.645          46.000                                                  
C02  36967387.858   192498873.772          50.000                                                  
C03  37005066.748   192695093.871          49.000                                                  
C08  38221694.508   199030420.159          43.000                                                  
C09  38784392.829   201960506.254          43.000    38784397.046   156168639.691          45.000  
C10                                                  37314923.630   150251735.152          32.000  
C12  22891530.863   119202185.627          49.000                                                  
C19  22339781.786   116329118.409          51.000                                                  
C20  24699308.431   128615695.570          44.000                                                  
C22  23426465.028   121987705.782          28.000                                                  
C36  22516109.623   117247365.562          51.000                                                  
C39  26199741.645   136428975.243          39.000                                                  
> 2026 06 07 17 07 18.0000000  0 13                     
C01  38581341.975   200903168.585          46.000                                                  
C02  36967590.350   192499928.098          50.000                                                  
C03  37005217.652   192695879.658          49.000                                                  
C07  37174742.127   193578621.0381         29.000                                                  
C08  38216801.237   199004942.627          44.000                                                  
C09  38789968.322   201989541.054          42.000    38789972.485   156191091.272          44.000  
C10                                                  37314880.601   150251562.347          30.000  
C12  22899152.984   119241875.229          50.000                                                  
C19  22343453.959   116348240.762          51.000                                                  
C20  24708593.676   128664045.246          45.000                                                  
C22                                                                                                
C36  22514187.488   117237357.036          52.000                                                  
C39  26193929.370   136398708.769          39.000                                                  
> 2026 06 07 17 07 33.0000000  0 13                     
C01  38581317.637   200903042.021          47.000                                                  
C02  36967790.626   192500971.052          50.000                                                  
C03  37005366.322   192696653.937          49.000                                                  
C07  37174678.496   193578296.813          30.000                                                  
C08  38211908.985   198979470.001          44.000                                                  
C09  38795543.618   202018573.659          43.000    38795547.406   156213541.090          43.000  
C10                                                  37314831.944   150251367.027          30.000  
C12  22906786.756   119281626.701          49.000                                                  
C19  22347146.593   116367469.428          51.000                                                  
C20  24717884.406   128712421.540          46.000                                                  
C22                                                                                                
C36  22512271.893   117227381.376          52.000                                                  
C39  26188121.187   136368461.715          40.000                                                  
> 2026 06 07 17 07 48.0000000  0 13                     
C01  38581293.514   200902916.539          46.000                                                  
C02  36967991.170   192502015.204          49.000                                                  
C03  37005515.189   192697429.242          49.000                                                  
C07  37174613.470   193577959.104          31.000                                                  
C08  38207020.556   198954014.918          45.000                                                  
C09  38801121.058   202047616.415          43.000    38801124.310   156235998.780          43.000  
C10                                                  37314780.034   150251158.767          29.000  
C12  22914434.590   119321452.343          49.000                                                  
C19  22350862.188   116386816.813          51.000                                                  
C20  24727182.391   128760836.708          45.000                                                  
C22                                                                                                
C36  22510365.072   117217451.065          51.000                                                  
C39  26182319.169   136338246.741          39.000                                                  
> 2026 06 07 17 08 03.0000000  0 13                     
C01  38581270.570   200902797.166          46.000                                                  
C02  36968192.894   192503065.607          50.000                                                  
C03  37005665.271   192698210.641          49.000                                                  
C07  37174547.194   193577612.867          31.000                                                  
C08  38202136.791   198928582.477          46.000                                                  
C09  38806701.411   202076674.390          43.000    38806704.359   156258468.237          44.000  
C10                                                  37314727.088   150250942.3381         27.000  
C12  22922097.864   119361356.943          50.000                                                  
C19  22354601.228   116406287.804          50.000                                                  
C20  24736488.757   128809295.437          45.000                                                  
C22  23405750.560   121879915.3221         34.000                                                  
C36  22508467.686   117207571.062          50.000                                                  
C39  26176523.852   136308068.756          39.000                                                  
> 2026 06 07 17 08 18.0000000  0 13                     
C01  38581247.466   200902676.941          46.000                                                  
C02  36968394.492   192504115.286          50.000                                                  
C03  37005815.156   192698991.148          49.000                                                  
C07  37174478.005   193577251.175          32.000                                                  
C08  38197256.011   198903165.858          45.000                                                  
C09  38812282.872   202105740.458          42.000    38812286.195   156280943.980          44.000  
C10                                                  37314670.479   150250717.636          28.000  
C12  22929775.182   119401333.278          50.000                                                  
C19  22358362.693   116425875.330          51.000                                                  
C20  24745802.271   128857790.587          47.000                                                  
C22  23400621.829   121853208.544          37.000                                                  
C36  22506578.447   117197734.286          50.000                                                  
C39  26170734.163   136277920.753          38.000                                                  
> 2026 06 07 17 08 33.0000000  0 12                     
C01  38581225.129   200902560.974          46.000                                                  
C02  36968596.930   192505169.336          50.000                                                  
C03  37005965.828   192699775.880          49.000                                                  
C07  37174406.761   193576879.109          31.000                                                  
C08  38192378.965   198877770.215          45.000                                                  
C09  38817866.709   202134819.602          41.000    38817870.390   156303429.838          43.000  
C12  22937467.260   119441386.192          50.000                                                  
C19  22362147.477   116445584.334          50.000                                                  
C20  24755123.700   128906326.956          46.000                                                  
C22  23395514.040   121826610.108          39.000                                                  
C36  22504698.590   117187945.712          50.000                                                  
C39  26164950.747   136247807.902          38.000                                                  
> 2026 06 07 17 08 48.0000000  0 13                     
C01  38581200.363   200902432.270          46.000                                                  
C02  36968796.938   192506210.810          50.000                                                  
C03  37006114.034   192700547.835          49.000                                                  
C07  37174330.103   193576479.802          31.000                                                  
C08  38187502.687   198852378.594          46.000                                                  
C09  38823450.189   202163894.852          42.000    38823453.727   156325912.698          42.000  
C10                                                  37314544.806   150250198.801          28.000  
C12  22945170.793   119481498.405          50.000                                                  
C19  22365951.988   116465397.660          49.000                                                  
C20  24764449.168   128954887.254          46.000                                                  
C22  23390423.763   121800103.257          40.000                                                  
C36  22502824.791   117178188.277          50.000                                                  
C39  26159171.351   136217713.082          40.000                                                  
> 2026 06 07 17 09 03.0000000  0 12                     
C01  38581176.025   200902305.607          46.000                                                  
C02  36968997.375   192507254.424          51.000                                                  
C03  37006262.615   192701321.782          49.000                                                  
C07  37174250.961   193576068.021          32.000                                                  
C08  38182630.054   198827005.908          46.000                                                  
C09  38829035.742   202192980.780          42.000    38829039.083   156348403.782          43.000  
C12  22952887.995   119521684.407          49.000                                                  
C19  22369779.515   116485329.966          51.000                                                  
C20  24773781.408   129003485.943          44.000                                                  
C22  23385353.946   121773702.930          41.000                                                  
C36  22500959.462   117168476.660          50.000                                                  
C39  26153398.459   136187651.085          38.000                                                  
> 2026 06 07 17 09 18.0000000  0 12                     
C01  38581152.939   200902185.412          47.000                                                  
C02  36969199.080   192508304.626          50.000                                                  
C03  37006412.429   192702102.170          49.000                                                  
C07  37174170.372   193575648.121          31.000                                                  
C08  38177761.854   198801656.627          46.000                                                  
C09  38834624.708   202222081.799          43.000    38834627.513   156370906.568          42.000  
C12  22960620.010   119561948.397          49.000                                                  
C19  22373631.040   116505385.559          50.000                                                  
C20  24783121.797   129052127.214          44.000                                                  
C22  23380305.464   121747413.822          41.000                                                  
C36  22499103.960   117158815.161          51.000                                                  
C39  26147632.179   136157626.322          38.000                                                  
> 2026 06 07 17 09 33.0000000  0 12                     
C01  38581129.173   200902061.631          47.000                                                  
C02  36969400.089   192509351.381          51.000                                                  
C03  37006561.599   192702878.903          49.000                                                  
C07  37174086.227   193575210.141          30.000                                                  
C08  38172896.458   198776320.736          47.000                                                  
C09  38840214.656   202251187.697          43.000    38840216.783   156393413.074          42.000  
C12  22968364.963   119602280.056          48.000                                                  
C19  22377504.097   116525554.186          50.000                                                  
C20  24792468.457   129100800.763          43.000                                                  
C22  23375276.317   121721226.070          41.000                                                  
C36  22497256.393   117149193.671          52.000                                                  
C39  26141871.063   136127628.727          37.000                                                  
> 2026 06 07 17 09 48.0000000  0 12                     
C01  38581104.585   200901933.482          46.000                                                  
C02  36969600.258   192510393.840          50.000                                                  
C03  37006709.912   192703651.248          49.000                                                  
C07  37173998.919   193574753.289          30.000                                                  
C08  38168033.582   198750997.546          45.000                                                  
C09  38845805.302   202280297.658          44.000    38845807.106   156415922.751          43.000  
C12  22976122.835   119642678.259          49.000                                                  
C19  22381398.865   116545834.893          51.000                                                  
C20  24801821.479   129149505.458          45.000                                                  
C22  23370266.540   121695139.087          40.000                                                  
C36  22495416.205   117139611.258          51.000                                                  
C39  26136114.415   136097657.505          37.000                                                  
> 2026 06 07 17 10 03.0000000  0 11                     
C01  38581081.981   200901815.584          47.000                                                  
C02  36969802.392   192511446.718          50.000                                                  
C03  37006860.173   192704433.790          49.000                                                  
C08  38163175.728   198725701.765          45.000                                                  
C09  38851399.092   202309426.164          43.000    38851401.022   156438446.733          42.000  
C12  22983896.343   119683157.467          49.000                                                  
C19  22385318.007   116566242.204          52.000                                                  
C20  24811183.578   129198255.721          45.000                                                  
C22  23365278.974   121669167.764          41.000                                                  
C36  22493586.417   117130082.502          51.000                                                  
C39  26130366.450   136067727.198          39.000                                                  
> 2026 06 07 17 10 18.0000000  0 11                     
C01  38581057.554   200901688.459          46.000                                                  
C02  36970002.811   192512490.457          50.000                                                  
C03  37007008.646   192705207.036          49.000                                                  
C08  38158319.392   198700413.939          46.000                                                  
C09  38856992.454   202338553.650          42.000    38856994.866   156460969.975          44.000  
C12  22991681.840   119723697.825          49.000                                                  
C19  22389258.019   116586756.512          52.000                                                  
C20  24820550.860   129247031.711          45.000                                                  
C22  23360309.920   121643292.702          42.000                                                  
C36  22491763.080   117120587.767          51.000                                                  
C39  26124623.578   136037818.199          41.000                                                  
> 2026 06 07 17 10 33.0000000  0 12                     
C01  38581031.572   200901553.437          46.000                                                  
C02  36970201.729   192513526.411          50.000                                                  
C03  37007155.565   192705972.333          49.000                                                  
C08  38153464.825   198675135.482          46.000                                                  
C09  38862585.940   202367681.260          43.000    38862588.871   156483493.314          45.000  
C10  37313992.403   194303750.8661         29.000                                                  
C12  22999479.489   119764300.471          50.000                                                  
C19  22393218.295   116607378.897          50.000                                                  
C20  24829923.144   129295834.494          45.000                                                  
C22  23355359.808   121617515.568          43.000                                                  
C36  22489946.515   117111128.294          51.000                                                  
C39  26118884.960   136007931.957          41.000                                                  
> 2026 06 07 17 10 48.0000000  0 12                     
C01  38581008.789   200901434.794          46.000                                                  
C02  36970403.828   192514578.842          50.000                                                  
C03  37007305.630   192706753.977          49.000                                                  
C08  38148616.887   198649890.782          46.000                                                  
C09  38868184.448   202396833.392          43.000    38868187.432   156506035.630          44.000  
C10  37313901.379   194303275.366          30.000                                                  
C12  23007293.684   119804989.402          49.000                                                  
C19  22397203.784   116628133.544          50.000                                                  
C20  24839305.257   129344688.090          45.000                                                  
C22  23350433.211   121591860.788          44.000                                                  
C36  22488141.118   117101728.294          50.000                                                  
C39  26113154.453   135978092.698          40.000                                                  
> 2026 06 07 17 11 03.0000000  0 11                     
C01  38580984.720   200901309.637          46.000                                                  
C02  36970604.693   192515624.872          50.000                                                  
C03  37007454.443   192707529.064          49.000                                                  
C08  38143771.130   198624656.997          45.000                                                  
C09  38873783.170   202425986.966          43.000    38873786.208   156528579.018          44.000  
C12  23015119.673   119845741.408          49.000                                                  
C19  22401210.251   116648997.413          50.000                                                  
C20  24848692.623   129393569.277          46.000                                                  
C22  23345525.716   121566305.695          45.000                                                  
C36  22486342.833   117092364.761          51.000                                                  
C39  26107428.968   135948277.400          43.000                                                  
> 2026 06 07 17 11 18.0000000  0 11                     
C01  38580959.256   200901177.095          46.000                                                  
C02  36970804.112   192516663.667          50.000                                                  
C03  37007601.862   192708296.744          49.000                                                  
C08  38138927.338   198599433.309          46.000                                                  
C09  38879381.982   202455140.959          44.000    38879384.948   156551122.714          43.000  
C12  23022957.276   119886555.434          48.000                                                  
C19  22405237.536   116669969.469          50.000                                                  
C20  24858085.171   129442476.990          45.000                                                  
C22  23340637.198   121540849.634          45.000                                                  
C36  22484551.660   117083036.694          51.000                                                  
C39  26101708.683   135918485.241          43.000                                                  
> 2026 06 07 17 11 33.0000000  0 11                     
C01  38580934.919   200901050.538          46.000                                                  
C02  36971004.709   192517708.549          50.000                                                  
C03  37007750.336   192709070.325          49.000                                                  
C08  38134087.907   198574233.199          45.000                                                  
C09  38884983.456   202484308.755          44.000    38884986.315   156573677.100          44.000  
C12  23030808.872   119927444.455          48.000                                                  
C19  22409288.282   116691062.930          50.000                                                  
C20  24867485.206   129491424.257          46.000                                                  
C22  23335770.230   121515506.154          46.000                                                  
C36  22482769.618   117073757.398          51.000                                                  
C39  26095995.510   135888729.528          41.000                                                  
> 2026 06 07 17 11 48.0000000  0 11                     
C01  38580910.277   200900922.200          46.000                                                  
C02  36971205.003   192518751.741          50.000                                                  
C03  37007898.470   192709842.065          49.000                                                  
C08  38129251.102   198549048.960          44.000                                                  
C09  38890585.752   202513482.387          43.000    38890588.790   156596235.991          43.000  
C12  23038673.993   119968400.517          48.000                                                  
C19  22413361.187   116712269.907          50.000                                                  
C20  24876891.103   129540403.018          45.000                                                  
C22  23330923.454   121490267.717          47.000                                                  
C36  22480995.582   117064518.986          51.000                                                  
C39  26090286.428   135859002.632          36.000                                                  
> 2026 06 07 17 12 03.0000000  0 11                     
C01  38580885.475   200900792.953          46.000                                                  
C02  36971405.172   192519794.142          50.000                                                  
C03  37008046.408   192710612.843          49.000                                                  
C08  38124417.477   198523881.513          45.000                                                  
C09  38896189.246   202542662.559          43.000    38896192.248   156618799.956          42.000  
C12  23046552.088   120009424.222          48.000                                                  
C19  22417455.605   116733591.023          50.000                                                  
C20  24886303.021   129589413.910          45.000                                                  
C22  23326097.103   121465135.431          47.000                                                  
C36  22479229.407   117055322.240          51.000                                                  
C39  26084582.154   135829305.072          39.000                                                  
> 2026 06 07 17 12 18.0000000  0 12                     
C01  38580861.745   200900669.436          46.000                                                  
C02  36971606.395   192520842.365          50.000                                                  
C03  37008195.382   192711389.308          48.000                                                  
C07  37172976.114   193569442.9331         31.000                                                  
C08  38119588.713   198498737.564          46.000                                                  
C09  38901795.616   202571855.955          44.000    38901798.278   156641374.157          42.000  
C12  23054444.210   120050521.902          47.000                                                  
C19  22421573.432   116755032.821          51.000                                                  
C20  24895722.230   129638463.240          44.000                                                  
C22  23321292.408   121440116.048          47.000                                                  
C36  22477472.525   117046173.666          51.000                                                  
C39  26078885.813   135799643.632          38.000                                                  
> 2026 06 07 17 12 33.0000000  0 12                     
C01  38580836.496   200900538.182          46.000                                                  
C02  36971806.189   192521882.937          50.000                                                  
C03  37008342.855   192712157.957          49.000                                                  
C07  37172856.910   193568825.474          33.000                                                  
C08  38114762.183   198473603.702          45.000                                                  
C09  38907401.986   202601049.037          43.000    38907404.506   156663948.057          42.000  
C12  23062348.376   120091679.824          48.000                                                  
C19  22425712.077   116776581.659          50.000                                                  
C20  24905146.335   129687537.247          45.000                                                  
C22  23316506.870   121415196.396          48.000                                                  
C36  22475722.111   117037059.741          51.000                                                  
C39  26073193.350   135770004.751          39.000                                                  
> 2026 06 07 17 12 48.0000000  0 12                     
C01  38580811.819   200900409.987          46.000                                                  
C02  36972006.590   192522926.679          50.000                                                  
C03  37008490.953   192712929.642          49.000                                                  
C07  37172736.204   193568196.869          34.000                                                  
C08  38109939.530   198448490.867          44.000                                                  
C09  38913010.054   202630252.476          43.000    38913012.859   156686529.989          43.000  
C12  23070266.212   120132908.565          48.000                                                  
C19  22429872.503   116798248.143          48.000                                                  
C20  24914577.373   129736646.550          46.000                                                  
C22  23311742.666   121390387.431          49.000                                                  
C36  22473980.507   117027991.149          51.000                                                  
C39  26067507.981   135740399.277          40.000                                                  
> 2026 06 07 17 13 03.0000000  0 13                     
C01  38580787.392   200900282.991          46.000                                                  
C02  36972207.259   192523971.712          50.000                                                  
C03  37008639.338   192713702.460          49.000                                                  
C07  37172612.872   193567555.246          34.000                                                  
C08  38105120.076   198423397.245          44.000                                                  
C09  38918619.801   202659464.209          43.000    38918622.982   156709118.414          43.000  
C10                                                  37312906.396   150243600.5161         29.000  
C12  23078197.199   120174205.921          49.000                                                  
C19  22434055.302   116820030.254          50.000                                                  
C20  24924014.665   129785788.917          45.000                                                  
C22  23306999.388   121365687.522          48.000                                                  
C36  22472247.337   117018965.909          51.000                                                  
C39  26061828.776   135710825.222          38.000                                                  
> 2026 06 07 17 13 18.0000000  0 13                     
C01  38580763.590   200900159.271          46.000                                                  
C02  36972408.536   192525020.109          50.000                                                  
C03  37008788.347   192714478.457          49.000                                                  
C07  37172487.396   193566902.791          34.000                                                  
C08  38100304.821   198398324.941          46.000                                                  
C09  38924231.872   202688686.389          43.000    38924234.981   156731714.873          44.000  
C10                                                  37312780.276   150243092.188          32.000  
C12  23086142.017   120215573.706          49.000                                                  
C19  22438261.170   116841929.967          50.000                                                  
C20  24933458.604   129834966.215          44.000                                                  
C22  23302277.481   121341098.925          48.000                                                  
C36  22470522.833   117009986.018          50.000                                                  
C39  26056155.826   135681284.783          36.000                                                  
> 2026 06 07 17 13 33.0000000  0 13                     
C01  38580739.431   200900033.658          46.000                                                  
C02  36972609.455   192526066.723          50.000                                                  
C03  37008936.982   192715252.529          49.000                                                  
C07  37172358.596   193566234.332          34.000                                                  
C08  38095493.140   198373268.830          46.000                                                  
C09  38929845.068   202717913.698          44.000    38929847.891   156754315.251          43.000  
C10                                                  37312650.743   150242568.845          33.000  
C12  23094099.235   120257006.550          49.000                                                  
C19  22442487.998   116863941.851          49.000                                                  
C20  24942908.101   129884172.866          45.000                                                  
C22  23297575.962   121316616.669          48.000                                                  
C36  22468806.031   117001046.202          51.000                                                  
C39  26050487.593   135651772.649          37.000                                                  
> 2026 06 07 17 13 48.0000000  0 13                     
C01  38580715.273   200899908.112          46.000                                                  
C02  36972810.392   192527113.480          50.000                                                  
C03  37009085.599   192716026.607          48.000                                                  
C07  37172227.205   193565551.910          33.000                                                  
C08  38090684.997   198348231.018          46.000                                                  
C09  38935459.336   202747148.047          44.000    38935462.017   156776921.120          42.000  
C10                                                  37312517.959   150242031.867          33.000  
C12  23102068.820   120298506.063          49.000                                                  
C19  22446736.948   116886067.774          49.000                                                  
C20  24952363.709   129933410.649          45.000                                                  
C22  23292895.243   121292242.948          47.000                                                  
C36  22467097.306   116992148.331          50.000                                                  
C39  26044825.811   135622290.657          40.000                                                  
> 2026 06 07 17 14 03.0000000  0 13                     
C01  38580692.400   200899789.196          46.000                                                  
C02  36973012.669   192528166.975          50.000                                                  
C03  37009235.466   192716807.251          49.000                                                  
C07  37172094.617   193564861.992          32.000                                                  
C08  38085881.535   198323218.113          46.000                                                  
C09  38941075.445   202776395.758          42.000    38941078.644   156799537.260          43.000  
C10                                                  37312383.012   150241486.317          32.000  
C12  23110052.270   120340078.500          48.000                                                  
C19  22451009.288   116908314.117          50.000                                                  
C20  24961826.357   129982685.799          45.000                                                  
C22  23288236.610   121267984.506          47.000                                                  
C36  22465397.801   116983298.859          50.000                                                  
C39  26039172.177   135592845.456          40.000                                                  
> 2026 06 07 17 14 18.0000000  0 13                     
C01  38580667.366   200899658.942          46.000                                                  
C02  36973212.785   192529209.251          50.000                                                  
C03  37009383.171   192717576.534          49.000                                                  
C07  37171957.419   193564146.663          31.000                                                  
C08  38081079.343   198298212.231          46.000                                                  
C09  38946690.357   202805638.844          42.000    38946694.484   156822149.883          44.000  
C10                                                  37312242.383   150240918.575          30.000  
C12  23118046.139   120381705.754          49.000                                                  
C19  22455301.356   116930662.753          51.000                                                  
C20  24971292.651   130031980.111          44.000                                                  
C22  23283596.597   121243823.599          47.000                                                  
C36  22463704.121   116974479.742          50.000                                                  
C39  26033521.653   135563419.055          40.000                                                  
> 2026 06 07 17 14 33.0000000  0 12                     
C01  38580641.062   200899522.172          46.000                                                  
C02  36973411.631   192530245.057          51.000                                                  
C03  37009529.572   192718339.202          49.000                                                  
C07                                                                                                
C08  38076279.419   198273218.201          46.000                                                  
C09  38952305.751   202834882.036          42.000    38952310.486   156844762.621          44.000  
C12  23126051.014   120423392.196          47.000                                                  
C19  22459613.991   116953118.310          51.000                                                  
C20  24980763.412   130081298.052          43.000                                                  
C22  23278976.257   121219765.222          46.000                                                  
C36  22462017.303   116965695.649          49.000                                                  
C39  26027875.399   135534016.191          40.000                                                  
> 2026 06 07 17 14 48.0000000  0 12                     
C01  38580615.295   200899388.112          47.000                                                  
C02  36973610.978   192531283.673          50.000                                                  
C03  37009676.509   192719104.510          49.000                                                  
C07                                                                                                
C08  38071483.606   198248245.395          46.000                                                  
C09  38957923.486   202864134.431          42.000    38957928.328   156867382.406          43.000  
C12  23134069.506   120465146.884          49.000                                                  
C19  22463948.677   116975689.823          51.000                                                  
C20  24990240.766   130130648.647          44.000                                                  
C22  23274377.360   121195818.781          46.000                                                  
C36  22460338.973   116956955.739          50.000                                                  
C39  26022234.827   135504646.102          36.000                                                  
> 2026 06 07 17 15 03.0000000  0 12                     
C01  38580591.333   200899263.104          46.000                                                  
C02  36973812.094   192532331.436          50.000                                                  
C03  37009825.180   192719878.841          49.000                                                  
C07                                                                                                
C08  38066693.225   198223300.192          47.000                                                  
C09  38963544.491   202893402.371          44.000    38963549.065   156890014.265          43.000  
C12  23142102.239   120506975.853          47.000                                                  
C19  22468306.878   116998383.532          51.000                                                  
C20  24999725.626   130180037.928          43.000                                                  
C22  23269801.103   121171990.811          46.000                                                  
C36  22458670.221   116948266.271          50.000                                                  
C39  26016600.599   135475315.122          37.000                                                  
> 2026 06 07 17 15 18.0000000  0 12                     
C01  38580565.923   200899130.812          46.000                                                  
C02  36974011.869   192533371.996          50.000                                                  
C03  37009972.492   192720645.797          49.000                                                  
C07                                                                                                
C08  38061905.005   198198366.306          46.000                                                  
C09  38969165.549   202922669.356          45.000    38969169.659   156912645.344          45.000  
C12  23150146.051   120548862.492          48.000                                                  
C19  22472685.164   117021182.852          50.000                                                  
C20  25009214.738   130229449.255          44.000                                                  
C22  23265244.645   121148265.195          46.000                                                  
C36  22457007.812   116939610.742          49.000                                                  
C39  26010971.857   135446006.735          38.000                                                  
> 2026 06 07 17 15 33.0000000  0 12                     
C01  38580540.728   200898999.733          46.000                                                  
C02  36974211.913   192534413.854          50.000                                                  
C03  37010119.929   192721413.877          48.000                                                  
C07                                                                                                
C08  38057120.467   198173452.394          46.000                                                  
C09  38974787.733   202951943.894          44.000    38974791.897   156935282.251          45.000  
C12  23158202.622   120590815.053          48.000                                                  
C19  22477085.625   117044096.159          52.000                                                  
C20  25018709.408   130278890.875          44.000                                                  
C22  23260709.666   121124650.597          47.000                                                  
C36  22455353.605   116930997.626          50.000                                                  
C39  26005350.870   135416729.455          41.000                                                  
> 2026 06 07 17 15 48.0000000  0 12                     
C01  38580516.480   200898873.602          46.000                                                  
C02  36974412.922   192535460.759          50.000                                                  
C03  37010268.349   192722186.879          49.000                                                  
C07                                                                                                
C08  38052340.486   198148562.203          45.000                                                  
C09  38980411.883   202981229.495          44.000    38980416.136   156957927.774          44.000  
C12  23166272.773   120632836.991          49.000                                                  
C19  22481508.297   117067126.990          49.000                                                  
C20  25028209.795   130328366.135          41.000                                                  
C22  23256196.952   121101150.975          48.000                                                  
C36  22453708.404   116922430.523          51.000                                                  
C39  25999736.512   135387486.993          41.000                                                  
> 2026 06 07 17 16 03.0000000  0 12                     
C01  38580491.749   200898744.852          46.000                                                  
C02  36974613.359   192536505.071          49.000                                                  
C03  37010416.287   192722957.133          49.000                                                  
C07                                                                                                
C08  38047563.596   198123688.186          45.000                                                  
C09  38986036.534   203010518.423          43.000    38986040.840   156980575.851          44.000  
C12  23174354.521   120674920.396          48.000                                                  
C19  22485952.038   117090267.568          50.000                                                  
C20  25037716.026   130377867.265          43.000                                                  
C22  23251704.876   121077758.924          49.000                                                  
C36  22452070.708   116913901.694          52.000                                                  
C39  25994126.747   135358271.780          41.000                                                  
> 2026 06 07 17 16 18.0000000  0 12                     
C01  38580467.108   200898616.654          46.000                                                  
C02  36974813.938   192537550.054          50.000                                                  
C03  37010564.296   192723727.928          48.000                                                  
C07                                                                                                
C08  38042790.261   198098833.714          45.000                                                  
C09  38991662.399   203039813.958          43.000    38991666.580   157003229.017          44.000  
C12  23182447.956   120717068.177          47.000                                                  
C19  22490417.489   117113520.945          50.000                                                  
C20  25047228.100   130427397.200          44.000                                                  
C22  23247234.136   121054477.818          49.000                                                  
C36  22450440.893   116905414.316          51.000                                                  
C39  25988522.253   135329086.986          42.000                                                  
> 2026 06 07 17 16 33.0000000  0 12                     
C01  38580442.198   200898487.157          46.000                                                  
C02  36975014.304   192538593.802          49.000                                                  
C03  37010712.055   192724497.312          48.000                                                  
C07                                                                                                
C08  38038020.430   198073996.831          46.000                                                  
C09  38997289.068   203069114.133          43.000    38997293.160   157025885.748          45.000  
C12  23190554.166   120759278.256          48.000                                                  
C19  22494904.293   117136885.073          50.000                                                  
C20  25056745.178   130476953.820          44.000                                                  
C22  23242784.338   121031306.019          50.000                                                  
C36  22448818.510   116896966.419          50.000                                                  
C39  25982923.334   135299930.576          43.000                                                  
> 2026 06 07 17 16 48.0000000  0 12                     
C01  38580416.395   200898352.716          46.000                                                  
C02  36975213.758   192539632.679          49.000                                                  
C03  37010858.867   192725261.705          48.000                                                  
C07                                                                                                
C08  38033253.564   198049174.066          46.000                                                  
C09  39002915.952   203098415.088          44.000    39002919.830   157048543.116          43.000  
C12  23198671.456   120801546.668          48.000                                                  
C19  22499411.718   117160356.129          50.000                                                  
C20  25066266.061   130526533.065          42.000                                                  
C22  23238354.821   121008240.051          50.000                                                  
C36  22447202.990   116888554.233          50.000                                                  
C39  25977329.329   135270798.918          41.000                                                  
> 2026 06 07 17 17 03.0000000  0 12                     
C01  38580390.521   200898217.757          46.000                                                  
C02  36975413.087   192540671.122          49.000                                                  
C03  37011005.500   192726025.498          49.000                                                  
C07                                                                                                
C08  38028490.433   198024369.922          47.000                                                  
C09  39008543.783   203127721.241          43.000    39008547.464   157071204.513          43.000  
C12  23206800.664   120843877.597          48.000                                                  
C19  22503940.372   117183938.346          50.000                                                  
C20  25075792.198   130576139.172          43.000                                                  
C22  23233946.462   120985284.552          50.000                                                  
C36  22445595.153   116880182.113          49.000                                                  
C39  25971740.489   135241696.538          40.000                                                  
> 2026 06 07 17 17 18.0000000  0 12                     
C01  38580365.808   200898088.792          47.000                                                  
C02  36975613.595   192541715.629          50.000                                                  
C03  37011153.259   192726795.202          49.000                                                  
C07                                                                                                
C08  38023732.287   197999590.945          47.000                                                  
C09  39014173.758   203157038.985          42.000    39014177.261   157093874.855          43.000  
C12  23214943.042   120886277.225          48.000                                                  
C19  22508491.433   117207638.028          49.000                                                  
C20  25085325.340   130625778.366          44.000                                                  
C22  23229560.546   120962446.201          50.000                                                  
C36  22443996.072   116871856.430          48.000                                                  
C39  25966158.206   135212629.781          39.000                                                  
> 2026 06 07 17 17 33.0000000  0 12                     
C01  38580340.398   200897956.378          47.000                                                  
C02  36975813.460   192542756.768          49.000                                                  
C03  37011300.357   192727561.368          48.000                                                  
C07                                                                                                
C08  38018977.072   197974827.792          47.000                                                  
C09  39019804.270   203186358.802          43.000    39019807.629   157116546.757          43.000  
C12  23223096.820   120928735.849          49.000                                                  
C19  22513063.634   117231445.629          51.000                                                  
C20  25094862.681   130675440.820          43.000                                                  
C22  23225195.340   120939715.746          50.000                                                  
C36  22442404.067   116863567.717          48.000                                                  
C39  25960581.069   135183589.171          40.000                                                  
> 2026 06 07 17 17 48.0000000  0 12                     
C01  38580314.256   200897820.250          46.000                                                  
C02  36976012.628   192543794.270          49.000                                                  
C03  37011446.811   192728323.757          49.000                                                  
C07                                                                                                
C08  38014224.752   197950080.251          47.000                                                  
C09  39025435.156   203215680.251          43.000    39025438.444   157139219.981          43.000  
C12  23231262.052   120971252.978          49.000                                                  
C19  22517656.491   117255360.669          51.000                                                  
C20  25104404.435   130725126.129          44.000                                                  
C22  23220850.827   120917093.120          50.000                                                  
C36  22440819.317   116855315.519          49.000                                                  
C39  25955009.115   135154574.478          41.000                                                  
> 2026 06 07 17 18 03.0000000  0 12                     
C01  38580288.667   200897686.981          47.000                                                  
C02  36976212.332   192544834.697          49.000                                                  
C03  37011593.820   192729088.914          48.000                                                  
C07                                                                                                
C08  38009476.452   197925354.972          45.000                                                  
C09  39031067.418   203245009.862          42.000    39031071.064   157161899.490          45.000  
C12  23239439.578   121013834.775          48.000                                                  
C19  22522270.970   117279389.514          51.000                                                  
C20  25113951.389   130774840.480          43.000                                                  
C22  23216528.328   120894585.072          50.000                                                  
C36  22439243.144   116847106.313          51.000                                                  
C39  25949443.522   135125592.154          41.000                                                  
> 2026 06 07 17 18 18.0000000  0 12                     
C01  38580263.079   200897553.806          46.000                                                  
C02  36976412.072   192545875.263          49.000                                                  
C03  37011740.793   192729854.102          48.000                                                  
C07                                                                                                
C08  38004731.566   197900649.276          45.000                                                  
C09  39036700.449   203274344.869          40.000    39036704.863   157184583.205          45.000  
C12  23247629.255   121056478.380          49.000                                                  
C19  22526906.838   117303529.229          51.000                                                  
C20  25123503.347   130824580.929          44.000                                                  
C22  23212227.326   120872189.020          50.000                                                  
C36  22437674.619   116838937.283          51.000                                                  
C39  25943883.504   135096639.470          43.000                                                  
> 2026 06 07 17 18 33.0000000  0 11                     
C01  38580237.044   200897418.091          47.000                                                  
C02  36976611.294   192546913.404          49.000                                                  
C03  37011887.247   192730616.697          48.000                                                  
C08  37999990.020   197875960.577          45.000                                                  
C09  39042334.266   203303682.485          42.000    39042339.073   157207268.931          46.000  
C12  23255829.672   121099180.733          48.000                                                  
C19  22531563.362   117327777.006          51.000                                                  
C20  25133059.701   130874344.515          43.000                                                  
C22  23207947.409   120849902.535          50.000                                                  
C36  22436112.974   116830805.711          50.000                                                  
C39  25938328.864   135067713.682          43.000                                                  
> 2026 06 07 17 18 48.0000000  0 11                     
C01  38580211.902   200897287.003          46.000                                                  
C02  36976811.463   192547956.216          49.000                                                  
C03  37012034.613   192731383.832          48.000                                                  
C08  37995253.246   197851296.090          45.000                                                  
C09  39047970.192   203333029.661          43.000    39047974.927   157229962.061          45.000  
C12  23264042.882   121141948.762          48.000                                                  
C19  22536242.026   117352139.797          51.000                                                  
C20  25142621.808   130924138.060          43.000                                                  
C22  23203690.007   120827732.963          50.000                                                  
C36  22434559.834   116822718.629          50.000                                                  
C39  25932780.801   135038821.967          42.000                                                  
> 2026 06 07 17 19 03.0000000  0 11                     
C01  38580187.207   200897158.241          47.000                                                  
C02  36977012.096   192549001.400          49.000                                                  
C03  37012182.372   192732153.184          49.000                                                  
C08  37990520.689   197826653.592          45.000                                                  
C09  39053607.333   203362384.148          42.000    39053612.032   157252660.846          44.000  
C12  23272268.261   121184779.886          49.000                                                  
C19  22540942.276   117376615.112          50.000                                                  
C20  25152189.490   130973959.112          45.000                                                  
C22  23199454.709   120805678.146          50.000                                                  
C36  22433014.843   116814673.621          50.000                                                  
C39  25927238.580   135009961.947          41.000                                                  
> 2026 06 07 17 19 18.0000000  0 12                     
C01  38580161.118   200897022.561          47.000                                                  
C02  36977211.461   192550039.745          49.000                                                  
C03  37012328.719   192732915.538          48.000                                                  
C07  37168641.410   193546876.7821         29.000                                                  
C08  37985790.455   197802023.964          45.000                                                  
C09  39059244.223   203391736.619          41.000    39059248.637   157275358.037          43.000  
C12  23280503.379   121227664.550          47.000                                                  
C19  22545662.289   117401193.540          51.000                                                  
C20  25161759.978   131023797.966          42.000                                                  
C22  23195239.692   120783729.076          50.000                                                  
C36  22431476.248   116806661.355          50.000                                                  
C39  25921700.077   134981124.476          42.000                                                  
> 2026 06 07 17 19 33.0000000  0 13                     
C01  38580134.744   200896885.120          47.000                                                  
C02  36977410.468   192551076.356          49.000                                                  
C03  37012474.745   192733676.034          48.000                                                  
C07  37168449.479   193545873.243          31.000                                                  
C08  37981063.920   197777412.350          47.000                                                  
C09  39064881.846   203421092.083          42.000    39064885.724   157298057.521          43.000  
C10                                                  37308495.427   150225850.4481         29.000  
C12  23288749.612   121270607.618          47.000                                                  
C19  22550403.084   117425880.018          51.000                                                  
C20  25171335.076   131073659.579          43.000                                                  
C22  23191045.958   120761891.031          50.000                                                  
C36  22429944.837   116798686.905          49.000                                                  
C39  25916167.506   134952314.479          42.000                                                  
> 2026 06 07 17 19 48.0000000  0 13                     
C01  38580108.959   200896750.900          46.000                                                  
C02  36977610.101   192552116.242          49.000                                                  
C03  37012621.414   192734439.629          49.000                                                  
C07  37168253.706   193544851.650          32.000                                                  
C08  37976342.334   197752823.794          47.000                                                  
C09  39070521.113   203450455.464          42.000    39070524.365   157320763.168          43.000  
C10                                                  37308281.660   150224981.663          31.000  
C12  23297008.603   121313613.833          48.000                                                  
C19  22555165.214   117450679.350          49.000                                                  
C20  25180916.018   131123548.612          43.000                                                  
C22  23186874.542   120740169.183          51.000                                                  
C36  22428421.449   116790755.153          49.000                                                  
C39  25910641.207   134923536.978          40.000                                                  
> 2026 06 07 17 20 03.0000000  0 13                     
C01  38580082.906   200896615.424          47.000                                                  
C02  36977809.501   192553154.948          49.000                                                  
C03  37012767.779   192735201.887          48.000                                                  
C07  37168054.520   193543815.323          32.000                                                  
C08  37971624.412   197728253.944          47.000                                                  
C09  39076161.077   203479822.146          43.000    39076163.883   157343471.376          44.000  
C10                                                  37308062.497   150224098.546          30.000  
C12  23305278.887   121356678.475          48.000                                                  
C19  22559947.930   117475586.848          49.000                                                  
C20  25190501.694   131173460.430          45.000                                                  
C22  23182724.640   120718559.291          50.000                                                  
C36  22426905.620   116782861.527          50.000                                                  
C39  25905119.911   134894787.483          43.000                                                  
> 2026 06 07 17 20 18.0000000  0 13                     
C01  38580057.567   200896483.510          46.000                                                  
C02  36978009.599   192554197.259          49.000                                                  
C03  37012914.841   192735967.622          49.000                                                  
C07  37167853.744   193542769.145          33.000                                                  
C08  37966910.653   197703707.696          46.000                                                  
C09  39081802.364   203509196.871          43.000    39081805.062   157366185.772          44.000  
C10                                                  37307840.581   150223204.748          29.000  
C12  23313560.822   121399805.994          47.000                                                  
C19  22564752.981   117500607.196          51.000                                                  
C20  25200092.571   131223399.515          46.000                                                  
C22  23178597.163   120697066.311          50.000                                                  
C36  22425398.082   116775010.709          49.000                                                  
C39  25899605.763   134866070.723          43.000                                                  
> 2026 06 07 17 20 33.0000000  0 13                     
C01  38580032.068   200896350.895          46.000                                                  
C02  36978209.607   192555238.913          49.000                                                  
C03  37013061.742   192736732.561          48.000                                                  
C07  37167650.412   193541708.884          33.000                                                  
C08  37962200.182   197679180.817          45.000                                                  
C09  39087444.382   203538575.155          43.000    39087446.902   157388902.970          44.000  
C12  23321853.996   121442991.866          47.000                                                  
C19  22569579.119   117525735.914          51.000                                                  
C20  25209687.325   131273361.248          45.000                                                  
C22  23174491.309   120675686.158          50.000                                                  
C30  24975323.795   130053089.187          37.000                                                  
C36  22423897.638   116767198.370          47.000                                                  
C39  25894097.279   134837382.369          44.000                                                  
> 2026 06 07 17 20 48.0000000  0 13                     
C01  38580006.623   200896218.321          46.000                                                  
C02  36978409.632   192556280.683          49.000                                                  
C03  37013208.679   192737497.474          49.000                                                  
C07  37167444.365   193540635.346          32.000                                                  
C08  37957493.660   197654674.164          46.000                                                  
C09  39093087.241   203567957.911          43.000    39093089.564   157411623.580          44.000  
C12  23330159.000   121486236.571          48.000                                                  
C19  22574425.984   117550973.546          51.000                                                  
C20  25219286.474   131323346.124          45.000                                                  
C22  23170407.254   120654419.786          49.000                                                  
C30  24968352.517   130016797.257          37.000                                                  
C36  22422404.699   116759425.187          48.000                                                  
C39  25888594.084   134808723.189          42.000                                                  
> 2026 06 07 17 21 03.0000000  0 13                     
C01  38579979.837   200896078.617          46.000                                                  
C02  36978608.282   192557315.347          49.000                                                  
C03  37013354.240   192738255.114          49.000                                                  
C07  37167234.189   193539541.286          31.000                                                  
C08  37952789.729   197630180.591          46.000                                                  
C09  39098729.296   203597337.599          43.000    39098731.780   157434341.839          44.000  
C12  23338474.082   121529532.645          48.000                                                  
C19  22579292.273   117576312.696          51.000                                                  
C20  25228889.019   131373346.691          46.000                                                  
C22  23166343.642   120633260.124          49.000                                                  
C30  24961383.581   129980508.207          35.000                                                  
C36  22420918.122   116751683.783          50.000                                                  
C39  25883094.714   134780085.971          40.000                                                  
> 2026 06 07 17 21 18.0000000  0 13                     
C01  38579952.569   200895936.611          45.000                                                  
C02  36978806.486   192558347.792          49.000                                                  
C03  37013499.355   192739010.402          49.000                                                  
C07                                                                                                
C08  37948089.407   197605704.993          46.000                                                  
C09  39104371.565   203626719.174          42.000    39104374.263   157457061.544          45.000  
C12  23346799.670   121572884.650          48.000                                                  
C19  22584178.754   117601758.033          50.000                                                  
C20  25238495.281   131423367.513          44.000                                                  
C22  23162301.544   120612212.225          50.000                                                  
C30  24954415.930   129944226.981          40.000                                                  
C36  22419438.763   116743978.950          51.000                                                  
C39  25877599.900   134751475.504          41.000                                                  
> 2026 06 07 17 21 33.0000000  0 13                     
C01  38579925.855   200895797.514          46.000                                                  
C02  36979005.279   192559383.177          49.000                                                  
C03  37013644.933   192739768.487          49.000                                                  
C07                                                                                                
C08  37943393.643   197581252.634          46.000                                                  
C09  39110014.888   203656107.583          42.000    39110018.069   157479786.571          46.000  
C12  23355136.731   121616297.465          48.000                                                  
C19  22589086.534   117627314.536          51.000                                                  
C20  25248106.063   131473413.525          44.000                                                  
C22  23158282.014   120591281.460          50.000                                                  
C30  24947451.282   129907959.212          41.000                                                  
C36  22417967.195   116736315.815          49.000                                                  
C39  25872112.091   134722896.931          43.000                                                  
> 2026 06 07 17 21 48.0000000  0 12                     
C01  38579900.445   200895665.301          46.000                                                  
C02  36979205.394   192560425.496          49.000                                                  
C03  37013791.799   192740533.344          49.000                                                  
C08  37938703.346   197556827.585          47.000                                                  
C09  39115660.213   203685506.855          42.000    39115663.876   157502519.948          45.000  
C12  23363485.532   121659774.789          46.000                                                  
C19  22594016.241   117652985.972          50.000                                                  
C20  25257722.207   131523488.364          45.000                                                  
C22  23154285.822   120570471.978          50.000                                                  
C30  24940489.368   129871709.262          41.000                                                  
C36  22416504.080   116728698.247          48.000                                                  
C39  25866631.536   134694354.096          42.000                                                  
> 2026 06 07 17 22 03.0000000  0 13                     
C01  38579874.106   200895528.345          46.000                                                  
C02  36979404.615   192561463.123          49.000                                                  
C03  37013937.753   192741293.363          49.000                                                  
C07                                                                                                
C08  37934016.033   197532418.285          47.000                                                  
C09  39121305.305   203714905.144          41.000    39121309.344   157525252.593          44.000  
C12  23371844.678   121703304.703          47.000                                                  
C19  22598965.674   117678760.536          49.000                                                  
C20  25267341.995   131573580.267          45.000                                                  
C22  23150310.750   120549772.351          51.000                                                  
C30  24933528.794   129835465.697          43.000                                                  
C36  22415047.504   116721114.546          49.000                                                  
C39  25861154.859   134665835.541          39.000                                                  
> 2026 06 07 17 22 18.0000000  0 13                     
C01  38579847.213   200895388.248          46.000                                                  
C02  36979603.212   192562497.647          49.000                                                  
C03  37014083.064   192742050.146          49.000                                                  
C07                                                                                                
C08  37929331.829   197508026.428          46.000                                                  
C09  39126950.308   203744304.015          40.000    39126954.811   157547985.680          43.000  
C12  23380214.600   121746888.547          47.000                                                  
C19  22603935.478   117704639.648          50.000                                                  
C20  25276964.750   131623690.357          43.000                                                  
C22  23146357.068   120529184.319          50.000                                                  
C30  24926569.953   129799230.405          42.000                                                  
C36  22413597.880   116713566.154          51.000                                                  
C39  25855682.489   134637342.692          40.000                                                  
> 2026 06 07 17 22 33.0000000  0 14                     
C01  38579820.267   200895247.780          46.000                                                  
C02  36979801.808   192563531.819          49.000                                                  
C03  37014228.393   192742806.440          49.000                                                  
C07                                                                                                
C08  37924651.378   197483654.795          46.000                                                  
C09  39132596.008   203773706.087          39.000    39132600.958   157570721.270          44.000  
C10  37305683.754   194260465.9491         30.000                                                  
C12  23388595.512   121790528.776          47.000                                                  
C19  22608925.850   117730625.833          50.000                                                  
C20  25286591.186   131673821.192          42.000                                                  
C22  23142425.311   120508710.807          50.000                                                  
C30  24919612.988   129763006.500          44.000                                                  
C36  22412155.832   116706055.729          51.000                                                  
C39  25850215.926   134608878.219          41.000                                                  
> 2026 06 07 17 22 48.0000000  0 14                     
C01  38579795.161   200895116.965          47.000                                                  
C02  36980002.263   192564575.718          49.000                                                  
C03  37014375.526   192743572.297          49.000                                                  
C07  37165702.206   193531603.4991         29.000                                                  
C08  37919976.860   197459313.519          46.000                                                  
C09  39138244.460   203803121.375          39.000    39138249.767   157593467.082          44.000  
C10  37305430.032   194259138.112          32.000                                                  
C12  23396989.271   121834235.204          48.000                                                  
C19  22613939.004   117756728.960          51.000                                                  
C20  25296223.840   131723982.576          44.000                                                  
C22  23138517.463   120488362.038          49.000                                                  
C30  24912660.652   129726804.330          42.000                                                  
C36  22410722.915   116698593.279          49.000                                                  
C39  25844756.671   134580452.230          40.000                                                  
> 2026 06 07 17 23 03.0000000  0 14                     
C01  38579769.465   200894983.219          46.000                                                  
C02  36980202.146   192565616.727          49.000                                                  
C03  37014522.070   192744335.131          49.000                                                  
C07  37165468.712   193530409.781          30.000                                                  
C08  37915305.933   197434990.091          47.000                                                  
C09  39143893.126   203832537.155          39.000    39143898.702   157616213.251          44.000  
C10  37305170.753   194257789.964          31.000                                                  
C12  23405392.876   121877994.878          47.000                                                  
C19  22618972.279   117782936.246          52.000                                                  
C20  25305860.139   131774161.557          44.000                                                  
C22  23134631.219   120468125.611          50.000                                                  
C30  24905710.424   129690611.634          44.000                                                  
C36  22409296.466   116691166.074          48.000                                                  
C39  25839302.599   134552051.955          42.000                                                  
> 2026 06 07 17 23 18.0000000  0 14                     
C01  38579743.627   200894848.589          46.000                                                  
C02  36980401.868   192566656.851          49.000                                                  
C03  37014668.382   192745096.964          49.000                                                  
C07  37165235.861   193529202.113          30.000                                                  
C08  37910638.919   197410686.586          47.000                                                  
C09  39149542.650   203861955.482          39.000    39149548.190   157638961.390          44.000  
C10  37304907.810   194256423.914          30.000                                                  
C12  23413806.934   121921809.573          47.000                                                  
C19  22624025.710   117809249.480          51.000                                                  
C20  25315500.406   131824359.873          43.000                                                  
C22  23130766.989   120448003.668          50.000                                                  
C30  24898762.590   129654430.715          46.000                                                  
C36  22407877.201   116683776.060          47.000                                                  
C39  25833854.441   134523679.495          42.000                                                  
> 2026 06 07 17 23 33.0000000  0 14                     
C01  38579716.948   200894709.810          47.000                                                  
C02  36980600.804   192567692.867          49.000                                                  
C03  37014813.836   192745854.494          49.000                                                  
C07  37164995.969   193527886.3321         31.000                                                  
C08  37905975.015   197386399.828          46.000                                                  
C09  39155192.228   203891372.724          40.000    39155197.535   157661708.674          44.000  
C10  37304640.704   194255036.398          30.000                                                  
C12  23422231.196   121965675.727          48.000                                                  
C19  22629098.458   117835665.172          51.000                                                  
C20  25325143.692   131874574.064          39.000                                                  
C22  23126924.238   120427993.160          50.000                                                  
C30  24891816.437   129618258.623          45.000                                                  
C36  22406464.405   116676419.895          47.000                                                  
C39  25828410.965   134495331.464          41.000                                                  
> 2026 06 07 17 23 48.0000000  0 14                     
C01  38579690.395   200894571.845          46.000                                                  
C02  36980799.847   192568729.726          49.000                                                  
C03  37014959.415   192746612.782          48.000                                                  
C07  37164758.847   193526649.352          33.000                                                  
C08  37901315.060   197362134.881          46.000                                                  
C09  39160842.484   203920794.112          40.000    39160847.774   157684459.192          45.000  
C10  37304370.685   194253632.409          30.000                                                  
C12  23430666.518   122009598.103          48.000                                                  
C19  22634191.558   117862188.123          50.000                                                  
C20  25334790.963   131924808.805          36.000                                                  
C22  23123103.840   120408099.245          50.000                                                  
C30  24884872.409   129582100.669          44.000                                                  
C36  22405059.364   116669102.415          46.000                                                  
C39  25822972.939   134467012.927          41.000                                                  
> 2026 06 07 17 24 03.0000000  0 13                     
C01  38579664.342   200894436.369          46.000                                                  
C02  36980999.372   192569769.123          49.000                                                  
C03  37015105.422   192747373.421          48.000                                                  
C07  37164520.028   193525401.720          34.000                                                  
C08  37896659.429   197337893.429          45.000                                                  
C09  39166493.813   203950220.953          41.000    39166499.031   157707213.894          45.000  
C12  23439112.598   122053577.978          48.000                                                  
C19  22639305.762   117888819.812          51.000                                                  
C20  25344442.791   131975065.445          32.000                                                  
C22  23119306.137   120388323.697          50.000                                                  
C30  24877931.670   129545958.760          45.000                                                  
C36  22403661.738   116661825.199          46.000                                                  
C39  25817540.666   134438725.362          39.000                                                  
> 2026 06 07 17 24 18.0000000  0 13                     
C01  38579638.503   200894301.966          47.000                                                  
C02  36981199.130   192570809.626          49.000                                                  
C03  37015251.680   192748135.065          49.000                                                  
C07  37164278.921   193524142.440          34.000                                                  
C08  37892007.997   197313674.180          45.000                                                  
C09  39172145.856   203979651.882          41.000    39172150.967   157729971.771          44.000  
C12  23447569.256   122097613.768          47.000                                                  
C19  22644440.640   117915558.639          51.000                                                  
C20  25354098.550   132025342.535          32.000                                                  
C22  23115530.895   120368665.317          50.000                                                  
C30  24870994.111   129509831.914          45.000                                                  
C36  22402271.582   116654586.790          46.000                                                  
C39  25812113.880   134410467.458          40.000                                                  
> 2026 06 07 17 24 33.0000000  0 13                     
C01  38579612.343   200894165.810          47.000                                                  
C02  36981398.512   192571848.384          49.000                                                  
C03  37015397.563   192748894.834          49.000                                                  
C07  37164034.616   193522868.411          34.000                                                  
C08  37887359.960   197289474.335          44.000                                                  
C09  39177798.168   204009083.995          41.000    39177803.064   157752730.584          44.000  
C12  23456035.545   122141702.236          46.000                                                  
C19  22649595.567   117942401.497          51.000                                                  
C20                                                                                                
C22  23111777.667   120349121.393          51.000                                                  
C30  24864058.911   129473717.449          45.000                                                  
C36  22400888.555   116647384.184          47.000                                                  
C39  25806692.901   134382236.188          42.000                                                  
> 2026 06 07 17 24 48.0000000  0 12                     
C01  38579583.985   200894018.141          47.000                                                  
C02  36981595.697   192572875.653          49.000                                                  
C03  37015541.194   192749642.962          49.000                                                  
C07  37163785.450   193521570.036          33.000                                                  
C08  37882713.871   197265284.156          46.000                                                  
C09  39183448.585   204038507.230          41.000    39183453.428   157775482.538          43.000  
C12  23464510.036   122185833.358          46.000                                                  
C19  22654768.399   117969338.431          50.000                                                  
C22  23108044.560   120329682.338          51.000                                                  
C30  24857124.372   129437605.990          44.000                                                  
C36  22399510.496   116640207.519          47.000                                                  
C39  25801275.102   134354021.830          42.000                                                  
> 2026 06 07 17 25 03.0000000  0 12                     
C01  38579556.431   200893874.718          47.000                                                  
C02  36981793.722   192573907.179          49.000                                                  
C03  37015685.612   192750395.226          49.000                                                  
C07  37163534.605   193520262.937          33.000                                                  
C08  37878073.268   197241119.515          46.000                                                  
C09  39189100.432   204067937.443          42.000    39189104.971   157798239.842          42.000  
C12  23472995.839   122230022.626          47.000                                                  
C19  22659962.084   117996384.996          50.000                                                  
C22  23104334.612   120310364.084          51.000                                                  
C30  24850192.638   129401513.624          44.000                                                  
C36  22398140.317   116633072.502          47.000                                                  
C39  25795863.308   134325840.065          43.000                                                  
> 2026 06 07 17 25 18.0000000  0 12                     
C01  38579530.592   200893740.123          47.000                                                  
C02  36981993.462   192574947.556          49.000                                                  
C03  37015831.709   192751156.202          49.000                                                  
C07  37163283.295   193518951.963          33.000                                                  
C08  37873438.669   197216985.037          45.000                                                  
C09  39194754.548   204097379.169          42.000    39194758.837   157821006.042          42.000  
C12  23481493.685   122274274.360          45.000                                                  
C19  22665177.730   118023545.580          50.000                                                  
C22  23100648.804   120291171.337          51.000                                                  
C30  24843265.926   129365445.209          44.000                                                  
C36  22396779.001   116625983.593          47.000                                                  
C39  25790458.929   134297695.412          43.000                                                  
> 2026 06 07 17 25 33.0000000  0 12                     
C01  38579504.146   200893602.534          47.000                                                  
C02  36982192.594   192575984.991          49.000                                                  
C03  37015977.216   192751914.104          49.000                                                  
C07  37163028.768   193517625.074          32.000                                                  
C08  37868807.429   197192869.087          45.000                                                  
C09  39200408.093   204126820.418          40.000    39200412.828   157843771.879          43.000  
C12  23490000.984   122318576.398          45.000                                                  
C19  22670413.193   118050808.167          50.000                                                  
C22  23096984.886   120272092.494          51.000                                                  
C30  24836341.697   129329389.236          44.000                                                  
C36  22395424.208   116618928.920          45.000                                                  
C39  25785058.767   134269576.121          42.000                                                  
> 2026 06 07 17 25 48.0000000  0 12                     
C01  38579477.789   200893465.327          47.000                                                  
C02  36982391.780   192577022.807          49.000                                                  
C03  37016122.759   192752672.259          49.000                                                  
C07  37162771.633   193516285.940          33.000                                                  
C08  37864180.192   197168775.004          45.000                                                  
C09  39206061.834   204156264.338          38.000    39206067.302   157866539.822          43.000  
C12  23498518.986   122362931.839          46.000                                                  
C19  22675668.705   118078175.857          50.000                                                  
C22  23093343.537   120253131.055          51.000                                                  
C30  24829420.810   129293349.393          45.000                                                  
C36  22394076.347   116611911.787          41.000                                                  
C39  25779663.734   134241485.386          43.000                                                  
> 2026 06 07 17 26 03.0000000  0 12                     
C01  38579451.808   200893330.183          46.000                                                  
C02  36982591.323   192578062.699          48.000                                                  
C03  37016268.660   192753432.330          49.000                                                  
C07  37162512.586   193514935.975          34.000                                                  
C08  37859557.315   197144704.540          45.000                                                  
C09  39211716.951   204185712.653          39.000    39211722.580   157889311.197          42.000  
C12  23507047.943   122407342.099          47.000                                                  
C19  22680944.999   118105650.123          51.000                                                  
C22  23089725.024   120234288.822          51.000                                                  
C30  24822503.086   129257327.717          43.000                                                  
C36  22392736.153   116604933.673          43.000                                                  
C39  25774275.384   134213424.867          43.000                                                  
> 2026 06 07 17 26 18.0000000  0 12                     
C01  38579424.021   200893185.399          47.000                                                  
C02  36982789.026   192579092.992          48.000                                                  
C03  37016412.684   192754182.669          49.000                                                  
C07  37162249.304   193513563.722          33.000                                                  
C08  37854936.868   197120646.068          45.000                                                  
C09  39217371.156   204215153.562          40.000    39217376.535   157912076.804          42.000  
C12  23515584.743   122451795.181          46.000                                                  
C19  22686239.662   118133219.125          51.000                                                  
C22  23086127.132   120215554.282          50.000                                                  
C30  24815586.684   129221312.768          45.000                                                  
C36  22391401.230   116597982.819          43.000                                                  
C39  25768890.464   134185382.867          42.000                                                  
> 2026 06 07 17 26 33.0000000  0 12                     
C01  38579397.772   200893048.987          46.000                                                  
C02  36982988.373   192580131.677          49.000                                                  
C03  37016558.335   192754941.265          49.000                                                  
C07  37161985.056   193512187.183          31.000                                                  
C08  37850322.497   197096617.662          46.000                                                  
C09  39223027.542   204244604.976          40.000    39223032.563   157934850.506          42.000  
C12  23524133.177   122496308.753          46.000                                                  
C19  22691555.660   118160900.593          50.000                                                  
C22  23082553.399   120196945.635          50.000                                                  
C30  24808675.357   129185322.836          45.000                                                  
C36  22390075.044   116591077.135          46.000                                                  
C39  25763511.906   134157377.386          42.000                                                  
> 2026 06 07 17 26 48.0000000  0 12                     
C01  38579370.539   200892907.306          47.000                                                  
C02  36983186.755   192581165.102          49.000                                                  
C03  37016702.931   192755694.468          49.000                                                  
C07  37161716.932   193510792.622          27.000                                                  
C08  37845711.253   197072605.758          45.000                                                  
C09  39228683.195   204274053.113          39.000    39228687.841   157957621.701          41.000  
C12  23532690.902   122540868.981          47.000                                                  
C19  22696890.404   118188680.655          51.000                                                  
C22  23079001.215   120178449.331          50.000                                                  
C30  24801766.139   129149344.676          45.000                                                  
C36  22388755.006   116584202.898          46.000                                                  
C39  25758137.691   134129394.670          43.000                                                  
> 2026 06 07 17 27 03.0000000  0 12                     
C01  38579342.538   200892761.618          47.000                                                  
C02  36983384.333   192582194.529          48.000                                                  
C03  37016846.723   192756443.542          49.000                                                  
C07                                                                                                
C08  37841103.421   197048611.693          46.000                                                  
C09  39234338.276   204303499.162          39.000    39234342.636   157980391.258          40.000  
C12  23541257.579   122585476.776          47.000                                                  
C19  22702244.535   118216560.419          51.000                                                  
C22  23075470.886   120160066.824          49.000                                                  
C30  24794859.314   129113379.844          46.000                                                  
C36  22387441.025   116577361.293          44.000                                                  
C39  25752768.585   134101435.925          43.000                                                  
> 2026 06 07 17 27 18.0000000  0 12                     
C01  38579315.878   200892622.993          47.000                                                  
C02  36983583.251   192583231.024          48.000                                                  
C03  37016991.855   192757199.528          49.000                                                  
C07                                                                                                
C08  37836501.326   197024646.535          47.000                                                  
C09  39239995.180   204332954.104          39.000    39239999.183   158003167.723          41.000  
C12  23549835.497   122630142.923          48.000                                                  
C19  22707619.894   118244550.663          51.000                                                  
C22  23071964.501   120141809.275          48.000                                                  
C30  24787957.905   129077439.560          46.000                                                  
C36  22386135.264   116570563.286          43.000                                                  
C39  25747406.359   134073512.143          44.000                                                  
> 2026 06 07 17 27 33.0000000  0 13                     
C01  38579289.503   200892485.731          47.000                                                  
C02  36983782.419   192584268.889          48.000                                                  
C03  37017137.255   192757956.785          49.000                                                  
C07                                                                                                
C08  37831903.859   197000704.705          47.000                                                  
C09  39245652.656   204362412.206          39.000    39245656.480   158025946.570          40.000  
C10                                                  37299925.676   150191345.6891         29.000  
C12  23558423.456   122674861.440          47.000                                                  
C19  22713015.356   118272645.515          51.000                                                  
C22  23068481.043   120123671.165          48.000                                                  
C30  24781059.854   129041518.628          44.000                                                  
C36  22384836.848   116563803.031          45.000                                                  
C39  25742049.977   134045617.614          44.000                                                  
> 2026 06 07 17 27 48.0000000  0 13                     
C01  38579262.128   200892343.166          47.000                                                  
C02  36983980.604   192585301.462          48.000                                                  
C03  37017281.601   192758708.601          49.000                                                  
C07                                                                                                
C08  37827309.518   196976779.607          47.000                                                  
C09  39251309.256   204391866.656          39.000    39251313.151   158048722.655          40.000  
C10                                                  37299604.284   150190054.225          30.000  
C12  23567019.689   122719625.291          47.000                                                  
C19  22718429.384   118300838.073          51.000                                                  
C22  23065019.348   120105645.976          48.000                                                  
C30  24774163.484   129005610.614          44.000                                                  
C36  22383544.864   116557073.759          45.000                                                  
C39  25736697.686   134017745.646          43.000                                                  
> 2026 06 07 17 28 03.0000000  0 13                     
C01  38579234.663   200892200.136          47.000                                                  
C02  36984178.718   192586333.570          48.000                                                  
C03  37017425.840   192759459.806          49.000                                                  
C07                                                                                                
C08  37822719.413   196952876.128          48.000                                                  
C09  39256965.695   204421322.138          38.000    39256969.876   158071499.590          40.000  
C10                                                  37299276.906   150188740.264          30.000  
C12  23575625.858   122764439.111          47.000                                                  
C19  22723862.800   118329132.930          50.000                                                  
C22  23061580.455   120087738.726          48.000                                                  
C30  24767270.973   128969720.652          45.000                                                  
C36  22382259.580   116550380.260          45.000                                                  
C39  25731350.560   133989901.011          43.000                                                  
> 2026 06 07 17 28 18.0000000  0 13                     
C01  38579208.682   200892064.945          47.000                                                  
C02  36984378.333   192587373.520          48.000                                                  
C03  37017571.526   192760218.740          49.000                                                  
C07                                                                                                
C08  37818135.276   196929002.639          48.000                                                  
C09  39262623.903   204450787.047          37.000    39262628.263   158094283.697          39.000  
C10                                                  37298948.598   150187419.275          30.000  
C12  23584243.230   122809310.877          47.000                                                  
C19  22729317.820   118357538.195          51.000                                                  
C22  23058165.863   120069957.825          48.000                                                  
C30  24760383.590   128933857.366          44.000                                                  
C36  22380982.875   116543730.716          44.000                                                  
C39  25726010.099   133962091.970          44.000                                                  
> 2026 06 07 17 28 33.0000000  0 13                     
C01  38579182.396   200891928.221          47.000                                                  
C02  36984577.680   192588411.938          48.000                                                  
C03  37017716.926   192760976.020          49.000                                                  
C07  37159776.427   193500708.2021         29.000                                                  
C08  37813555.088   196905149.805          48.000                                                  
C09  39268282.076   204480251.808          37.000    39268286.668   158117067.747          39.000  
C10  37298617.324   194223626.8871         30.000    37298616.895   150186084.021          30.000  
C12  23592869.965   122854230.976          48.000                                                  
C19  22734792.120   118386044.269          50.000                                                  
C22  23054773.804   120052294.078          48.000                                                  
C30  24753499.728   128898011.753          43.000                                                  
C36  22379712.441   116537115.704          43.000                                                  
C39  25720675.177   133934309.050          45.000                                                  
> 2026 06 07 17 28 48.0000000  0 13                     
C01  38579154.074   200891780.754          47.000                                                  
C02  36984774.936   192589439.611          48.000                                                  
C03  37017860.218   192761722.421          49.000                                                  
C07  37159489.755   193499232.863          33.000                                                  
C08  37808976.955   196881308.520          48.000                                                  
C09  39273938.533   204509707.003          36.000    39273943.143   158139844.385          37.000  
C10  37298280.779   194221872.518          30.000    37298279.814   150184727.440          31.000  
C12  23601503.419   122899189.839          46.000                                                  
C19  22740283.932   118414641.712          50.000                                                  
C22  23051402.599   120034738.395          49.000                                                  
C30  24746617.545   128862174.811          44.000                                                  
C36  22378447.099   116530525.844          41.000                                                  
C39  25715343.543   133906543.027          45.000                                                  
> 2026 06 07 17 29 03.0000000  0 13                     
C01  38579125.001   200891629.462          47.000                                                  
C02  36984971.459   192590463.458          48.000                                                  
C03  37018002.795   192762464.866          49.000                                                  
C07  37159198.543   193497716.344          34.000                                                  
C08  37804402.217   196857485.790          48.000                                                  
C09  39279594.114   204539159.504          34.000    39279598.903   158162619.033          36.000  
C10  37297939.802   194220097.326          30.000    37297938.534   150183354.846          31.000  
C12  23610145.629   122944194.144          46.000                                                  
C19  22745794.596   118443337.231          51.000                                                  
C22  23048053.515   120017297.857          49.000                                                  
C30  24739738.078   128826353.819          43.000                                                  
C36  22377187.762   116523968.084          39.000                                                  
C39  25710016.036   133878800.827          43.000                                                  
> 2026 06 07 17 29 18.0000000  0 13                     
C01  38579098.805   200891493.178          47.000                                                  
C02  36985170.896   192591502.326          48.000                                                  
C03  37018148.249   192763222.215          49.000                                                  
C07  37158907.707   193496202.497          34.000                                                  
C08  37799834.698   196833700.445          48.000                                                  
C09  39285252.859   204568628.202          34.000    39285257.647   158185405.972          34.000  
C10  37297598.307   194218320.294          32.000    37297596.985   150181980.759          32.000  
C12  23618800.616   122989262.470          47.000                                                  
C19  22751327.614   118472149.409          51.000                                                  
C22  23044730.252   119999991.446          49.000                                                  
C30  24732865.348   128790567.937          43.000                                                  
C36  22375937.913   116517461.151          37.000                                                  
C39  25704696.571   133851101.176          42.000                                                  
> 2026 06 07 17 29 33.0000000  0 13                     
C01  38579074.432   200891366.463          46.000                                                  
C02  36985372.172   192592550.746          48.000                                                  
C03  37018295.490   192763988.954          49.000                                                  
C07  37158616.156   193494685.925          33.000                                                  
C08  37795273.344   196809947.149          48.000                                                  
C09  39290913.962   204598107.476          34.000    39290918.590   158208201.245          33.000  
C10  37297255.991   194216536.056          33.000    37297254.114   150180601.073          33.000  
C12  23627466.520   123034388.971          46.000                                                  
C19  22756882.039   118501072.597          51.000                                                  
C22  23041431.559   119982813.814          48.000                                                  
C30  24725998.676   128754811.988          45.000                                                  
C36  22374697.142   116510999.315          41.000                                                  
C39  25699383.646   133823438.617          41.000                                                  
> 2026 06 07 17 29 48.0000000  0 13                     
C01  38579046.556   200891221.455          47.000                                                  
C02  36985569.964   192593580.865          48.000                                                  
C03  37018439.174   192764737.275          49.000                                                  
C07  37158318.530   193493138.735          32.000                                                  
C08  37790712.419   196786198.134          46.000                                                  
C09  39296571.580   204627569.350          32.000    39296576.405   158230982.947          33.000  
C10  37296907.205   194214716.571          33.000    37296904.757   150179194.102          34.000  
C12  23636138.535   123079545.560          47.000                                                  
C19  22762452.385   118530078.672          51.000                                                  
C22  23038152.093   119965737.286          48.000                                                  
C30  24719132.807   128719058.506          45.000                                                  
C36  22373459.801   116504554.765          43.000                                                  
C39  25694072.401   133795785.209          43.000                                                  
> 2026 06 07 17 30 03.0000000  0 13                     
C01  38579016.733   200891066.282          47.000                                                  
C02  36985765.791   192594600.827          48.000                                                  
C03  37018580.876   192765475.299          49.000                                                  
C07  37158016.615   193491569.140          32.000                                                  
C08  37786153.299   196762461.590          46.000                                                  
C09                                                  39302232.951   158253757.571          33.000  
C10  37296553.005   194212870.176          31.000    37296550.325   150177766.380          34.000  
C12  23644817.806   123124740.103          46.000                                                  
C19  22768040.565   118559175.603          52.000                                                  
C22  23034893.677   119948770.089          49.000                                                  
C30  24712269.155   128683315.837          46.000                                                  
C36  22372227.393   116498135.441          43.000                                                  
C39  25688764.979   133768148.992          44.000                                                  
> 2026 06 07 17 30 18.0000000  0 13                     
C01  38578989.518   200890924.613          47.000                                                  
C02  36985964.209   192595634.261          48.000                                                  
C03  37018725.168   192766226.699          49.000                                                  
C07  37157715.361   193490000.857          32.000                                                  
C08  37781601.165   196738761.175          46.000                                                  
C09                                                  39307891.981   158276543.111          32.000  
C10                                                  37296195.250   150176336.039          34.000  
C12  23653508.834   123169995.881          47.000                                                  
C19  22773650.330   118588386.745          51.000                                                  
C22  23031660.938   119931936.089          50.000                                                  
C30  24705412.275   128647608.009          45.000                                                  
C36  22371003.972   116491764.975          40.000                                                  
C39  25683465.867   133740553.608          45.000                                                  
> 2026 06 07 17 30 33.0000000  0 13                     
C01  38578964.055   200890792.132          47.000                                                  
C02  36986164.395   192596676.900          48.000                                                  
C03  37018871.176   192766987.166          49.000                                                  
C07  37157413.857   193488429.633          32.000                                                  
C08  37777055.643   196715092.688          47.000                                                  
C09                                                  39313553.067   158299336.178          31.000  
C10                                                  37295838.763   150174899.869          34.000  
C12  23662210.548   123215308.393          46.000                                                  
C19  22779281.091   118617707.615          51.000                                                  
C22  23028452.984   119915231.090          50.000                                                  
C30  24698560.952   128611931.035          44.000                                                  
C36  22369788.271   116485439.075          41.000                                                  
C39  25678173.670   133712994.734          43.000                                                  
> 2026 06 07 17 30 48.0000000  0 12                     
C01  38578935.786   200890645.158          47.000                                                  
C02  36986361.794   192597705.048          48.000                                                  
C03  37019014.396   192767733.004          49.000                                                  
C08  37772511.997   196691432.519          46.000                                                  
C09                                                  39319211.882   158322118.458          31.000  
C10                                                  37295476.057   150173439.472          33.000  
C12  23670918.158   123260653.533          46.000                                                  
C19  22784928.131   118647114.252          50.000                                                  
C22  23025265.186   119898631.497          50.000                                                  
C30  24691710.790   128576261.534          42.000                                                  
C36  22368577.270   116479133.688          44.000                                                  
C39  25672883.510   133685448.646          43.000                                                  
> 2026 06 07 17 31 03.0000000  0 12                     
C01  38578907.160   200890496.161          47.000                                                  
C02  36986558.836   192598731.139          48.000                                                  
C03  37019157.170   192768476.657          49.000                                                  
C08  37767972.283   196667793.182          47.000                                                  
C09                                                  39324870.519   158344899.512          30.000  
C10                                                  37295109.510   150171964.577          32.000  
C12  23679635.061   123306043.601          46.000                                                  
C19  22790593.952   118676618.916          50.000                                                  
C22  23022100.010   119882149.954          50.000                                                  
C30  24684863.792   128540612.269          42.000                                                  
C36  22367372.754   116472861.386          46.000                                                  
C39  25667598.014   133657927.742          43.000                                                  
> 2026 06 07 17 31 18.0000000  0 12                     
C01  38578881.232   200890361.273          46.000                                                  
C02  36986758.594   192599771.351          48.000                                                  
C03  37019302.624   192769234.315          49.000                                                  
C08  37763439.733   196644190.899          47.000                                                  
C09                                                  39330532.337   158367755.7621         28.000  
C10                                                  37294742.337   150170487.633          30.000  
C12  23688363.292   123351494.374          46.000                                                  
C19  22796281.876   118706237.519          51.000                                                  
C22  23018960.637   119865802.694          49.000                                                  
C30  24678023.887   128504999.717          43.000                                                  
C36  22366177.924   116466638.174          45.000                                                  
C39  25662320.987   133630448.050          44.000                                                  
> 2026 06 07 17 31 33.0000000  0 12                     
C01  38578855.107   200890225.314          47.000                                                  
C02  36986958.137   192600810.461          48.000                                                  
C03  37019447.863   192769990.775          49.000                                                  
C07                                                                                                
C08  37758911.401   196620610.540          47.000                                                  
C10                                                  37294371.769   150168996.987          29.000  
C12  23697100.512   123396990.424          46.000                                                  
C19  22801989.081   118735954.651          51.000                                                  
C22  23015844.208   119849574.714          50.000                                                  
C30  24671188.968   128469408.932          45.000                                                  
C36  22364989.295   116460448.825          44.000                                                  
C39  25657049.358   133602994.391          44.000                                                  
> 2026 06 07 17 31 48.0000000  0 12                     
C01  38578827.321   200890080.710          46.000                                                  
C02  36987156.037   192601840.928          47.000                                                  
C03  37019591.387   192770738.404          49.000                                                  
C07                                                                                                
C08  37754385.678   196597044.587          46.000                                                  
C10                                                  37293995.162   150167468.8011         29.000  
C12  23705844.754   123442523.836          46.000                                                  
C19  22807713.226   118765762.483          50.000                                                  
C22  23012749.293   119833458.542          50.000                                                  
C30  24664357.837   128433832.658          46.000                                                  
C36  22363805.704   116454285.590          44.000                                                  
C39  25651780.748   133575559.156          42.000                                                  
> 2026 06 07 17 32 03.0000000  0 12                     
C01  38578798.034   200889928.404          47.000                                                  
C02  36987352.453   192602863.629          48.000                                                  
C03  37019733.410   192771478.173          49.000                                                  
C07                                                                                                
C08  37749862.671   196573494.044          47.000                                                  
C10                                                  37293617.071   150165926.638          30.000  
C12  23714596.305   123488095.241          46.000                                                  
C19  22813455.115   118795661.708          51.000                                                  
C22  23009676.054   119817455.251          50.000                                                  
C30  24657529.333   128398272.228          45.000                                                  
C36  22362627.439   116448149.361          44.000                                                  
C39  25646515.122   133548143.170          40.000                                                  
> 2026 06 07 17 32 18.0000000  0 12                     
C01  38578769.193   200889778.413          47.000                                                  
C02  36987549.352   192603888.657          48.000                                                  
C03  37019875.880   192772220.123          49.000                                                  
C07                                                                                                
C08  37745344.703   196549969.009          47.000                                                  
C10  37293240.732   194195704.3361         30.000    37293236.175   150164408.467          30.000  
C12  23723357.397   123533714.418          48.000                                                  
C19  22819216.446   118825662.116          51.000                                                  
C22  23006626.437   119801575.000          51.000                                                  
C30  24650705.475   128362737.933          44.000                                                  
C36  22361456.142   116442050.025          43.000                                                  
C39  25641255.607   133520756.483          43.000                                                  
> 2026 06 07 17 32 33.0000000  0 12                     
C01  38578740.245   200889627.741          46.000                                                  
C02  36987746.126   192604913.003          47.000                                                  
C03  37020018.171   192772961.279          48.000                                                  
C07                                                                                                
C08  37740831.238   196526466.569          47.000                                                  
C10  37292853.617   194193695.138          33.000    37292850.329   150162854.902          30.000  
C12  23732127.031   123579378.067          47.000                                                  
C19  22824996.592   118855760.529          51.000                                                  
C22  23003599.907   119785814.948          51.000                                                  
C30  24643885.923   128327227.170          44.000                                                  
C36  22360291.136   116435984.521          43.000                                                  
C39  25636001.614   133493395.922          43.000                                                  
> 2026 06 07 17 32 48.0000000  0 12                     
C01  38578712.512   200889483.384          47.000                                                  
C02  36987944.096   192605943.628          48.000                                                  
C03  37020161.641   192773708.556          49.000                                                  
C07                                                                                                
C08  37736323.795   196502993.714          48.000                                                  
C10  37292465.645   194191675.653          33.000    37292462.268   150161293.290          30.000  
C12  23740906.261   123625092.854          47.000                                                  
C19  22830796.805   118885963.608          51.000                                                  
C22  23000597.732   119770182.148          51.000                                                  
C30  24637072.268   128291747.134          44.000                                                  
C36  22359133.830   116429959.691          41.000                                                  
C39  25630753.857   133466068.513          42.000                                                  
> 2026 06 07 17 33 03.0000000  0 12                     
C01  38578684.262   200889336.338          47.000                                                  
C02  36988141.567   192606971.563          48.000                                                  
C03  37020304.593   192774453.018          49.000                                                  
C07                                                                                                
C08  37731820.587   196479541.562          48.000                                                  
C10  37292073.759   194189636.811          33.000    37292070.525   150159716.795          31.000  
C12  23749693.300   123670849.505          47.000                                                  
C19  22836615.245   118916262.182          51.000                                                  
C22  22997618.341   119754667.782          51.000                                                  
C30  24630262.705   128256289.171          45.000                                                  
C36  22357982.690   116423966.541          43.000                                                  
C39  25625510.371   133438765.273          42.000                                                  
> 2026 06 07 17 33 18.0000000  0 13                     
C01  38578657.690   200889197.995          47.000                                                  
C02  36988340.717   192608008.149          48.000                                                  
C03  37020449.172   192775206.000          49.000                                                  
C07                                                                                                
C08  37727323.472   196456121.540          48.000                                                  
C09  39375857.882   205040414.1561         30.000    39375889.260   158550390.508          28.000  
C10  37291680.141   194187590.112          32.000    37291677.282   150158134.216          32.000  
C12  23758490.220   123716659.045          46.000                                                  
C19  22842454.074   118946667.351          50.000                                                  
C22  22994663.876   119739283.330          50.000                                                  
C30  24623459.861   128220864.952          44.000                                                  
C36  22356840.181   116418016.260          44.000                                                  
C39  25620273.532   133411497.447          42.000                                                  
> 2026 06 07 17 33 33.0000000  0 13                     
C01  38578631.619   200889062.374          47.000                                                  
C02  36988540.439   192609047.430          48.000                                                  
C03  37020594.232   192775961.570          49.000                                                  
C07                                                                                                
C08  37722831.199   196432727.736          48.000                                                  
C09  39381526.508   205069920.795          29.000                                                  
C10  37291284.092   194185529.537          32.000    37291281.626   150156540.797          32.000  
C12  23767295.985   123762515.365          45.000                                                  
C19  22848312.236   118977172.949          51.000                                                  
C22  22991733.250   119724022.937          51.000                                                  
C30  24616662.288   128185468.846          43.000                                                  
C36  22355704.479   116412102.879          44.000                                                  
C39  25615042.465   133384259.004          43.000                                                  
> 2026 06 07 17 33 48.0000000  0 11                     
C01  38578603.368   200888915.307          47.000                                                  
C02  36988737.964   192610075.237          48.000                                                  
C03  37020737.077   192776705.546          49.000                                                  
C08  37718341.196   196409346.062          48.000                                                  
C10  37290882.825   194183440.928          31.000    37290880.484   150154925.861          32.000  
C12  23776107.504   123808403.886          44.000                                                  
C19  22854187.106   119007764.520          51.000                                                  
C22  22988823.815   119708872.569          51.000                                                  
C30  24609867.163   128150086.959          42.000                                                  
C36  22354573.388   116406212.027          43.000                                                  
C39  25609814.757   133357035.658          44.000                                                  
> 2026 06 07 17 34 03.0000000  0 11                     
C01  38578573.241   200888758.483          47.000                                                  
C02  36988933.594   192611093.242          48.000                                                  
C03  37020878.028   192777439.590          48.000                                                  
C08  37713853.892   196385978.223          49.000                                                  
C10  37290476.715   194181326.007          30.000    37290474.375   150153290.463          32.000  
C12  23784925.616   123854325.989          44.000                                                  
C19  22860078.738   119038443.546          51.000                                                  
C22  22985935.913   119693834.036          51.000                                                  
C30  24603074.683   128114721.379          43.000                                                  
C36  22353446.782   116400345.427          41.000                                                  
C39  25604590.534   133329829.151          43.000                                                  
> 2026 06 07 17 34 18.0000000  0 11                     
C01  38578544.347   200888608.151          46.000                                                  
C02  36989130.421   192612117.720          48.000                                                  
C03  37021020.194   192778179.973          48.000                                                  
C08  37709372.448   196362640.571          49.000                                                  
C10  37290068.712   194179201.182          29.000    37290066.371   150151647.418          32.000  
C12  23793754.004   123900297.666          44.000                                                  
C19  22865990.364   119069226.005          51.000                                                  
C22  22983072.617   119678923.687          51.000                                                  
C30  24596288.796   128079388.604          45.000                                                  
C36  22352328.091   116394519.157          42.000                                                  
C39  25599372.440   133302655.578          42.000                                                  
> 2026 06 07 17 34 33.0000000  0 11                     
C01  38578517.937   200888470.654          46.000                                                  
C02  36989329.696   192613154.992          48.000                                                  
C03  37021164.772   192778933.059          49.000                                                  
C08  37704897.866   196339339.521          48.000                                                  
C10  37289660.155   194177072.568          28.000    37289657.546   150150001.510          32.000  
C12  23802593.541   123946324.972          47.000                                                  
C19  22871922.934   119100118.002          51.000                                                  
C22  22980235.105   119664148.000          51.000                                                  
C30  24589511.737   128044095.145          47.000                                                  
C36  22351218.050   116388739.452          42.000                                                  
C39  25594161.744   133275521.320          40.000                                                  
> 2026 06 07 17 34 48.0000000  0 12                     
C01  38578490.204   200888326.335          47.000                                                  
C02  36989527.667   192614185.428          48.000                                                  
C03  37021308.028   192779679.159          49.000                                                  
C07                                                                                                
C08  37700426.071   196316055.496          47.000                                                  
C10                                                  37289244.414   150148337.586          32.000  
C12  23811440.137   123992387.979          46.000                                                  
C19  22877872.443   119131099.645          50.000                                                  
C22  22977419.715   119649487.475          51.000                                                  
C30  24582738.537   128008821.866          44.000                                                  
C36  22350113.262   116382986.545          43.000                                                  
C39  25588954.210   133248406.696          41.000                                                  
> 2026 06 07 17 35 03.0000000  0 12                     
C01  38578464.240   200888191.188          47.000                                                  
C02  36989727.425   192615225.008          48.000                                                  
C03  37021453.017   192780434.287          49.000                                                  
C07                                                                                                
C08  37695960.585   196292804.527          47.000                                                  
C10                                                  37288830.121   150146668.036          31.000  
C12  23820296.472   124038502.364          47.000                                                  
C19  22883842.215   119162186.696          50.000                                                  
C22  22974629.521   119634958.177          51.000                                                  
C30  24575971.395   127973585.097          44.000                                                  
C36  22349016.854   116377276.344          42.000                                                  
C39  25583753.163   133221327.561          39.000                                                  
> 2026 06 07 17 35 18.0000000  0 12                     
C01  38578435.382   200888041.005          47.000                                                  
C02  36989924.270   192616249.489          48.000                                                  
C03  37021595.094   192781174.187          48.000                                                  
C07                                                                                                
C08  37691496.974   196269562.394          47.000                                                  
C10                                                  37288409.609   150144974.146          30.000  
C12  23829157.595   124084643.533          47.000                                                  
C19  22889827.927   119193354.661          52.000                                                  
C22  22971859.930   119620535.997          52.000                                                  
C30  24569206.612   127938360.788          46.000                                                  
C36  22347924.038   116371584.669          37.000                                                  
C39  25578554.278   133194259.726          40.000                                                  
> 2026 06 07 17 35 33.0000000  0 12                     
C01  38578404.361   200887879.626          46.000                                                  
C02  36990118.971   192617262.754          48.000                                                  
C03  37021735.009   192781902.778          48.000                                                  
C07                                                                                                
C08  37687035.865   196246333.169          46.000                                                  
C10                                                  37287983.415   150143258.885          29.000  
C12  23838024.580   124130815.157          47.000                                                  
C19  22895830.025   119224607.239          52.000                                                  
C22  22969111.656   119606224.974          51.000                                                  
C30  24562446.046   127903153.122          46.000                                                  
C36  22346834.832   116365915.256          34.000                                                  
C39  25573358.556   133167206.947          41.000                                                  
> 2026 06 07 17 35 48.0000000  0 11                     
C01  38578378.773   200887746.383          46.000                                                  
C02  36990319.068   192618304.109          48.000                                                  
C03  37021880.284   192782659.316          48.000                                                  
C07                                                                                                
C08  37682584.745   196223156.092          47.000                                                  
C12  23846904.984   124177056.176          47.000                                                  
C19  22901855.495   119255983.365          51.000                                                  
C22  22966392.205   119592064.455          52.000                                                  
C30  24555696.201   127868001.792          44.000                                                  
C36  22345757.759   116360307.197          38.000                                                  
C39  25568173.769   133140208.459          41.000                                                  
> 2026 06 07 17 36 03.0000000  0 11                     
C01  38578351.737   200887605.505          47.000                                                  
C02  36990517.682   192619337.790          48.000                                                  
C03  37022024.111   192783408.079          48.000                                                  
C07                                                                                                
C08  37678136.877   196199995.531          47.000                                                  
C12  23855791.892   124223330.573          47.000                                                  
C19  22907897.619   119287447.094          51.000                                                  
C22  22963694.733   119578018.816          52.000                                                  
C30  24548949.216   127832871.442          42.000                                                  
C36  22344686.225   116354724.610          40.000                                                  
C39  25562992.914   133113228.438          43.000                                                  
> 2026 06 07 17 36 18.0000000  0 11                     
C01  38578319.358   200887436.874          46.000                                                  
C02  36990710.954   192620343.658          48.000                                                  
C03  37022162.561   192784128.904          48.000                                                  
C07                                                                                                
C08  37673688.563   196176831.362          48.000                                                  
C12  23864680.695   124269617.909          46.000                                                  
C19  22913952.663   119318978.027          50.000                                                  
C22  22961015.488   119564068.060          51.000                                                  
C30  24542202.105   127797742.057          43.000                                                  
C36  22343615.603   116349147.399          37.000                                                  
C39  25557811.541   133086246.780          41.000                                                  
> 2026 06 07 17 36 33.0000000  0 11                     
C01  38578289.696   200887282.408          47.000                                                  
C02  36990906.941   192621363.663          49.000                                                  
C03  37022303.672   192784863.742          48.000                                                  
C07                                                                                                
C08  37669247.753   196153705.624          47.000                                                  
C12  23873579.790   124315959.763          46.000                                                  
C19  22920028.756   119350617.892          51.000                                                  
C22  22958362.599   119550254.197          51.000                                                  
C30  24535463.786   127762655.969          45.000                                                  
C36  22342554.040   116343617.402          30.000                                                  
C39  25552637.386   133059305.294          40.000                                                  
> 2026 06 07 17 36 48.0000000  0 11                     
C01  38578265.233   200887155.169          47.000                                                  
C02  36991108.129   192622410.845          49.000                                                  
C03  37022450.002   192785625.650          48.000                                                  
C07  37149069.470   193444926.4541         31.000                                                  
C08  37664816.539   196130631.424          46.000                                                  
C12  23882492.197   124362369.005          46.000                                                  
C19  22926127.989   119382379.466          50.000                                                  
C22  22955738.569   119536590.430          51.000                                                  
C30  24528737.063   127727626.451          46.000                                                  
C36  22341500.732   116338052.6861         33.000                                                  
C39  25547473.864   133032417.019          42.000                                                  
> 2026 06 07 17 37 03.0000000  0 11                     
C01  38578237.357   200887010.223          46.000                                                  
C02  36991305.957   192623440.243          49.000                                                  
C03  37022592.900   192786369.639          48.000                                                  
C07  37148706.085   193443038.150          32.000                                                  
C08  37660386.076   196107563.909          45.000                                                  
C12  23891409.251   124408800.372          47.000                                                  
C19  22932242.501   119414217.571          52.000                                                  
C22  22953134.909   119523031.886          51.000                                                  
C30  24522012.628   127692608.995          43.000                                                  
C36  22340453.214   116332597.948          37.000                                                  
C39  25542312.486   133005536.895          42.000                                                  
> 2026 06 07 17 37 18.0000000  0 12                     
C01  38578206.086   200886847.524          46.000                                                  
C02  36991500.372   192624451.874          49.000                                                  
C03  37022732.350   192787095.747          49.000                                                  
C07  37148337.912   193441120.774          35.000                                                  
C08  37655957.060   196084503.065          47.000                                                  
C10  37284934.674   194152440.9681         30.000    37284925.453   150130941.8981         28.000  
C12  23900330.307   124455253.541          47.000                                                  
C19  22938371.558   119446131.914          51.000                                                  
C22  22950551.495   119509578.668          52.000                                                  
C30  24515290.087   127657603.874          44.000                                                  
C36  22339409.145   116327158.182          40.000                                                  
C39  25537152.252   132978664.901          40.000                                                  
> 2026 06 07 17 37 33.0000000  0 12                     
C01  38578174.601   200886683.442          46.000                                                  
C02  36991694.501   192625462.071          49.000                                                  
C03  37022871.496   192787820.300          49.000                                                  
C07  37147967.219   193439190.781          37.000                                                  
C08  37651533.101   196061465.331          47.000                                                  
C10  37284482.802   194150089.448          30.000    37284482.427   150129153.325          31.000  
C12  23909258.153   124501744.482          46.000                                                  
C19  22944517.644   119478138.539          50.000                                                  
C22  22947991.436   119496247.259          52.000                                                  
C30  24508573.175   127622627.752          44.000                                                  
C36  22338371.223   116321749.642          41.000                                                  
C39  25531995.949   132951817.335          40.000                                                  
> 2026 06 07 17 37 48.0000000  0 12                     
C01  38578147.208   200886540.949          47.000                                                  
C02  36991892.757   192626493.787          49.000                                                  
C03  37023014.752   192788566.222          49.000                                                  
C07  37147598.384   193437271.137          36.000                                                  
C08  37647117.808   196038473.752          47.000                                                  
C10                                                  37284031.627   150127339.054          32.000  
C12  23918197.704   124548295.943          46.000                                                  
C19  22950686.228   119510260.258          51.000                                                  
C22  22945459.109   119483060.663          52.000                                                  
C30  24501865.877   127587703.929          44.000                                                  
C36  22337343.075   116316395.295          40.000                                                  
C39  25526848.741   132925017.038          41.000                                                  
> 2026 06 07 17 38 03.0000000  0 12                     
C01  38578120.941   200886404.345          46.000                                                  
C02  36992092.104   192627531.346          49.000                                                  
C03  37023159.098   192789317.924          49.000                                                  
C07  37147228.567   193435346.320          36.000                                                  
C08  37642708.269   196015512.656          47.000                                                  
C10                                                  37283579.219   150125516.738          33.000  
C12  23927146.260   124594891.972          47.000                                                  
C19  22956873.770   119542481.058          51.000                                                  
C22  22942951.460   119470003.353          50.000                                                  
C30  24495165.601   127552817.017          42.000                                                  
C36  22336321.878   116311079.307          40.000                                                  
C39  25521707.930   132898248.342          42.000                                                  
> 2026 06 07 17 38 18.0000000  0 12                     
C01  38578093.494   200886261.570          46.000                                                  
C02  36992290.254   192628562.684          49.000                                                  
C03  37023302.265   192790063.279          49.000                                                  
C07  37146855.122   193433404.240          35.000                                                  
C08  37638302.430   195992570.070          48.000                                                  
C10                                                  37283122.505   150123677.184          33.000  
C12  23936100.749   124641520.169          45.000                                                  
C19  22963078.431   119574788.668          52.000                                                  
C22  22940466.201   119457063.315          50.000                                                  
C30  24488470.078   127517955.190          44.000                                                  
C36  22335305.989   116305789.497          43.000                                                  
C39  25516570.801   132871499.074          42.000                                                  
> 2026 06 07 17 38 33.0000000  0 12                     
C01  38578064.385   200886109.945          46.000                                                  
C02  36992486.670   192629585.094          49.000                                                  
C03  37023443.680   192790799.579          49.000                                                  
C07  37146477.961   193431442.154          34.000                                                  
C08  37633899.735   195969643.352          47.000                                                  
C10                                                  37282660.376   150121818.128          31.000  
C12  23945060.492   124688177.472          45.000                                                  
C19  22969299.049   119607180.098          51.000                                                  
C22  22938003.099   119444237.987          50.000                                                  
C30  24481779.880   127483116.106          45.000                                                  
C36  22334294.834   116300523.046          45.000                                                  
C39  25511436.923   132844766.568          42.000                                                  
> 2026 06 07 17 38 48.0000000  0 12                     
C01  38578035.008   200885957.069          46.000                                                  
C02  36992682.872   192630606.196          49.000                                                  
C03  37023584.810   192791534.452          49.000                                                  
C07  37146098.512   193429467.830          32.000                                                  
C08  37629501.453   195946740.214          47.000                                                  
C10                                                  37282192.100   150119936.8141         29.000  
C12  23954027.418   124734871.301          46.000                                                  
C19  22975537.071   119639662.731          51.000                                                  
C22  22935563.602   119431535.107          50.000                                                  
C30  24475095.668   127448307.745          44.000                                                  
C36  22333289.523   116295287.554          46.000                                                  
C39  25506308.174   132818058.340          43.000                                                  
> 2026 06 07 17 39 03.0000000  0 11                     
C01  38578005.632   200885804.230          46.000                                                  
C02  36992879.092   192631627.306          49.000                                                  
C03  37023725.939   192792269.234          49.000                                                  
C07  37145716.776   193427482.598          32.000                                                  
C08  37625107.746   195923861.986          46.000                                                  
C12  23963001.545   124781602.619          45.000                                                  
C19  22981792.926   119672237.653          51.000                                                  
C22  22933148.032   119418956.041          51.000                                                  
C30  24468417.264   127413531.668          43.000                                                  
C36  22332290.466   116290084.222          46.000                                                  
C39  25501184.321   132791375.645          41.000                                                  
> 2026 06 07 17 39 18.0000000  0 11                     
C01  38577976.362   200885651.753          46.000                                                  
C02  36993075.347   192632648.690          50.000                                                  
C03  37023867.087   192793004.147          49.000                                                  
C07  37145332.914   193425486.616          32.000                                                  
C08  37620718.632   195901009.032          46.000                                                  
C12  23971982.980   124828371.403          46.000                                                  
C19  22988066.115   119704904.830          50.000                                                  
C22  22930756.406   119406501.214          51.000                                                  
C30  24461744.738   127378788.482          44.000                                                  
C36  22331297.413   116284913.212          46.000                                                  
C39  25496065.078   132764718.710          41.000                                                  
> 2026 06 07 17 39 33.0000000  0 12                     
C01  38577947.575   200885502.043          46.000                                                  
C02  36993272.085   192633672.752          49.000                                                  
C03  37024008.681   192793741.651          49.000                                                  
C07  37144947.390   193423482.525          31.000                                                  
C08  37616334.807   195878183.822          47.000                                                  
C10                                                                                                
C12  23980972.082   124875179.815          45.000                                                  
C19  22994357.476   119737666.425          51.000                                                  
C22  22928389.207   119394173.109          51.000                                                  
C30  24455079.682   127344080.901          44.000                                                  
C36  22330311.025   116279776.910          42.000                                                  
C39  25490951.428   132738089.864          42.000                                                  
> 2026 06 07 17 39 48.0000000  0 12                     
C01  38577919.467   200885355.570          47.000                                                  
C02  36993469.448   192634700.030          50.000                                                  
C03  37024150.900   192794482.243          49.000                                                  
C07  37144560.668   193421470.748          31.000                                                  
C08  37611956.967   195855386.863          48.000                                                  
C10                                                                                                
C12  23989968.831   124922028.023          46.000                                                  
C19  23000667.350   119770522.706          50.000                                                  
C22  22926046.364   119381972.306          51.000                                                  
C30  24448421.898   127309409.807          42.000                                                  
C36  22329330.766   116274675.713          42.000                                                  
C39  25485843.104   132711489.554          40.000                                                  
> 2026 06 07 17 40 03.0000000  0 12                     
C01  38577890.984   200885207.151          46.000                                                  
C02  36993666.419   192635725.264          50.000                                                  
C03  37024292.709   192795220.692          48.000                                                  
C07  37144172.017   193419446.209          33.000                                                  
C08  37607583.917   195832613.071          48.000                                                  
C10                                                  37279826.796   150110416.852          29.000  
C12  23998972.156   124968910.519          46.000                                                  
C19  23006994.110   119803468.201          50.000                                                  
C22  22923726.822   119369893.722          50.000                                                  
C30  24441769.529   127274770.280          43.000                                                  
C36  22328356.922   116269604.300          42.000                                                  
C39  25480738.889   132684912.559          37.000                                                  
> 2026 06 07 17 40 18.0000000  0 12                     
C01  38577862.394   200885058.073          47.000                                                  
C02  36993863.264   192636749.773          50.000                                                  
C03  37024434.392   192795958.280          49.000                                                  
C07  37143781.740   193417410.097          34.000                                                  
C08  37603215.549   195809863.768          48.000                                                  
C10                                                  37279346.566   150108472.720          29.000  
C12  24007981.825   125015828.301          45.000                                                  
C19  23013338.167   119836503.903          50.000                                                  
C22  22921430.724   119357938.713          50.000                                                  
C30  24435123.789   127240163.831          43.000                                                  
C36  22327389.047   116264563.821          43.000                                                  
C39  25475638.516   132658360.124          38.000                                                  
> 2026 06 07 17 40 33.0000000  0 12                     
C01  38577833.088   200884905.543          47.000                                                  
C02  36994059.412   192637770.759          50.000                                                  
C03  37024575.361   192796692.243          49.000                                                  
C07  37143388.675   193415359.880          36.000                                                  
C08  37598850.950   195787136.259          48.000                                                  
C10  37278860.207   194120806.8911         32.000                                                  
C12  24016997.676   125062778.287          44.000                                                  
C19  23019698.878   119869626.804          50.000                                                  
C22  22919157.677   119346104.565          49.000                                                  
C30  24428483.518   127205588.138          43.000                                                  
C36  22326426.657   116259551.468          42.000                                                  
C39  25470543.164   132631829.269          38.000                                                  
> 2026 06 07 17 40 48.0000000  0 12                     
C01  38577803.748   200884752.678          47.000                                                  
C02  36994255.489   192638791.340          50.000                                                  
C03  37024716.205   192797425.681          49.000                                                  
C07  37142993.484   193413298.549          36.000                                                  
C08  37594491.070   195764433.680          48.000                                                  
C10  37278370.452   194118256.970          32.000    37278377.672   150104581.9441         30.000  
C12  24026020.568   125109763.264          45.000                                                  
C19  23026076.743   119902839.723          50.000                                                  
C22  22916908.431   119334394.500          49.000                                                  
C30  24421849.964   127171046.519          45.000                                                  
C36  22325469.896   116254570.258          42.000                                                  
C39  25465452.583   132605323.195          39.000                                                  
> 2026 06 07 17 41 03.0000000  0 12                     
C01  38577773.138   200884593.286          47.000                                                  
C02  36994450.279   192639805.332          50.000                                                  
C03  37024855.744   192798152.424          49.000                                                  
C07  37142594.486   193411219.931          35.000                                                  
C08  37590134.906   195741749.913          48.000                                                  
C10  37277874.283   194115650.5361         32.000    37277875.123   150102592.841          32.000  
C12  24035049.338   125156776.796          45.000                                                  
C19  23032470.852   119936136.243          50.000                                                  
C22  22914682.255   119322802.439          50.000                                                  
C30  24415222.076   127136533.105          44.000                                                  
C36  22324518.138   116249613.862          41.000                                                  
C39  25460366.237   132578835.582          41.000                                                  
> 2026 06 07 17 41 18.0000000  0 12                     
C01  38577742.332   200884432.722          46.000                                                  
C02  36994644.855   192640818.066          50.000                                                  
C03  37024995.051   192798877.814          49.000                                                  
C07  37142192.987   193409129.555          35.000                                                  
C08  37585783.352   195719090.364          48.000                                                  
C10  37277376.863   194113061.026          32.000    37277377.989   150100590.445          33.000  
C12  24044084.845   125203823.939          46.000                                                  
C19  23038882.418   119969521.431          50.000                                                  
C22  22912480.059   119311333.839          51.000                                                  
C30  24408600.495   127102053.574          44.000                                                  
C36  22323572.116   116244687.556          40.000                                                  
C39  25455285.252   132552371.720          44.000                                                  
> 2026 06 07 17 41 33.0000000  0 12                     
C01  38577713.044   200884280.273          47.000                                                  
C02  36994840.932   192641838.839          50.000                                                  
C03  37025135.895   192799611.128          49.000                                                  
C07  37141790.755   193407036.538          34.000                                                  
C08  37581438.338   195696464.385          48.000                                                  
C10  37276877.960   194110463.729          33.000    37276879.229   150098582.052          33.000  
C12  24053128.197   125250913.649          46.000                                                  
C19  23045312.657   120003004.322          50.000                                                  
C22  22910303.433   119299998.031          52.000                                                  
C30  24401987.652   127067617.504          43.000                                                  
C36  22322633.599   116239800.630          37.000                                                  
C39  25450210.664   132525940.861          43.000                                                  
> 2026 06 07 17 41 48.0000000  0 12                     
C01  38577686.598   200884142.509          46.000                                                  
C02  36995039.832   192642874.209          50.000                                                  
C03  37025279.490   192800358.931          49.000                                                  
C07  37141389.167   193404947.720          35.000                                                  
C08  37577101.115   195673878.609          48.000                                                  
C10  37276379.129   194107865.126          32.000    37276380.165   150096572.699          33.000  
C12  24062180.501   125298052.191          45.000                                                  
C19  23051762.695   120036591.189          50.000                                                  
C22  22908153.503   119288801.714          51.000                                                  
C30  24395384.423   127033231.808          45.000                                                  
C36  22321703.749   116234959.464          37.000                                                  
C39  25445142.794   132499549.528          43.000                                                  
> 2026 06 07 17 42 03.0000000  0 12                     
C01  38577659.384   200884000.813          46.000                                                  
C02  36995237.981   192643905.584          50.000                                                  
C03  37025422.281   192801102.637          49.000                                                  
C07  37140984.898   193402844.354          35.000                                                  
C08  37572767.877   195651314.511          49.000                                                  
C10  37275875.830   194105246.809          32.000    37275877.241   150094548.012          32.000  
C12  24071238.488   125345220.670          45.000                                                  
C19  23058229.155   120070263.211          50.000                                                  
C22  22906026.679   119277726.326          51.000                                                  
C30  24388787.608   126998878.132          43.000                                                  
C36  22320779.670   116230145.430          37.000                                                  
C39  25440078.481   132473179.090          43.000                                                  
> 2026 06 07 17 42 18.0000000  0 12                     
C01  38577629.900   200883847.248          47.000                                                  
C02  36995433.826   192644924.994          50.000                                                  
C03  37025562.768   192801834.273          49.000                                                  
C07  37140576.502   193400718.601          36.000                                                  
C08  37568437.266   195628764.160          48.000                                                  
C10  37275367.009   194102600.640          31.000    37275368.885   150092501.924          31.000  
C12  24080300.977   125392410.834          46.000                                                  
C19  23064710.232   120104012.114          50.000                                                  
C22  22903921.350   119266763.966          51.000                                                  
C30  24382194.635   126964548.980          44.000                                                  
C36  22319858.969   116225350.491          31.000                                                  
C39  25435016.723   132446821.466          42.000                                                  
> 2026 06 07 17 42 33.0000000  0 12                     
C01  38577599.076   200883686.782          46.000                                                  
C02  36995628.312   192645937.424          50.000                                                  
C03  37025701.860   192802558.808          49.000                                                  
C07  37140165.014   193398575.469          36.000                                                  
C08  37564110.389   195606232.600          48.000                                                  
C10  37274853.757   194099931.821          31.000                                                  
C12  24089368.773   125439627.416          46.000                                                  
C19  23071207.212   120137842.673          51.000                                                  
C22  22901838.752   119255919.755          51.000                                                  
C30  24375607.685   126930249.488          45.000                                                  
C36  22318941.126   116220579.591          28.000                                                  
C39  25429958.145   132420481.609          40.000                                                  
> 2026 06 07 17 42 48.0000000  0 12                     
C01  38577568.806   200883529.184          46.000                                                  
C02  36995823.317   192646952.621          50.000                                                  
C03  37025841.507   192803286.028          49.000                                                  
C07  37139752.061   193396424.768          38.000                                                  
C08  37559788.802   195583729.675          47.000                                                  
C10  37274338.272   194097250.038          32.000                                                  
C12  24098443.092   125486879.775          46.000                                                  
C19  23077721.954   120171764.364          51.000                                                  
C22  22899780.830   119245203.500          51.000                                                  
C30  24369028.614   126895989.838          45.000                                                  
C36  22318031.468   116215842.217          34.000                                                  
C39  25424904.482   132394169.218          41.000                                                  
> 2026 06 07 17 43 03.0000000  0 12                     
C01  38577539.072   200883374.319          46.000                                                  
C02  36996018.822   192647970.492          50.000                                                  
C03  37025981.618   192804015.797          49.000                                                  
C07  37139337.642   193394266.428          38.000                                                  
C08  37555472.378   195561255.314          47.000                                                  
C10  37273820.517   194094555.258          33.000                                                  
C12  24107523.969   125534167.542          46.000                                                  
C19  23084253.672   120205776.743          50.000                                                  
C22  22897747.442   119234615.198          51.000                                                  
C30  24362457.067   126861770.187          44.000                                                  
C36  22317128.779   116211138.181          35.000                                                  
C39  25419856.501   132367884.100          41.000                                                  
> 2026 06 07 17 43 18.0000000  0 12                     
C01  38577511.553   200883231.164          46.000                                                  
C02  36996216.525   192648999.974          51.000                                                  
C03  37026123.944   192804757.058          49.000                                                  
C07  37138923.438   193392109.396          38.000                                                  
C08  37551163.478   195538818.491          48.000                                                  
C10  37273302.315   194091856.453          34.000                                                  
C12  24116613.172   125581499.367          45.000                                                  
C19  23090804.259   120239888.536          50.000                                                  
C22  22895740.376   119224163.841          51.000                                                  
C30  24355895.293   126827599.753          45.000                                                  
C36  22316233.612   116206476.474          34.000                                                  
C39  25414815.542   132341635.165          41.000                                                  
> 2026 06 07 17 43 33.0000000  0 12                     
C01  38577484.875   200883092.358          46.000                                                  
C02  36996415.068   192650033.736          51.000                                                  
C03  37026267.075   192805502.511          49.000                                                  
C07  37138508.109   193389946.404          39.000                                                  
C08  37546860.617   195516411.986          48.000                                                  
C10  37272782.166   194089146.253          35.000                                                  
C12  24125709.702   125628867.647          45.000                                                  
C19  23097372.340   120274092.145          49.000                                                  
C22  22893758.254   119213842.188          51.000                                                  
C30  24349341.490   126793471.580          43.000                                                  
C36  22315345.379   116201849.724          31.000                                                  
C39  25409779.819   132315415.041          40.000                                                  
> 2026 06 07 17 43 48.0000000  0 12                     
C01  38577452.478   200882923.731          46.000                                                  
C02  36996607.874   192651037.566          51.000                                                  
C03  37026404.417   192806217.922          49.000                                                  
C07  37138085.149   193387743.278          39.000                                                  
C08  37542556.899   195494001.627          47.000                                                  
C10  37272253.243   194086390.503          35.000                                                  
C12  24134806.947   125676237.910          46.000                                                  
C19  23103951.607   120308353.089          49.000                                                  
C22  22891794.609   119203616.128          51.000                                                  
C30  24342788.615   126759351.794          43.000                                                  
C36  22314456.252   116197223.572          31.000                                                  
C39  25404743.185   132289189.451          40.000                                                  
> 2026 06 07 17 44 03.0000000  0 12                     
C01  38577420.100   200882755.208          46.000                                                  
C02  36996800.699   192652041.381          50.000                                                  
C03  37026541.740   192806933.208          49.000                                                  
C07  37137660.170   193385529.984          39.000                                                  
C08  37538258.041   195471617.371          47.000                                                  
C10  37271721.175   194083619.158          35.000                                                  
C12  24143910.053   125723639.763          46.000                                                  
C19  23110547.796   120342701.045          50.000                                                  
C22  22889854.999   119193515.635          51.000                                                  
C30  24336242.781   126725270.550          43.000                                                  
C36                                                                                                
C39  25399710.768   132262988.303          40.000                                                  
> 2026 06 07 17 44 18.0000000  0 12                     
C01  38577390.008   200882598.680          46.000                                                  
C02  36996995.775   192653057.118          50.000                                                  
C03  37026681.315   192807660.270          49.000                                                  
C07  37137235.459   193383318.493          39.000                                                  
C08  37533966.616   195449271.213          48.000                                                  
C10  37271188.285   194080844.173          35.000    37271186.212   150075621.0351         29.000  
C12  24153020.842   125771084.765          45.000                                                  
C19  23117163.016   120377147.636          49.000                                                  
C22  22887941.727   119183552.708          50.000                                                  
C30  24329707.079   126691240.105          44.000                                                  
C36  22312702.479   116188087.3391         36.000                                                  
C39  25394685.909   132236823.371          42.000                                                  
> 2026 06 07 17 44 33.0000000  0 12                     
C01  38577361.328   200882449.700          46.000                                                  
C02  36997192.263   192654080.299          51.000                                                  
C03  37026822.319   192808394.709          49.000                                                  
C07  37136810.105   193381104.365          39.000                                                  
C08  37529681.696   195426958.788          47.000                                                  
C10  37270653.983   194078061.089          35.000                                                  
C12  24162138.976   125818568.207          45.000                                                  
C19  23123796.354   120411688.142          50.000                                                  
C22  22886053.900   119173722.945          50.000                                                  
C30  24323180.883   126657256.283          44.000                                                  
C36  22311834.741   116183571.512          38.000                                                  
C39  25389667.805   132210690.155          43.000                                                  
> 2026 06 07 17 44 48.0000000  0 12                     
C01  38577332.577   200882300.383          46.000                                                  
C02  36997388.643   192655103.032          51.000                                                  
C03  37026963.217   192809128.601          49.000                                                  
C07  37136382.624   193378879.774          39.000                                                  
C08  37525401.761   195404672.208          48.000                                                  
C10  37270116.501   194075261.972          34.000    37270114.213   150071302.466          29.000  
C12  24171263.506   125866081.893          46.000                                                  
C19  23130446.150   120446314.390          50.000                                                  
C22  22884190.197   119164018.571          51.000                                                  
C30  24316662.156   126623311.597          45.000                                                  
C36  22310973.043   116179085.297          42.000                                                  
C39  25384653.596   132184580.794          41.000                                                  
> 2026 06 07 17 45 03.0000000  0 12                     
C01  38577303.737   200882150.633          46.000                                                  
C02  36997584.953   192656125.247          50.000                                                  
C03  37027103.989   192809861.837          49.000                                                  
C07  37135953.214   193376644.599          39.000                                                  
C08  37521126.883   195382411.445          48.000                                                  
C10  37269575.623   194072446.921          33.000    37269573.532   150069125.651          29.000  
C12  24180393.916   125913625.422          45.000                                                  
C19  23137112.672   120481026.038          51.000                                                  
C22  22882350.581   119154439.502          50.000                                                  
C30  24310151.202   126589406.178          44.000                                                  
C36  22310117.081   116174628.710          40.000                                                  
C39  25379643.873   132158495.012          43.000                                                  
> 2026 06 07 17 45 18.0000000  0 12                     
C01  38577272.948   200881990.662          47.000                                                  
C02  36997779.314   192657137.152          51.000                                                  
C03  37027242.777   192810584.656          49.000                                                  
C07  37135519.943   193374389.186          39.000                                                  
C08  37516855.061   195360166.870          48.000                                                  
C10  37269029.581   194069606.101          33.000                                                  
C12  24189528.185   125961188.779          46.000                                                  
C19  23143793.167   120515813.024          50.000                                                  
C22  22880533.069   119144976.067          50.000                                                  
C30  24303645.841   126555530.615          43.000                                                  
C36  22309264.675   116170191.823          40.000                                                  
C39  25374637.777   132132422.981          43.000                                                  
> 2026 06 07 17 45 33.0000000  0 12                     
C01  38577242.785   200881833.965          46.000                                                  
C02  36997974.265   192658152.208          50.000                                                  
C03  37027382.156   192811310.515          49.000                                                  
C07  37135085.494   193372126.992          39.000                                                  
C08  37512588.903   195337951.882          48.000                                                  
C10  37268481.306   194066752.917          32.000    37268477.554   150064709.5641         28.000  
C12  24198668.530   126008785.045          45.000                                                  
C19  23150490.477   120550688.503          50.000                                                  
C22  22878740.448   119135641.806          51.000                                                  
C30  24297148.343   126521698.672          43.000                                                  
C36  22308418.559   116165788.029          41.000                                                  
C39  25369636.398   132106378.239          43.000                                                  
> 2026 06 07 17 45 48.0000000  0 12                     
C01  38577212.962   200881678.893          46.000                                                  
C02  36998169.484   192659168.803          51.000                                                  
C03  37027521.802   192812037.818          49.000                                                  
C07  37134649.561   193369856.467          39.000                                                  
C08  37508328.213   195315765.006          47.000                                                  
C10  37267930.672   194063885.947          32.000                                                  
C12  24207814.968   126056412.382          46.000                                                  
C19  23157204.798   120585650.644          51.000                                                  
C22  22876972.487   119126435.178          50.000                                                  
C30  24290659.404   126487909.043          44.000                                                  
C36  22307578.769   116161415.578          41.000                                                  
C39  25364639.379   132080359.048          43.000                                                  
> 2026 06 07 17 46 03.0000000  0 12                     
C01  38577183.675   200881526.692          46.000                                                  
C02  36998365.257   192660188.201          50.000                                                  
C03  37027661.949   192812767.823          49.000                                                  
C07  37134212.306   193367578.926          39.000                                                  
C08  37504073.099   195293607.527          48.000                                                  
C10  37267377.805   194061006.305          32.000                                                  
C12  24216967.321   126104071.642          45.000                                                  
C19  23163935.737   120620700.386          50.000                                                  
C22  22875229.257   119117357.450          50.000                                                  
C30  24284179.095   126454163.298          45.000                                                  
C36  22306745.518   116157075.641          42.000                                                  
C39  25359647.596   132054366.512          44.000                                                  
> 2026 06 07 17 46 18.0000000  0 12                     
C01  38577155.173   200881378.576          46.000                                                  
C02  36998561.763   192661211.515          51.000                                                  
C03  37027802.846   192813501.640          49.000                                                  
C07  37133773.961   193365295.499          38.000                                                  
C08  37499823.970   195271480.618          48.000                                                  
C10  37266822.686   194058115.276          32.000    37266827.171   150058068.416          29.000  
C12  24226126.678   126151763.761          46.000                                                  
C19  23170683.741   120655838.599          51.000                                                  
C22  22873510.918   119108409.844          49.000                                                  
C30  24277707.471   126420462.943          45.000                                                  
C36  22305918.558   116152769.336          38.000                                                  
C39  25354661.424   132028401.760          43.000                                                  
> 2026 06 07 17 46 33.0000000  0 12                     
C01  38577125.690   200881225.199          46.000                                                  
C02  36998757.232   192662229.506          51.000                                                  
C03  37027942.671   192814230.005          49.000                                                  
C07  37133332.775   193362996.976          39.000                                                  
C08  37495578.987   195249375.125          47.000                                                  
C10  37266263.832   194055203.652          33.000                                                  
C12  24235290.449   126199479.162          46.000                                                  
C19  23177446.666   120691055.772          50.000                                                  
C22  22871815.773   119099583.187          50.000                                                  
C30  24271242.977   126386798.941          46.000                                                  
C36  22305095.904   116148487.296          35.000                                                  
C39  25349678.665   132002455.531          42.000                                                  
> 2026 06 07 17 46 48.0000000  0 12                     
C01  38577093.883   200881059.776          45.000                                                  
C02  36998950.378   192663235.330          51.000                                                  
C03  37028080.138   192814946.148          49.000                                                  
C07  37132887.390   193360676.586          37.000                                                  
C08  37491336.470   195227284.266          47.000                                                  
C10  37265699.939   194052264.572          33.000                                                  
C12  24244456.829   126247210.725          44.000                                                  
C19  23184223.082   120726344.747          49.000                                                  
C22  22870142.661   119090870.753          51.000                                                  
C30  24264783.951   126353164.837          45.000                                                  
C36  22304275.483   116144222.735          33.000                                                  
C39  25344697.764   131976520.921          41.000                                                  
> 2026 06 07 17 47 03.0000000  0 12                     
C01  38577062.862   200880898.511          45.000                                                  
C02  36999144.311   192664245.202          50.000                                                  
C03  37028218.355   192815666.203          49.000                                                  
C07  37132440.718   193358350.552          36.000                                                  
C08  37487099.957   195205224.294          48.000                                                  
C10  37265134.117   194049314.214          32.000                                                  
C12  24253629.267   126294974.316          45.000                                                  
C19  23191016.867   120761721.514          50.000                                                  
C22  22868494.547   119082288.733          51.000                                                  
C30  24258333.323   126319577.129          43.000                                                  
C36  22303462.603   116139991.663          34.000                                                  
C39  25339722.599   131950614.028          41.000                                                  
> 2026 06 07 17 47 18.0000000  0 12                     
C01  38577034.075   200880748.909          45.000                                                  
C02  36999340.459   192665266.647          51.000                                                  
C03  37028358.769   192816397.714          49.000                                                  
C07  37131994.171   193356026.466          34.000                                                  
C08  37482871.020   195183202.786          47.000                                                  
C10  37264567.115   194046360.191          30.000                                                  
C12  24262809.888   126342777.206          46.000                                                  
C19  23197829.110   120797193.312          50.000                                                  
C22  22866872.969   119073844.738          52.000                                                  
C30  24251892.952   126286043.666          44.000                                                  
C36  22302657.961   116135801.378          38.000                                                  
C39  25334753.706   131924742.444          38.000                                                  
> 2026 06 07 17 47 33.0000000  0 12                     
C01  38577003.823   200880591.532          45.000                                                  
C02  36999535.106   192666280.177          50.000                                                  
C03  37028497.647   192817121.231          49.000                                                  
C07  37131544.193   193353684.890          34.000                                                  
C08  37478645.622   195161200.355          47.000                                                  
C10  37263995.324   194043383.022          28.000                                                  
C12  24271994.370   126390599.678          46.000                                                  
C19  23204655.345   120832740.358          49.000                                                  
C22  22865274.192   119065519.361          52.000                                                  
C30  24245459.782   126252545.291          45.000                                                  
C36  22301857.965   116131632.485          38.000                                                  
C39  25329787.351   131898886.539          42.000                                                  
> 2026 06 07 17 47 48.0000000  0 12                     
C01  38576973.124   200880431.852          45.000                                                  
C02  36999729.289   192667291.305          51.000                                                  
C03  37028636.061   192817842.225          49.000                                                  
C07  37131092.482   193351331.406          34.000                                                  
C08  37474424.887   195139222.516          47.000                                                  
C10                                                                                                
C12  24281182.889   126438446.786          45.000                                                  
C19  23211496.769   120868367.859          48.000                                                  
C22  22863699.377   119057318.171          53.000                                                  
C30  24239034.867   126219087.802          45.000                                                  
C36  22301063.026   116127490.382          36.000                                                  
C39  25324826.678   131873051.669          46.000                                                  
> 2026 06 07 17 48 03.0000000  0 12                     
C01  38576940.441   200880261.762          45.000                                                  
C02  36999921.381   192668291.899          51.000                                                  
C03  37028772.437   192818552.596          49.000                                                  
C07  37130637.233   193348957.844          33.000                                                  
C08  37470207.315   195117261.222          47.000                                                  
C10                                                  37262840.127   150042017.0931         29.000  
C12  24290373.893   126486310.199          44.000                                                  
C19  23218352.148   120904067.446          48.000                                                  
C22  22862146.827   119049233.051          52.000                                                  
C30  24232616.225   126185663.362          44.000                                                  
C36  22300271.196   116123366.813          34.000                                                  
C39  25319869.042   131847229.706          45.000                                                  
> 2026 06 07 17 48 18.0000000  0 12                     
C01  38576911.369   200880110.552          45.000                                                  
C02  37000117.082   192669311.267          51.000                                                  
C03  37028912.423   192819281.650          49.000                                                  
C07  37130183.556   193346593.422          32.000                                                  
C08  37465998.696   195095345.815          48.000                                                  
C10                                                  37262260.992   150039684.391          30.000  
C12  24299573.670   126534218.871          44.000                                                  
C19  23225227.433   120939868.157          50.000                                                  
C22  22860622.099   119041293.369          51.000                                                  
C30  24226209.001   126152301.626          44.000                                                  
C36  22299488.104   116119291.027          34.000                                                  
C39  25314918.430   131821450.016          43.000                                                  
> 2026 06 07 17 48 33.0000000  0 12                     
C01  38576881.599   200879955.608          45.000                                                  
C02  37000312.051   192670326.783          51.000                                                  
C03  37029051.641   192820006.764          49.000                                                  
C07  37129727.056   193344215.984          31.000                                                  
C08  37461794.562   195073453.767          47.000                                                  
C10                                                  37261677.837   150037336.693          30.000  
C12  24308778.790   126582150.008          45.000                                                  
C19  23232117.871   120975747.073          50.000                                                  
C22  22859120.815   119033476.572          51.000                                                  
C30  24219809.764   126118980.238          44.000                                                  
C36  22298710.569   116115240.350          32.000                                                  
C39  25309970.926   131795689.817          44.000                                                  
> 2026 06 07 17 48 48.0000000  0 12                     
C01  38576852.526   200879804.166          45.000                                                  
C02  37000507.664   192671345.678          51.000                                                  
C03  37029191.484   192820735.120          48.000                                                  
C07  37129268.341   193341854.4291         28.000                                                  
C08  37457596.235   195051592.317          47.000                                                  
C10                                                  37261092.394   150034980.164          30.000  
C12  24317989.413   126630110.444          45.000                                                  
C19  23239024.427   121011711.133          49.000                                                  
C22  22857644.691   119025789.936          50.000                                                  
C30  24213419.766   126085706.817          45.000                                                  
C36  22297939.056   116111221.906          36.000                                                  
C39  25305029.230   131769956.254          44.000                                                  
> 2026 06 07 17 49 03.0000000  0 12                     
C01  38576823.256   200879651.918          45.000                                                  
C02  37000703.133   192672363.631          51.000                                                  
C03  37029331.148   192821462.476          49.000                                                  
C07  37128811.769   193339467.631          28.000                                                  
C08  37453402.839   195029757.252          46.000                                                  
C10                                                  37260503.806   150032611.130          29.000  
C12  24327204.629   126678095.579          45.000                                                  
C19  23245946.244   121047755.734          49.000                                                  
C22  22856192.922   119018229.201          50.000                                                  
C30  24207038.416   126052477.294          45.000                                                  
C36  22297172.654   116107231.283          36.000                                                  
C39  25300091.715   131744245.007          43.000                                                  
> 2026 06 07 17 49 18.0000000  0 12                     
C01  38576793.469   200879496.931          46.000                                                  
C02  37000898.030   192673378.754          51.000                                                  
C03  37029470.258   192822186.880          48.000                                                  
C07                                                                                                
C08  37449213.965   195007946.703          47.000                                                  
C10                                                  37259909.947   150030217.3511         27.000  
C12  24336423.491   126726103.214          43.000                                                  
C19  23252883.248   121083878.707          49.000                                                  
C22  22854764.866   119010792.491          49.000                                                  
C30  24200664.714   126019290.132          44.000                                                  
C36  22296411.040   116103266.464          38.000                                                  
C39  25295157.792   131718554.098          43.000                                                  
> 2026 06 07 17 49 33.0000000  0 11                     
C01  38576762.609   200879336.474          46.000                                                  
C02  37001091.820   192674388.263          51.000                                                  
C03  37029608.261   192822905.586          48.000                                                  
C07  37127883.205   193334641.876          30.000                                                  
C08  37445029.380   194986157.936          47.000                                                  
C12  24345645.675   126774130.264          42.000                                                  
C19  23259835.067   121120077.033          50.000                                                  
C22  22853360.074   119003477.119          49.000                                                  
C30  24194298.857   125986142.745          47.000                                                  
C36  22295653.626   116099324.767          41.000                                                  
C39  25290226.996   131692880.690          42.000                                                  
> 2026 06 07 17 49 48.0000000  0 12                     
C01  38576732.267   200879178.591          46.000                                                  
C02  37001286.092   192675400.205          50.000                                                  
C03  37029746.692   192823626.614          48.000                                                  
C07  37127417.235   193332214.221          33.000                                                  
C08  37440850.709   194964399.095          48.000                                                  
C10                                                  37258705.843   150025315.304          27.000  
C12  24354873.954   126822184.517          44.000                                                  
C19  23266802.771   121156358.439          50.000                                                  
C22  22851980.193   118996291.169          50.000                                                  
C30  24187943.149   125953043.575          46.000                                                  
C36  22294903.073   116095413.928          44.000                                                  
C39  25285301.257   131667232.792          43.000                                                  
> 2026 06 07 17 50 03.0000000  0 12                     
C01  38576699.692   200879009.050          46.000                                                  
C02  37001478.077   192676400.394          50.000                                                  
C03  37029882.872   192824335.773          48.000                                                  
C07  37126947.065   193329765.711          33.000                                                  
C08  37436675.343   194942656.021          49.000                                                  
C10                                                  37258115.415   150022992.3881         29.000  
C12  24364104.787   126870251.491          43.000                                                  
C19  23273783.483   121192708.428          50.000                                                  
C22  22850622.254   118989220.483          50.000                                                  
C30  24181593.535   125919978.726          46.000                                                  
C36  22294155.469   116091519.898          42.000                                                  
C39  25280378.234   131641596.049          44.000                                                  
> 2026 06 07 17 50 18.0000000  0 12                     
C01  38576669.011   200878849.474          46.000                                                  
C02  37001671.938   192677410.400          50.000                                                  
C03  37030020.910   192825054.690          48.000                                                  
C07  37126476.627   193327317.888          34.000                                                  
C08  37432507.394   194920950.343          49.000                                                  
C10                                                  37257508.600   150020539.339          30.000  
C12  24373341.839   126918352.398          43.000                                                  
C19  23280781.582   121229148.328          50.000                                                  
C22  22849290.512   118982286.707          50.000                                                  
C30  24175254.767   125886970.098          46.000                                                  
C36  22293415.048   116087664.082          41.000                                                  
C39  25275461.661   131615992.105          43.000                                                  
> 2026 06 07 17 50 33.0000000  0 12                     
C01  38576637.704   200878686.694          46.000                                                  
C02  37001865.173   192678417.079          51.000                                                  
C03  37030158.305   192825770.145          48.000                                                  
C07  37126003.384   193324857.596          34.000                                                  
C08  37428344.054   194899268.974          49.000                                                  
C10                                                  37256902.858   150018092.290          28.000  
C12  24382583.412   126966473.905          44.000                                                  
C19  23287794.209   121265664.726          50.000                                                  
C22  22847982.553   118975476.706          51.000                                                  
C30  24168924.058   125854004.900          45.000                                                  
C36  22292678.898   116083833.282          42.000                                                  
C39  25270548.502   131590407.684          43.000                                                  
> 2026 06 07 17 50 48.0000000  0 11                     
C01  38576609.882   200878541.823          46.000                                                  
C02  37002061.822   192679441.525          51.000                                                  
C03  37030299.131   192826503.302          48.000                                                  
C07  37125532.035   193322406.077          35.000                                                  
C08  37424189.364   194877633.089          49.000                                                  
C12  24391833.097   127014636.754          45.000                                                  
C19  23294825.312   121302278.392          49.000                                                  
C22  22846702.541   118968811.631          51.000                                                  
C30  24162605.590   125821104.552          45.000                                                  
C36  22291952.094   116080048.387          45.000                                                  
C39  25265642.973   131564863.878          43.000                                                  
> 2026 06 07 17 51 03.0000000  0 12                     
C01  38576579.684   200878384.772          46.000                                                  
C02  37002256.130   192680453.648          50.000                                                  
C03  37030437.562   192827224.077          48.000                                                  
C07  37125056.987   193319933.213          35.000                                                  
C08  37420037.532   194856012.647          49.000                                                  
C10  37255685.299   194000071.8051         32.000                                                  
C12  24401084.837   127062810.612          46.000                                                  
C19  23301869.263   121338958.942          49.000                                                  
C22  22845444.580   118962261.416          51.000                                                  
C30  24156293.893   125788239.193          45.000                                                  
C36  22291228.184   116076279.363          45.000                                                  
C39  25260739.516   131539330.465          43.000                                                  
> 2026 06 07 17 51 18.0000000  0 13                     
C01  38576546.769   200878213.484          46.000                                                  
C02  37002447.668   192681451.423          50.000                                                  
C03  37030573.206   192827930.349          48.000                                                  
C07  37124577.543   193317437.024          36.000                                                  
C08  37415888.184   194834405.650          48.000                                                  
C10  37255067.227   193996853.789          33.000                                                  
C11  25502865.153   132800109.102          30.000                                                  
C12  24410337.864   127110993.015          44.000                                                  
C19  23308925.847   121375704.097          50.000                                                  
C22  22844208.276   118955824.086          51.000                                                  
C30  24149988.344   125755407.183          44.000                                                  
C36  22290507.347   116072523.981          45.000                                                  
C39  25255837.471   131513805.383          41.000                                                  
> 2026 06 07 17 51 33.0000000  0 13                     
C01  38576516.570   200878056.348          46.000                                                  
C02  37002641.868   192682463.185          50.000                                                  
C03  37030711.530   192828650.557          48.000                                                  
C07  37124099.011   193314945.968          36.000                                                  
C08  37411746.680   194812840.543          48.000                                                  
C10  37254448.620   193993635.071          33.000                                                  
C11  25495036.484   132759341.324          31.000                                                  
C12  24419597.556   127159212.118          44.000                                                  
C19  23316000.444   121412541.929          51.000                                                  
C22  22842999.257   118949528.057          52.000                                                  
C30  24143694.874   125722637.117          45.000                                                  
C36  22289794.266   116068810.711          42.000                                                  
C39  25250941.860   131488317.006          42.000                                                  
> 2026 06 07 17 51 48.0000000  0 13                     
C01  38576486.407   200877899.380          46.000                                                  
C02  37002836.051   192683474.994          50.000                                                  
C03  37030849.872   192829370.684          48.000                                                  
C07  37123618.727   193312446.018          37.000                                                  
C08  37407610.538   194791303.379          48.000                                                  
C10  37253826.760   193990401.717          32.000                                                  
C11  25487204.741   132718565.727          32.000                                                  
C12  24428861.912   127207453.602          45.000                                                  
C19  23323089.996   121449458.143          50.000                                                  
C22  22841814.702   118943359.356          51.000                                                  
C30  24137411.125   125689915.344          46.000                                                  
C36  22289086.438   116065125.372          42.000                                                  
C39  25246051.090   131462851.181          43.000                                                  
> 2026 06 07 17 52 03.0000000  0 13                     
C01  38576454.940   200877735.647          46.000                                                  
C02  37003028.947   192684479.894          50.000                                                  
C03  37030986.874   192830083.809          48.000                                                  
C07  37123135.531   193309930.379          38.000                                                  
C08  37403478.398   194769787.271          48.000                                                  
C10  37253200.701   193987146.696          33.000                                                  
C11  25479370.711   132677775.795          32.000                                                  
C12  24438129.502   127255710.328          46.000                                                  
C19  23330193.058   121486445.550          50.000                                                  
C22  22840653.198   118937311.090          51.000                                                  
C30  24131135.453   125657235.207          47.000                                                  
C36  22288382.560   116061460.960          43.000                                                  
C39  25241163.698   131437400.919          44.000                                                  
> 2026 06 07 17 52 18.0000000  0 13                     
C01  38576423.062   200877569.712          45.000                                                  
C02  37003221.343   192685482.464          50.000                                                  
C03  37031123.429   192830794.504          48.000                                                  
C07  37122650.316   193307403.566          40.000                                                  
C08  37399351.314   194748296.864          48.000                                                  
C10  37252571.782   193983874.604          34.000                                                  
C11  25471541.327   132636976.005          33.000                                                  
C12  24447400.648   127303986.502          46.000                                                  
C19  23337310.647   121523508.402          50.000                                                  
C22  22839515.584   118931387.869          50.000                                                  
C30  24124869.179   125624601.632          47.000                                                  
C36  22287683.827   116057821.928          43.000                                                  
C39  25236280.273   131411970.781          44.000                                                  
> 2026 06 07 17 52 33.0000000  0 13                     
C01  38576392.952   200877413.021          45.000                                                  
C02  37003415.490   192686494.110          50.000                                                  
C03  37031261.682   192831514.171          48.000                                                  
C07  37122165.243   193304877.103          40.000                                                  
C08  37395231.647   194726843.613          48.000                                                  
C10  37251942.239   193980596.975          34.000                                                  
C11  25463718.376   132596178.329          31.000                                                  
C12  24456677.459   127352293.251          46.000                                                  
C19  23344444.873   121560657.875          50.000                                                  
C22  22838404.167   118925601.150          50.000                                                  
C30  24118613.842   125592026.349          47.000                                                  
C36  22286991.832   116054219.684          44.000                                                  
C39  25231402.869   131386572.117          44.000                                                  
> 2026 06 07 17 52 48.0000000  0 13                     
C01  38576362.075   200877252.395          45.000                                                  
C02  37003608.886   192687501.682          49.000                                                  
C03  37031399.148   192832229.733          48.000                                                  
C07  37121677.687   193302337.859          41.000                                                  
C08  37391116.464   194705414.447          47.000                                                  
C10  37251309.336   193977300.691          35.000                                                  
C11  25455809.618   132555066.9341         42.000                                                  
C12  24465957.378   127400617.097          45.000                                                  
C19  23351593.322   121597880.492          50.000                                                  
C22  22837316.336   118919937.788          49.000                                                  
C30  24112366.921   125559496.535          47.000                                                  
C36  22286304.928   116050640.921          44.000                                                  
C39  25226528.950   131361191.734          44.000                                                  
> 2026 06 07 17 53 03.0000000  0 13                     
C01  38576331.965   200877095.629          46.000                                                  
C02  37003802.997   192688512.973          50.000                                                  
C03  37031537.347   192832948.872          48.000                                                  
C07  37121189.184   193299793.658          42.000                                                  
C08  37387007.125   194684017.197          46.000                                                  
C10  37250674.467   193973993.475          35.000                                                  
C11  25447972.229   132514255.749          43.000                                                  
C12  24475241.908   127448965.607          45.000                                                  
C19  23358756.924   121635183.753          49.000                                                  
C22  22836253.987   118914405.604          51.000                                                  
C30  24106130.292   125527020.251          46.000                                                  
C36  22285623.743   116047093.425          42.000                                                  
C39  25221659.963   131335837.353          43.000                                                  
> 2026 06 07 17 53 18.0000000  0 13                     
C01  38576300.480   200876931.694          46.000                                                  
C02  37003995.697   192689516.957          50.000                                                  
C03  37031674.099   192833660.540          48.000                                                  
C07  37120697.571   193297233.560          43.000                                                  
C08  37382901.217   194662640.935          46.000                                                  
C10  37250035.257   193970664.470          35.000                                                  
C11  25440132.570   132473431.048          43.000                                                  
C12  24484529.208   127497327.400          45.000                                                  
C19  23365933.695   121672556.324          49.000                                                  
C22  22835214.957   118908993.660          52.000                                                  
C30  24099901.437   125494586.821          44.000                                                  
C36  22284946.507   116043566.083          40.000                                                  
C39  25216793.924   131310497.850          43.000                                                  
> 2026 06 07 17 53 33.0000000  0 13                     
C01  38576268.280   200876763.942          45.000                                                  
C02  37004187.628   192690516.942          50.000                                                  
C03  37031810.100   192834368.158          48.000                                                  
C07  37120203.546   193294660.891          43.000                                                  
C08  37378800.294   194641288.944          47.000                                                  
C10  37249392.472   193967316.802          34.000                                                  
C11  25432291.214   132432596.429          43.000                                                  
C12  24493819.956   127545705.518          45.000                                                  
C19  23373124.547   121710001.284          49.000                                                  
C22  22834199.514   118903705.249          52.000                                                  
C30  24093681.498   125462199.816          45.000                                                  
C36  22284273.614   116040062.192          38.000                                                  
C39  25211931.066   131285176.524          42.000                                                  
> 2026 06 07 17 53 48.0000000  0 13                     
C01  38576236.330   200876597.734          45.000                                                  
C02  37004379.809   192691518.355          49.000                                                  
C03  37031946.333   192835077.113          48.000                                                  
C07  37119708.217   193292081.134          44.000                                                  
C08  37374705.768   194619966.720          48.000                                                  
C10  37248747.347   193963956.139          34.000    37248749.045   149985287.3491         29.000  
C11  25424448.482   132391757.745          41.000                                                  
C12  24503115.118   127594105.103          47.000                                                  
C19  23380329.981   121747523.704          48.000                                                  
C22  22833208.873   118898545.830          52.000                                                  
C30  24087471.601   125429865.006          46.000                                                  
C36  22283606.420   116036586.922          38.000                                                  
C39  25207072.372   131259878.748          43.000                                                  
> 2026 06 07 17 54 03.0000000  0 13                     
C01  38576206.382   200876441.607          44.000                                                  
C02  37004573.903   192692529.693          49.000                                                  
C03  37032084.461   192835795.868          48.000                                                  
C07  37119213.156   193289502.827          44.000                                                  
C08  37370618.855   194598682.843          48.000                                                  
C10  37248101.328   193960590.943          33.000                                                  
C11  25416606.447   132350923.664          41.000                                                  
C12  24512416.213   127642534.371          47.000                                                  
C19  23387552.068   121785131.853          49.000                                                  
C22  22832244.679   118893523.934          52.000                                                  
C30  24081274.035   125397591.160          45.000                                                  
C36  22282946.142   116033148.950          39.000                                                  
C39  25202220.539   131234612.830          45.000                                                  
> 2026 06 07 17 54 18.0000000  0 13                     
C01  38576175.808   200876282.363          45.000                                                  
C02  37004767.371   192693537.727          50.000                                                  
C03  37032221.945   192836511.346          49.000                                                  
C07  37118715.861   193286912.767          45.000                                                  
C08  37366536.569   194577424.145          48.000                                                  
C10  37247451.700   193957208.044          32.000                                                  
C11  25408762.947   132310081.319          42.000                                                  
C12  24521719.755   127690979.721          46.000                                                  
C19  23394787.879   121822812.174          48.000                                                  
C22  22831304.268   118888626.360          51.000                                                  
C30  24075085.045   125365365.482          43.000                                                  
C36  22282290.599   116029734.822          39.000                                                  
C39  25197372.405   131209365.612          45.000                                                  
> 2026 06 07 17 54 33.0000000  0 13                     
C01  38576145.431   200876123.959          45.000                                                  
C02  37004961.017   192694546.491          49.000                                                  
C03  37032359.501   192837227.303          48.000                                                  
C07  37118217.047   193284315.075          44.000                                                  
C08  37362459.680   194556194.685          48.000                                                  
C10  37246799.177   193953811.464          32.000                                                  
C11  25400918.821   132269234.932          42.000                                                  
C12  24531026.621   127739444.949          45.000                                                  
C19  23402038.306   121860568.405          49.000                                                  
C22  22830388.284   118883857.105          50.000                                                  
C30  24068905.454   125333192.190          45.000                                                  
C36  22281640.238   116026348.466          40.000                                                  
C39  25192528.274   131184140.992          45.000                                                  
> 2026 06 07 17 54 48.0000000  0 13                     
C01  38576114.017   200875960.208          45.000                                                  
C02  37005153.574   192695549.719          49.000                                                  
C03  37032496.002   192837937.735          49.000                                                  
C07  37117715.463   193281703.486          45.000                                                  
C08  37358387.187   194534988.263          48.000                                                  
C10  37246143.527   193950394.975          32.000                                                  
C11  25393072.569   132228378.694          42.000                                                  
C12  24540335.971   127787923.443          44.000                                                  
C19  23409302.403   121898394.013          49.000                                                  
C22  22829495.673   118879209.969          50.000                                                  
C30  24062735.727   125301065.254          45.000                                                  
C36  22280994.005   116022983.549          42.000                                                  
C39  25187687.573   131158932.659          43.000                                                  
> 2026 06 07 17 55 03.0000000  0 13                     
C01  38576081.978   200875793.401          45.000                                                  
C02  37005345.541   192696549.740          50.000                                                  
C03  37032631.878   192838644.850          49.000                                                  
C07  37117211.664   193279080.385          45.000                                                  
C08  37354319.465   194513807.264          48.000                                                  
C10  37245484.446   193946960.865          30.000                                                  
C11  25385224.476   132187515.076          42.000                                                  
C12  24549648.698   127836417.286          46.000                                                  
C19  23416580.063   121936290.977          49.000                                                  
C22  22828627.006   118874687.319          50.000                                                  
C30  24056575.400   125268987.456          45.000                                                  
C36  22280352.417   116019642.369          42.000                                                  
C39  25182849.446   131133742.968          42.000                                                  
> 2026 06 07 17 55 18.0000000  0 13                     
C01  38576050.046   200875627.192          45.000                                                  
C02  37005537.579   192697550.205          49.000                                                  
C03  37032767.844   192839352.294          48.000                                                  
C07  37116706.346   193276449.468          45.000                                                  
C08  37350257.442   194492655.386          48.000                                                  
C10                                                  37244821.076   149969460.810          30.000  
C11  25377376.169   132146648.044          42.000                                                  
C12  24558965.410   127884929.859          45.000                                                  
C19  23423872.447   121974262.720          50.000                                                  
C22  22827783.052   118870292.813          50.000                                                  
C30  24050425.168   125236962.707          45.000                                                  
C36  22279716.048   116016328.524          41.000                                                  
C39  25178015.804   131108575.458          43.000                                                  
> 2026 06 07 17 55 33.0000000  0 13                     
C01  38576019.115   200875466.308          45.000                                                  
C02  37005730.600   192698555.800          49.000                                                  
C03  37032904.774   192840064.797          49.000                                                  
C07  37116200.474   193273815.489          46.000                                                  
C08  37346202.175   194471537.401          48.000                                                  
C10                                                  37244158.421   149966787.611          33.000  
C11  25369528.076   132105782.707          41.000                                                  
C12  24568286.000   127933465.525          44.000                                                  
C19  23431180.109   122012313.668          50.000                                                  
C22  22826964.561   118866031.189          51.000                                                  
C30  24044286.158   125204996.059          45.000                                                  
C36  22279085.611   116013046.621          39.000                                                  
C39  25173187.719   131083434.658          45.000                                                  
> 2026 06 07 17 55 48.0000000  0 13                     
C01  38575989.327   200875311.426          45.000                                                  
C02  37005924.783   192699567.291          49.000                                                  
C03  37033042.830   192840783.150          49.000                                                  
C07  37115694.173   193271179.231          46.000                                                  
C08  37342153.573   194450454.076          48.000                                                  
C10                                                  37243492.889   149964107.827          34.000  
C11  25361680.358   132064920.045          42.000                                                  
C12  24577610.664   127982024.706          44.000                                                  
C19  23438502.924   122050444.205          49.000                                                  
C22  22826171.641   118861903.147          50.000                                                  
C30  24038158.387   125173088.537          45.000                                                  
C36  22278461.357   116009797.346          37.000                                                  
C39  25168365.245   131058321.351          46.000                                                  
> 2026 06 07 17 56 03.0000000  0 13                     
C01  38575959.182   200875154.592          45.000                                                  
C02  37006118.555   192700576.625          49.000                                                  
C03  37033180.457   192841499.250          49.000                                                  
C07  37115185.924   193268532.691          47.000                                                  
C08  37338109.759   194429397.436          47.000                                                  
C10                                                  37242824.195   149961415.538          34.000  
C11  25353831.962   132024052.237          42.000                                                  
C12  24586938.204   128030599.118          43.000                                                  
C19  23445839.141   122088645.988          49.000                                                  
C22  22825402.791   118857900.675          50.000                                                  
C30  24032040.945   125141232.332          47.000                                                  
C36  22277842.034   116006572.537          36.000                                                  
C39  25163546.309   131033227.459          45.000                                                  
> 2026 06 07 17 56 18.0000000  0 13                     
C01  38575927.089   200874987.590          45.000                                                  
C02  37006310.343   192701575.608          49.000                                                  
C03  37033316.065   192842204.867          49.000                                                  
C07  37114674.120   193265867.730          47.000                                                  
C08  37334069.323   194408359.418          47.000                                                  
C10                                                  37242150.479   149958704.151          35.000  
C11  25345981.099   131983171.486          42.000                                                  
C12  24596267.300   128079180.233          43.000                                                  
C19  23453187.330   122126910.553          49.000                                                  
C22  22824656.759   118854015.648          50.000                                                  
C30  24025932.205   125109419.632          47.000                                                  
C36  22277225.178   116003364.067          32.000                                                  
C39  25158729.231   131008144.745          44.000                                                  
> 2026 06 07 17 56 33.0000000  0 13                     
C01  38575893.960   200874815.375          46.000                                                  
C02  37006501.095   192702569.251          49.000                                                  
C03  37033450.619   192842905.105          49.000                                                  
C07  37114159.724   193263189.372          47.000                                                  
C08  37330033.622   194387344.929          48.000                                                  
C10                                                  37241472.868   149955977.747          36.000  
C11  25338128.736   131942283.117          41.000                                                  
C12  24605599.129   128127772.827          43.000                                                  
C19  23460548.849   122165242.648          49.000                                                  
C22  22823934.136   118850253.024          50.000                                                  
C30  24019832.739   125077655.746          47.000                                                  
C36  22276612.681   116000176.687          32.000                                                  
C39  25153915.388   130983078.070          45.000                                                  
> 2026 06 07 17 56 48.0000000  0 13                     
C01  38575861.331   200874645.767          45.000                                                  
C02  37006692.311   192703565.317          49.000                                                  
C03  37033585.637   192843607.710          49.000                                                  
C07  37113644.328   193260505.456          47.000                                                  
C08  37326004.246   194366361.900          48.000                                                  
C10                                                  37240793.041   149953242.256          36.000  
C11  25330276.658   131901395.030          42.000                                                  
C12  24614934.568   128176384.325          43.000                                                  
C19  23467924.432   122203649.682          48.000                                                  
C22  22823236.726   118846620.621          51.000                                                  
C30  24013744.281   125045948.700          47.000                                                  
C36  22276006.689   115997017.922          29.000                                                  
C39  25149106.655   130958035.155          45.000                                                  
> 2026 06 07 17 57 03.0000000  0 13                     
C01  38575830.168   200874483.801          45.000                                                  
C02  37006884.993   192704568.862          49.000                                                  
C03  37033722.049   192844317.651          49.000                                                  
C07  37113128.807   193257821.053          47.000                                                  
C08  37321981.912   194345415.424          48.000                                                  
C10                                                  37240112.177   149950501.720          36.000  
C11  25322425.992   131860512.674          43.000                                                  
C12  24624274.617   128225019.512          44.000                                                  
C19  23475315.238   122242136.438          48.000                                                  
C22  22822565.512   118843123.511          52.000                                                  
C30  24007667.026   125014303.940          47.000                                                  
C36                                                                                                
C39  25144303.229   130933020.985          45.000                                                  
> 2026 06 07 17 57 18.0000000  0 13                     
C01  38575799.790   200874325.968          46.000                                                  
C02  37007078.425   192705576.379          49.000                                                  
C03  37033859.230   192845031.509          49.000                                                  
C07  37112612.535   193255132.728          47.000                                                  
C08  37317965.777   194324502.053          48.000                                                  
C10                                                  37239429.420   149947753.267          36.000  
C11  25314575.988   131819632.854          43.000                                                  
C12  24633618.418   128273674.534          43.000                                                  
C19  23482720.340   122280699.081          48.000                                                  
C22  22821919.386   118839758.181          51.000                                                  
C30  24001601.565   124982718.142          48.000                                                  
C36                                                                                                
C39  25139504.414   130908032.023          44.000                                                  
> 2026 06 07 17 57 33.0000000  0 13                     
C01  38575767.233   200874156.671          46.000                                                  
C02  37007269.641   192706572.238          49.000                                                  
C03  37033994.123   192845733.631          49.000                                                  
C07  37112092.475   193252424.904          47.000                                                  
C08  37313952.841   194303606.140          48.000                                                  
C10                                                  37238741.820   149944984.996          36.000  
C11  25306723.285   131778740.274          43.000                                                  
C12  24642962.630   128322333.518          43.000                                                  
C19  23490137.539   122319321.764          48.000                                                  
C22  22821295.024   118836508.956          49.000                                                  
C30  23995544.538   124951176.087          48.000                                                  
C36  22274225.344   115987767.2861         35.000                                                  
C39  25134706.956   130883052.608          44.000                                                  
> 2026 06 07 17 57 48.0000000  0 13                     
C01  38575735.819   200873993.475          45.000                                                  
C02  37007462.019   192707574.038          49.000                                                  
C03  37034130.142   192846441.612          50.000                                                  
C07  37111572.040   193249715.201          46.000                                                  
C08  37309946.535   194282745.411          48.000                                                  
C10  37238055.024   193908328.3571         29.000    37238052.469   149942210.454          36.000  
C11  25298871.511   131737852.780          44.000                                                  
C12  24652311.096   128371013.747          43.000                                                  
C19  23497570.177   122358021.776          50.000                                                  
C22  22820696.501   118833393.470          49.000                                                  
C30  23989499.126   124919695.630          46.000                                                  
C36  22273638.614   115984719.558          34.000                                                  
C39  25129915.181   130858100.237          45.000                                                  
> 2026 06 07 17 58 03.0000000  0 13                     
C01  38575705.067   200873833.685          45.000                                                  
C02  37007654.987   192708579.022          49.000                                                  
C03  37034266.751   192847152.699          49.000                                                  
C07  37111050.765   193247000.930          47.000                                                  
C08  37305946.643   194261917.098          48.000                                                  
C10  37237362.742   193904722.537          31.000    37237361.009   149939427.608          35.000  
C11  25291020.559   131696967.874          45.000                                                  
C12  24661663.367   128419712.158          44.000                                                  
C19  23505017.074   122396796.044          50.000                                                  
C22  22820123.674   118830409.064          51.000                                                  
C30  23983464.685   124888274.377          45.000                                                  
C36  22273057.746   115981700.962          31.000                                                  
C39  25125128.231   130833172.074          43.000                                                  
