     3.04           OBSERVATION DATA    M: Mixed            RINEX VERSION / TYPE
CONVBIN EX 2.5.0                        20260701 180726 UTC PGM / RUN BY / DATE 
format: RTCM 3                                              COMMENT             
log: D:\code\monitor\compare_test_realtime\rover_15.rtcm3   COMMENT             
0000                                                        MARKER NAME         
                                                            MARKER NUMBER       
                                                            MARKER TYPE         
                                                            OBSERVER / AGENCY   
                                                            REC # / TYPE / VERS 
                                                            ANT # / TYPE        
 -1083504.1627  5483619.6309  3066098.0982                  APPROX POSITION XYZ 
        0.0000        0.0000        0.0000                  ANTENNA: DELTA H/E/N
C   18 C2I L2I S2I C7I L7I S7I C7D L7D S7D C5P L5P S5P C6I  SYS / # / OBS TYPES 
       L6I S6I C1P L1P S1P                                  SYS / # / OBS TYPES 
  2026    07    01    07    00   30.0000000     GPS         TIME OF FIRST OBS   
  2026    07    01    08    00   00.0000000     GPS         TIME OF LAST OBS    
C L2I                                                       SYS / PHASE SHIFT   
C L7I                                                       SYS / PHASE SHIFT   
C L7D                                                       SYS / PHASE SHIFT   
C L5P  0.00000                                              SYS / PHASE SHIFT   
C L6I                                                       SYS / PHASE SHIFT   
C L1P  0.00000                                              SYS / PHASE SHIFT   
  0                                                         GLONASS SLOT / FRQ #
 C1C    0.000 C1P    0.000 C2C    0.000 C2P    0.000        GLONASS COD/PHS/BIS 
                                                            END OF HEADER       
> 2026 07 01 07 00 30.0000000  0 14                     
C01  38083422.579   198310265.095          47.000                                                    38083411.089   153346041.773          49.000                                                    38083423.187   161143311.908          46.000                                                  
C02  36976463.839   192546062.477          49.000                                                    36976450.616   148888804.062          51.000                                                    36976448.471   156459427.352          50.000                                                  
C03  36652121.666   190857141.146          49.000                                                    36652112.321   147582825.558          52.000                                                    36652110.730   155087043.598          50.000                                                  
C04  39522730.405   205805161.421          43.000                                                    39522723.382   159141607.263          37.000                                                    39522720.684   167233536.999          42.000                                                  
C06  37012846.403   192735572.706          48.000                                                    37012844.115   149035360.817          50.000    37012845.652   145246322.569          48.000    37012843.883   156613430.602          49.000    37012843.150   194503789.571          45.000  
C07  38237387.603   199112255.593          45.000                                                    38237389.068   153966264.247          47.000    38237391.016   150051872.265          45.000    38237388.014   161795047.711          47.000    38237384.618   200938972.475          42.000  
C08  39541782.482   205904317.881          34.000                                                    39541795.634   159218241.172          36.000    39541799.744   155170315.919          35.000    39541793.311   167314093.926          35.000    39541780.874   207793346.868          31.000  
C09  37309291.171   194279258.787          47.000    37309292.064   150229044.817          49.000                                                                                                    37309291.010   157867811.731          47.000                                                  
C10  39155739.395   203894260.973          43.000    39155749.545   157663992.622          45.000                                                                                                    39155744.345   165680805.511          40.000                                                  
C14  24224992.924   126145957.270          47.000                                                    24225013.224    97544070.549          46.000    24225014.600    95064134.109          44.000    24224983.811   102503935.037          46.000    24224988.940   127303254.357          43.000  
C21  22934910.185   119428221.111          51.000                                                    22934906.254    92349514.795          51.000    22934907.970    90001646.575          49.000    22934904.825    97045240.561          51.000    22934905.396   120523890.983          47.000  
C22  22581812.663   117589511.889          51.000                                                    22581807.106    90927689.307          52.000    22581807.892    88615970.196          49.000    22581806.141    95551125.832          51.000    22581808.857   118668314.245          48.000  
C34  23215244.224   120887876.436          48.000                                                    23215244.296    93478176.096          48.000    23215245.850    91101612.477          46.000    23215244.796    98231302.851          47.000    23215239.811   121996939.742          44.000  
C35  24766432.969   128965142.842          44.000                                                    24766444.387    99723981.118          45.000    24766447.407    97188619.672          42.000    24766442.082   104794703.177          46.000    24766427.841   130148309.164          40.000  
> 2026 07 01 07 00 45.0000000  0 14                     
C01  38083465.304   198310487.223          47.000                                                    38083453.725   153346213.543          49.000                                                    38083465.840   161143492.409          45.000                                                  
C02  36976364.827   192545546.522          49.000                                                    36976351.496   148888405.088          51.000                                                    36976349.370   156459008.091          49.000                                                  
C03  36652076.082   190856903.534          48.000                                                    36652066.719   147582641.812          52.000                                                    36652065.111   155086850.514          50.000                                                  
C04  39522770.771   205805371.565          43.000                                                    39522763.730   159141769.758          37.000                                                    39522761.032   167233707.749          42.000                                                  
C06  37012829.320   192735483.255          48.000                                                    37012826.943   149035291.645          50.000    37012828.444   145246255.160          48.000    37012826.711   156613357.917          49.000    37012826.103   194503699.293          45.000  
C07  38232436.883   199086476.372          45.000                                                    38232438.437   153946330.194          47.000    38232440.403   150032445.036          45.000    38232437.401   161774100.048          47.000    38232433.630   200912956.750          42.000  
C08  39546614.713   205929480.175          33.000                                                    39546627.793   159237698.229          36.000    39546631.849   155189278.292          33.000    39546625.363   167334540.354          34.000    39546612.747   207818740.014          29.000  
C09  37309338.041   194279502.926          46.000    37309338.881   150229233.596          49.000                                                                                                    37309337.916   157868010.114          47.000                                                  
C10  39151002.978   203869593.311          43.000    39151011.806   157644918.183          45.000                                                                                                    39151006.874   165660761.138          40.000                                                  
C14  24220633.544   126123257.474          47.000                                                    24220653.700    97526517.726          46.000    24220654.951    95047027.553          43.000    24220624.645   102485489.664          46.000    24220629.202   127280346.324          43.000  
C21  22933128.662   119418942.674          50.000                                                    22933124.427    92342340.155          51.000    22933126.106    89994654.345          49.000    22933123.069    97037701.099          51.000    22933123.462   120514527.437          47.000  
C22  22585988.421   117611255.928          50.000                                                    22585982.828    90944503.163          52.000    22585983.632    88632356.576          49.000    22585981.845    95568794.629          51.000    22585984.615   118690257.763          48.000  
C34  23210683.514   120864127.214          47.000                                                    23210683.496    93459811.698          48.000    23210684.979    91083714.977          45.000    23210683.943    98212004.677          47.000    23210678.993   121972972.641          44.000  
C35  24775626.188   129013011.719          45.000                                                    24775637.338    99760996.030          45.000    24775640.215    97224693.514          41.000    24775635.051   104833600.281          45.000    24775619.791   130196617.251          41.000  
> 2026 07 01 07 01 00.0000000  0 14                     
C01  38083508.011   198310709.432          47.000                                                    38083496.396   153346385.385          49.000                                                    38083508.511   161143672.986          45.000                                                  
C02  36976265.939   192545031.483          49.000                                                    36976252.591   148888006.841          51.000                                                    36976250.465   156458589.594          49.000                                                  
C03  36652030.624   190856666.737          49.000                                                    36652021.242   147582458.715          52.000                                                    36652019.634   155086658.099          50.000                                                  
C04  39522811.280   205805582.591          43.000                                                    39522804.275   159141932.934          37.000                                                    39522801.559   167233879.216          42.000                                                  
C06  37012808.645   192735374.434          48.000                                                    37012806.036   149035207.505          50.000    37012807.466   145246173.148          48.000    37012805.876   156613269.492          49.000    37012805.357   194503589.483          45.000  
C07  38227488.593   199060710.866          45.000                                                    38227490.362   153926406.756          48.000    38227492.435   150013028.133          45.000    38227489.450   161753163.542          46.000    38227484.626   200886954.861          42.000  
C08  39551446.657   205954640.870          32.000                                                    39551459.719   159257154.023          35.000    39551463.651   155208239.466          33.000    39551457.093   167354985.439          33.000    39551443.066   207844131.532          26.000  
C09  37309380.677   194279725.371          46.000    37309381.498   150229405.620          48.000                                                                                                    37309380.730   157868190.878          47.000                                                  
C10  39146266.240   203844927.414          43.000    39146274.978   157625845.109          45.000                                                                                                    39146269.974   165640718.206          40.000                                                  
C14  24216282.508   126100599.935          47.000                                                    24216302.540    97508997.560          47.000    24216303.701    95029952.824          43.000    24216273.467   102467078.624          46.000    24216278.184   127257480.888          43.000  
C21  22931355.912   119409711.726          50.000                                                    22931351.748    92335202.223          51.000    22931353.392    89987697.897          49.000    22931350.319    97030200.212          50.000    22931350.783   120505211.778          47.000  
C22  22590167.718   117633017.994          50.000                                                    22590162.053    90961330.967          52.000    22590162.929    88648756.558          49.000    22590160.999    95586478.087          51.000    22590163.911   118712219.474          48.000  
C34  23206142.727   120840481.419          48.000                                                    23206142.655    93441527.303          48.000    23206143.799    91065895.431          46.000    23206142.888    98192790.555          47.000    23206138.027   121949109.906          44.000  
C35  24784824.357   129060908.306          44.000                                                    24784835.615    99798032.376          45.000    24784838.402    97260788.219          41.000    24784833.256   104872519.919          45.000    24784818.514   130244953.280          41.000  
> 2026 07 01 07 01 15.0000000  0 14                     
C01  38083550.718   198310931.752          47.000                                                    38083539.085   153346557.299          49.000                                                    38083551.200   161143853.644          45.000                                                  
C02  36976167.231   192544517.404          49.000                                                    36976153.847   148887609.324          51.000                                                    36976151.738   156458171.862          49.000                                                  
C03  36651985.326   190856430.829          49.000                                                    36651975.944   147582276.289          52.000                                                    36651974.336   155086466.407          50.000                                                  
C04  39522851.986   205805794.556          43.000                                                    39522844.963   159142096.820          37.000                                                    39522842.265   167234051.454          42.000                                                  
C06  37012784.004   192735246.300          48.000                                                    37012781.431   149035108.426          50.000    37012782.842   145246076.591          47.000    37012781.288   156613165.377          49.000    37012780.698   194503460.179          45.000  
C07  38222543.358   199034959.208          45.000                                                    38222545.092   153906494.014          47.000    38222547.111   149993621.660          45.000    38222544.091   161732238.267          47.000    38222539.320   200860966.951          42.000  
C08  39556278.352   205979799.867          31.000                                                    39556291.360   159276608.582          34.000    39556295.131   155227199.378          32.000    39556288.483   167375429.185          32.000    39556273.241   207869521.313          23.000  
C09  37309419.238   194279926.263          47.000    37309420.078   150229560.958          49.000                                                                                                    37309419.291   157868354.109          47.000                                                  
C10  39141529.752   203820263.425          43.000    39141538.597   157606773.514          45.000                                                                                                    39141533.450   165620676.827          40.000                                                  
C14  24211939.496   126077984.590          46.000                                                    24211959.491    97491510.022          46.000    24211960.546    95012909.897          43.000    24211930.454   102448701.872          47.000    24211935.261   127234658.051          42.000  
C21  22929592.114   119400528.157          50.000                                                    22929588.201    92328100.936          51.000    22929589.809    89980777.158          49.000    22929586.646    97022737.845          51.000    22929587.236   120495943.960          47.000  
C22  22594350.302   117654798.029          51.000                                                    22594344.691    90978172.661          52.000    22594345.567    88665170.070          49.000    22594343.637    95604176.145          51.000    22594346.389   118734199.335          47.000  
C34  23201621.936   120816939.274          48.000                                                    23201621.596    93423323.037          48.000    23201622.775    91048153.998          45.000    23201621.864    98173660.655          47.000    23201617.039   121925351.775          44.000  
C35  24794027.637   129108832.357          44.000                                                    24794039.180    99835089.958          45.000    24794041.896    97296903.617          41.000    24794036.732   104911461.869          44.000    24794022.329   130293317.028          40.000  
> 2026 07 01 07 01 30.0000000  0 14                     
C01  38083593.496   198311154.176          46.000                                                    38083581.810   153346729.294          49.000                                                    38083593.943   161144034.382          46.000                                                  
C02  36976068.755   192544004.260          48.000                                                    36976055.282   148887212.541          51.000                                                    36976053.191   156457754.901          49.000                                                  
C03  36651940.188   190856195.750          48.000                                                    36651930.825   147582094.509          52.000                                                    36651929.199   155086275.377          50.000                                                  
C04  39522892.852   205806007.405          42.000                                                    39522885.865   159142261.413          37.000                                                    39522883.131   167234224.393          42.000                                                  
C06  37012755.664   192735098.841          48.000                                                    37012753.108   149034994.404          50.000    37012754.520   145245965.469          47.000    37012752.983   156613045.553          49.000    37012752.412   194503311.362          45.000  
C07  38217600.644   199009221.413          44.000                                                    38217602.449   153886592.007          47.000    38217604.432   149974225.636          45.000    38217601.412   161711324.259          47.000    38217596.873   200834993.045          42.000  
C08  39561110.261   206004957.107          30.000                                                    39561123.055   159296061.718          34.000    39561126.218   155246157.980          31.000    39561119.195   167395871.494          32.000    39561092.141   207894909.383          23.000  
C09  37309453.636   194280105.315          46.000    37309454.422   150229699.417          49.000                                                                                                    37309453.654   157868499.618          47.000                                                  
C10  39136793.710   203795601.363          43.000    39136802.573   157587703.408          45.000                                                                                                    39136797.051   165600637.026          40.000                                                  
C14  24207604.668   126055411.349          46.000                                                    24207624.431    97474055.051          46.000    24207625.056    94995898.700          42.000    24207595.572   102430359.343          47.000    24207600.290   127211877.714          42.000  
C21  22927837.090   119391391.822          50.000                                                    22927833.713    92321036.179          51.000    22927835.375    89973892.022          49.000    22927831.979    97015313.851          51.000    22927833.159   120486723.803          47.000  
C22  22598536.281   117676595.836          50.000                                                    22598530.706    90995028.108          52.000    22598531.618    88681596.992          49.000    22598529.706    95621888.647          51.000    22598532.404   118756197.120          47.000  
C34  23197120.889   120793500.916          47.000                                                    23197120.496    93405199.043          48.000    23197121.694    91030490.773          45.000    23197120.693    98154615.074          47.000    23197116.011   121901698.378          44.000  
C35  24803236.938   129156783.578          44.000                                                    24803248.624    99872168.542          45.000    24803251.162    97333039.482          41.000    24803245.890   104950425.895          44.000    24803232.417   130341708.151          40.000  
> 2026 07 01 07 01 45.0000000  0 14                     
C01  38083636.185   198311376.705          46.000                                                    38083624.535   153346901.372          49.000                                                    38083636.668   161144215.207          46.000                                                  
C02  36975970.404   192543492.091          49.000                                                    36975956.930   148886816.506          51.000                                                    36975954.822   156457338.731          50.000                                                  
C03  36651895.212   190855961.567          49.000                                                    36651885.867   147581913.413          52.000                                                    36651884.223   155086085.082          50.000                                                  
C04  39522933.915   205806221.199          43.000                                                    39522926.946   159142426.708          37.000                                                    39522924.194   167234398.123          43.000                                                  
C06  37012723.732   192734932.130          48.000                                                    37012721.105   149034865.488          50.000    37012722.481   145245839.833          47.000    37012720.980   156612910.088          49.000    37012720.533   194503143.121          45.000  
C07  38212660.574   198983497.631          44.000                                                    38212662.575   153866700.814          47.000    38212664.398   149954840.174          45.000    38212661.378   161690421.641          47.000    38212657.411   200809033.239          42.000  
C08  39565941.562   206030112.571          29.000                                                    39565953.981   159315513.509          33.000    39565957.108   155265115.169          30.000    39565949.960   167416312.343          31.000                                                  
C09  37309483.834   194280262.712          46.000    37309484.674   150229821.131          48.000                                                                                                    37309483.888   157868627.509          47.000                                                  
C10  39132057.936   203770941.355          43.000    39132066.853   157568634.894          45.000                                                                                                    39132061.314   165580598.872          41.000                                                  
C14  24203277.666   126032880.199          46.000                                                    24203297.483    97456632.632          46.000    24203298.072    94978919.238          43.000    24203268.696   102412051.018          47.000    24203273.359   127189139.861          42.000  
C21  22926091.644   119382302.663          51.000                                                    22926088.267    92314007.900          51.000    22926089.946    89967042.426          49.000    22926086.480    97007928.195          51.000    22926087.588   120477551.251          47.000  
C22  22602725.584   117698411.332          50.000                                                    22602720.134    91011897.229          52.000    22602721.135    88698037.236          49.000    22602719.223    95639615.519          52.000    22602721.475   118778212.757          47.000  
C34  23192639.714   120770166.578          48.000                                                    23192639.339    93387155.464          48.000    23192640.571    91012905.938          45.000    23192639.571    98135654.032          47.000    23192634.943   121878149.984          44.000  
C35  24812451.100   129204761.746          45.000                                                    24812462.500    99909267.958          44.000    24812465.091    97369195.655          41.000    24812459.712   104989411.803          45.000    24812445.971   130390126.503          40.000  
> 2026 07 01 07 02 00.0000000  0 14                     
C01  38083678.892   198311599.303          46.000                                                    38083667.278   153347073.515          49.000                                                    38083679.428   161144396.094          45.000                                                  
C02  36975872.231   192542980.859          49.000                                                    36975858.740   148886421.191          51.000                                                    36975856.649   156456923.310          49.000                                                  
C03  36651850.397   190855728.204          48.000                                                    36651841.033   147581732.964          52.000                                                    36651839.407   155085895.450          50.000                                                  
C04  39522975.175   205806435.885          43.000                                                    39522968.241   159142592.712          38.000                                                    39522965.418   167234572.566          42.000                                                  
C06  37012688.119   192734746.097          48.000                                                    37012685.367   149034721.646          50.000    37012686.725   145245699.648          48.000    37012685.313   156612758.930          49.000    37012685.063   194502955.381          45.000  
C07  38207723.095   198957787.850          44.000                                                    38207725.185   153846820.468          47.000    38207727.062   149935465.265          45.000    38207724.077   161669530.411          47.000    38207720.253   200783087.594          42.000  
C08  39570772.702   206055266.098          28.000                                                    39570784.550   159334963.767          33.000    39570787.641   155284070.992          30.000    39570780.404   167436751.649          29.000                                                  
C09  37309509.852   194280398.418          47.000    37309510.638   150229926.067          48.000                                                                                                    37309509.959   157868737.781          47.000                                                  
C10  39127322.520   203746283.440          43.000    39127331.508   157549567.999          45.000                                                                                                    39127325.987   165560562.424          41.000                                                  
C14  24198958.830   126010391.011          46.000                                                    24198978.593    97439242.653          47.000    24198979.254    94961971.388          43.000    24198949.878   102393776.791          47.000    24198954.488   127166444.365          42.000  
C21  22924355.204   119373260.511          51.000                                                    22924351.826    92307015.969          51.000    22924353.524    89960228.258          49.000    22924350.004    97000580.730          51.000    22924351.147   120468426.140          47.000  
C22  22606918.336   117720244.332          50.000                                                    22606912.922    91028779.892          52.000    22606913.958    88714490.683          49.000    22606912.064    95657356.623          52.000    22606914.155   118800246.060          47.000  
C34  23188178.927   120746936.417          48.000                                                    23188177.997    93369192.437          48.000    23188179.373    90995399.591          46.000    23188178.301    98116777.638          47.000    23188173.852   121854706.672          44.000  
C35  24821670.157   129252766.549          44.000                                                    24821681.504    99946387.957          44.000    24821684.131    97405371.888          41.000    24821678.627   105028419.359          44.000    24821664.922   130438571.723          40.000  
> 2026 07 01 07 02 15.0000000  0 14                     
C01  38083721.635   198311821.980          47.000                                                    38083710.038   153347245.705          49.000                                                    38083722.189   161144577.051          45.000                                                  
C02  36975774.220   192542470.550          49.000                                                    36975760.746   148886026.597          51.000                                                    36975758.638   156456508.650          49.000                                                  
C03  36651805.742   190855495.672          49.000                                                    36651796.379   147581553.151          52.000                                                    36651794.752   155085706.502          50.000                                                  
C04  39523016.595   205806651.462          43.000                                                    39523009.644   159142759.410          37.000                                                    39523006.803   167234747.725          42.000                                                  
C06  37012648.718   192734540.788          48.000                                                    37012645.912   149034562.895          50.000    37012647.288   145245544.924          48.000    37012645.894   156612592.095          49.000    37012645.626   194502748.185          45.000  
C07  38202788.439   198932092.192          45.000                                                    38202790.476   153826951.021          47.000    38202792.424   149916100.986          45.000    38202789.475   161648650.636          47.000    38202785.598   200757156.173          42.000  
C08  39575605.219   206080417.616          27.000                                                    39575614.725   159354412.505          32.000    39575618.013   155303025.264          29.000    39575610.347   167457189.277          29.000                                                  
C09  37309531.884   194280512.469          47.000    37309532.510   150230014.257          49.000                                                                                                    37309531.902   157868830.465          47.000                                                  
C10  39122587.390   203721627.645          43.000    39122596.610   157530502.749          45.000                                                                                                    39122591.071   165540527.729          41.000                                                  
C14  24194647.982   125987943.712          46.000                                                    24194667.763    97421885.063          47.000    24194668.406    94945055.104          43.000    24194639.101   102375536.597          47.000    24194643.693   127143791.112          42.000  
C21  22922627.877   119364265.250          50.000                                                    22922624.464    92300060.293          51.000    22922626.161    89953449.424          49.000    22922622.516    96993271.362          51.000    22922623.677   120459348.339          47.000  
C22  22611114.573   117742094.677          51.000                                                    22611109.033    91045675.969          52.000    22611110.105    88730957.193          49.000    22611108.193    95675111.823          51.000    22611110.230   118822296.864          47.000  
C34  23183737.849   120723810.537          49.000                                                    23183736.902    93351310.064          48.000    23183738.385    90977971.866          45.000    23183737.152    98097985.978          47.000    23183732.667   121831368.649          44.000  
C35  24830894.915   129300797.699          43.000                                                    24830906.101    99983528.339          44.000    24830909.014    97441567.975          42.000    24830902.921   105067448.331          44.000    24830889.251   130487043.529          41.000  
> 2026 07 01 07 02 30.0000000  0 14                     
C01  38083764.271   198312044.727          47.000                                                    38083752.781   153347417.958          49.000                                                    38083764.932   161144758.051          45.000                                                  
C02  36975676.422   192541961.179          49.000                                                    36975662.913   148885632.721          51.000                                                    36975660.787   156456094.744          49.000                                                  
C03  36651761.248   190855263.964          49.000                                                    36651751.885   147581373.979          52.000                                                    36651750.259   155085518.215          50.000                                                  
C04  39523058.194   205806867.919          43.000                                                    39523051.243   159142926.773          38.000                                                    39523048.384   167234923.605          42.000                                                  
C06  37012605.582   192734316.206          49.000                                                    37012602.776   149034389.238          50.000    37012604.134   145245375.692          48.000    37012602.776   156612409.614          49.000    37012602.401   194502521.540          45.000  
C07  38197856.499   198906410.692          45.000                                                    38197858.500   153807092.539          47.000    38197860.502   149896747.381          45.000    38197857.589   161627782.375          46.000    38197853.569   200731239.066          41.000  
C08  39580435.591   206105567.092          23.000                                                                                                    39580447.778   155321977.980          28.000    39580440.166   167477625.275          27.000                                                  
C09  37309549.557   194280604.678          47.000    37309550.325   150230085.579          49.000                                                                                                    37309549.646   157868905.396          46.000                                                  
C10  39117852.045   203696974.118          43.000    39117862.034   157511439.240          46.000                                                                                                    39117856.513   165520494.849          40.000                                                  
C14  24190344.853   125965538.241          46.000                                                    24190364.741    97404559.811          47.000    24190365.367    94928170.334          44.000    24190336.348   102357330.381          47.000    24190340.583   127121180.040          42.000  
C21  22920909.216   119355316.731          51.000                                                    22920905.946    92293140.774          51.000    22920907.626    89946705.826          49.000    22920904.016    96985999.995          50.000    22920905.071   120450317.730          48.000  
C22  22615314.132   117763962.260          51.000                                                    22615308.397    91062585.369          52.000    22615309.629    88747436.695          49.000    22615307.682    95692881.023          51.000    22615309.612   118844365.064          47.000  
C34  23179316.838   120700789.192          49.000                                                    23179315.838    93333508.509          48.000    23179317.428    90960622.903          46.000    23179316.070    98079279.251          46.000    23179311.674   121808136.084          45.000  
C35  24840123.444   129348854.970          43.000                                                    24840135.041   100020688.930          44.000    24840138.061    97477783.761          42.000    24840131.932   105106498.516          43.000    24840118.583   130535541.698          40.000  
> 2026 07 01 07 02 45.0000000  0 14                     
C01  38083807.067   198312267.529          47.000                                                    38083795.577   153347590.250          49.000                                                    38083807.710   161144939.106          45.000                                                  
C02  36975578.786   192541452.729          49.000                                                    36975565.259   148885239.562          51.000                                                    36975563.151   156455681.594          49.000                                                  
C03  36651716.933   190855033.084          49.000                                                    36651707.552   147581195.446          52.000                                                    36651705.926   155085330.603          50.000                                                  
C04  39523099.954   205807085.258          43.000                                                    39523093.003   159143094.828          37.000                                                    39523090.126   167235100.213          42.000                                                  
C06  37012558.836   192734072.351          48.000                                                    37012555.942   149034200.686          49.000    37012557.264   145245191.929          48.000    37012555.977   156612211.476          49.000    37012555.352   194502275.455          45.000  
C07  38192927.025   198880743.432          45.000                                                    38192928.919   153787245.057          47.000    38192931.171   149877404.511          45.000    38192928.348   161606925.692          47.000    38192924.238   200705336.340          41.000  
C08                                                                                                                                                  39585277.078   155340929.057          28.000    39585269.555   167498059.485          27.000                                                  
C09  37309563.262   194280675.058          47.000    37309563.816   150230139.992          49.000                                                                                                    37309563.298   157868962.588          47.000                                                  
C10  39113117.773   203672322.908          43.000    39113128.065   157492377.514          46.000                                                                                                    39113122.472   165500463.861          40.000                                                  
C14  24186049.998   125943174.526          46.000                                                    24186070.047    97387266.855          47.000    24186070.654    94911317.039          44.000    24186041.653   102339158.101          47.000    24186045.852   127098611.162          42.000  
C21  22919199.669   119346414.856          51.000                                                    22919196.435    92286257.317          51.000    22919198.061    89939997.371          49.000    22919194.469    96978766.521          51.000    22919195.577   120441334.189          47.000  
C22  22619516.855   117785846.902          51.000                                                    22619511.119    91079507.963          52.000    22619512.370    88763929.051          49.000    22619510.387    95710664.087          51.000    22619512.316   118866450.480          47.000  
C34  23174915.930   120677872.491          48.000                                                    23174914.662    93315787.871          48.000    23174916.645    90943352.792          45.000    23174915.019    98060657.574          47.000    23174910.695   121785009.150          45.000  
C35  24849357.065   129396938.065          43.000                                                    24849368.948   100057869.462          43.000    24849372.093    97514018.975          42.000    24849365.928   105145569.672          44.000    24849352.562   130584065.913          39.000  
> 2026 07 01 07 03 00.0000000  0 14                     
C01  38083849.881   198312490.436          47.000                                                    38083838.373   153347762.625          49.000                                                    38083850.524   161145120.243          45.000                                                  
C02  36975481.364   192540945.212          49.000                                                    36975467.802   148884847.124          51.000                                                    36975465.675   156455269.202          49.000                                                  
C03  36651672.779   190854803.065          49.000                                                    36651663.379   147581017.571          52.000                                                    36651661.753   155085143.687          50.000                                                  
C04  39523141.928   205807303.498          43.000                                                    39523134.888   159143263.585          37.000                                                    39523132.047   167235277.548          42.000                                                  
C06  37012508.321   192733809.282          48.000                                                    37012505.354   149033997.269          49.000    37012506.730   145244993.687          48.000    37012505.462   156611997.709          49.000    37012504.729   194502009.972          45.000  
C07  38188000.768   198855090.504          45.000                                                    38188002.483   153767408.667          47.000    38188004.771   149858072.447          45.000    38188001.930   161586080.650          46.000    38187997.802   200679448.079          42.000  
C08                                                                                                                                                  39590106.056   155359878.398          27.000    39590098.819   167518491.879          25.000                                                  
C09  37309572.643   194280723.664          47.000    37309573.215   150230177.584          49.000                                                                                                    37309572.626   157869002.080          47.000                                                  
C10  39108384.054   203647674.100          43.000    39108394.454   157473317.661          46.000                                                                                                    39108388.861   165480434.816          40.000                                                  
C14  24181763.201   125920852.499          46.000                                                    24181783.286    97370006.143          47.000    24181783.983    94894495.167          44.000    24181754.892   102321019.713          47.000    24181759.145   127076084.355          41.000  
C21  22917499.128   119337559.534          50.000                                                    22917495.822    92279409.852          51.000    22917497.412    89933324.005          49.000    22917493.856    96971570.872          51.000    22917494.982   120432397.620          47.000  
C22  22623722.919   117807748.540          51.000                                                    22623717.112    91096443.692          52.000    22623718.381    88780434.204          49.000    22623716.379    95728460.953          51.000    22623718.220   118888553.056          47.000  
C34  23170535.053   120655060.688          49.000                                                    23170533.910    93298148.356          48.000    23170535.857    90926161.746          45.000    23170534.303    98042121.125          47.000    23170530.050   121761988.059          45.000  
C35  24858595.368   129445046.716          44.000                                                    24858608.072   100095069.794          43.000    24858611.718    97550273.483          42.000    24858605.249   105184661.622          43.000    24858591.418   130632615.960          38.000  
> 2026 07 01 07 03 15.0000000  0 14                     
C01  38083892.713   198312713.239          46.000                                                    38083881.134   153347934.916          49.000                                                    38083893.267   161145301.288          45.000                                                  
C02  36975384.157   192540438.472          49.000                                                    36975370.469   148884455.290          51.000                                                    36975368.361   156454857.441          49.000                                                  
C03  36651628.767   190854573.700          48.000                                                    36651619.332   147580840.207          52.000                                                    36651617.706   155084957.307          50.000                                                  
C04  39523183.992   205807522.447          43.000                                                    39523176.916   159143432.888          37.000                                                    39523174.110   167235455.455          42.000                                                  
C06  37012454.088   192733526.824          48.000                                                    37012451.086   149033778.856          50.000    37012452.480   145244780.826          48.000    37012451.211   156611768.196          49.000    37012450.425   194501724.929          45.000  
C07  38183077.191   198829451.829          44.000                                                    38183078.817   153747583.285          47.000    38183081.104   149838751.102          45.000    38183078.227   161565247.184          46.000    38183074.082   200653574.170          42.000  
C08                                                                                                                                                  39594934.409   155378825.934          26.000    39594927.261                1         26.000                                                  
C09  37309577.754   194280750.369          47.000    37309578.290   150230198.236          49.000                                                                                                    37309577.754   157869023.796          47.000                                                  
C10  39103650.085   203623027.604          43.000    39103661.057   157454259.604          45.000                                                                                                    39103655.571   165460407.644          41.000                                                  
C14  24177484.267   125898571.944          46.000                                                    24177504.388    97352777.494          47.000    24177505.317    94877704.543          45.000    24177475.994   102302915.017          47.000    24177480.157   127053599.408          42.000  
C21  22915807.271   119328750.446          51.000                                                    22915804.126    92272598.151          51.000    22915805.430    89926685.491          49.000    22915801.999    96964412.800          51.000    22915802.946   120423507.726          47.000  
C22  22627932.093   117829666.840          51.000                                                    22627926.303    91113392.300          52.000    22627927.572    88796951.920          49.000    22627925.553    95746271.357          51.000    22627927.465   118910672.441          47.000  
C34  23166174.404   120632353.740          48.000                                                    23166173.350    93280589.926          48.000    23166175.119    90909049.714          45.000    23166173.761    98023669.881          47.000    23166169.454   121739072.796          45.000  
C35  24867839.388   129493180.519          44.000                                                    24867851.897   100132289.549          43.000    24867855.506    97586546.932          42.000    24867848.930   105223774.001          44.000    24867835.582   130681191.361          40.000  
> 2026 07 01 07 03 30.0000000  0 14                     
C01  38083935.563   198312936.375          47.000                                                    38083923.984   153348107.471          50.000                                                    38083936.117   161145482.610          46.000                                                  
C02  36975287.110   192539932.918          49.000                                                    36975273.387   148884064.372          51.000                                                    36975271.260   156454446.644          49.000                                                  
C03  36651584.934   190854345.437          49.000                                                    36651575.517   147580663.702          52.000                                                    36651573.873   155084771.820          50.000                                                  
C04  39523226.270   205807742.559          43.000                                                    39523219.194   159143603.077          38.000                                                    39523216.389   167235634.305          42.000                                                  
C06  37012396.175   192733225.419          49.000                                                    37012393.191   149033545.800          50.000    37012394.584   145244553.697          47.000    37012393.316   156611523.279          49.000    37012392.136   194501420.744          45.000  
C07  38178156.652   198803827.897          45.000                                                    38178157.849   153727769.314          48.000    38178160.208   149819440.887          45.000    38178157.134   161544425.692          47.000    38178152.971   200627715.150          42.000  
C08                                                                                                                                                  39599762.262   155397771.879          25.000    39599755.203                1         23.000                                                  
C09  37309578.755   194280755.501          47.000    37309579.434   150230202.220          49.000                                                                                                    37309578.683   157869027.969          47.000                                                  
C10  39098917.635   203598383.894          43.000    39098928.178   157435203.720          45.000                                                                                                    39098922.889   165440382.776          41.000                                                  
C14  24173213.589   125876333.219          45.000                                                    24173233.584    97335581.180          47.000    24173234.620    94860945.433          44.000    24173205.190   102284844.296          46.000    24173209.461   127031156.632          42.000  
C21  22914124.563   119319987.917          50.000                                                    22914121.346    92265822.451          51.000    22914122.615    89920082.061          49.000    22914119.220    96957292.565          51.000    22914120.113   120414664.812          47.000  
C22  22632144.626   117851602.089          51.000                                                    22632138.747    91130354.024          52.000    22632140.051    88813482.414          49.000    22632137.978    95764095.542          51.000    22632140.015   118932808.917          47.000  
C34  23161833.786   120609752.256          48.000                                                    23161833.054    93263113.050          49.000    23161834.429    90892017.152          45.000    23161833.715    98005304.348          47.000    23161829.319   121716263.965          45.000  
C35  24877087.984   129541339.605          44.000                                                    24877100.581   100169528.884          44.000    24877104.227    97622839.451          42.000    24877097.526   105262906.937          44.000    24877084.088   130729792.324          40.000  
> 2026 07 01 07 03 45.0000000  0 14                     
C01  38083978.413   198313159.581          46.000                                                    38083966.834   153348280.081          49.000                                                    38083978.967   161145664.000          46.000                                                  
C02  36975190.224   192539428.309          49.000                                                    36975176.483   148883674.179          51.000                                                    36975174.357   156454036.613          49.000                                                  
C03  36651541.263   190854118.005          49.000                                                    36651531.846   147580487.835          52.000                                                    36651530.184   155084587.018          50.000                                                  
C04  39523268.763   205807963.553          43.000                                                    39523261.579   159143773.957          37.000                                                    39523258.845   167235813.874          42.000                                                  
C06  37012334.616   192732904.826          48.000                                                    37012331.560   149033297.897          50.000    37012333.008   145244312.105          47.000    37012331.739   156611262.773          49.000    37012330.506   194501097.209          45.000  
C07  38173238.561   198778218.513          45.000                                                    38173239.865   153707966.576          48.000    38173242.170   149800141.624          45.000    38173239.025   161523616.029          47.000    38173235.040   200601870.802          42.000  
C08                                                                                                                                                  39604589.650   155416715.828          25.000    39604582.627                1         22.000                                                  
C09  37309575.556   194280738.767          47.000    37309576.199   150230189.290          49.000                                                                                                    37309575.413   157869014.381          47.000                                                  
C10  39094185.614   203573742.844          42.000    39094195.782   157416149.872          45.000                                                                                                    39094190.707   165420360.041          41.000                                                  
C14  24168950.808   125854135.982          46.000                                                    24168970.750    97318416.940          47.000    24168971.786    94844217.610          45.000    24168942.320   102266807.270          46.000    24168946.680   127008755.745          42.000  
C21  22912450.646   119311271.566          50.000                                                    22912447.340    92259082.447          51.000    22912448.681    89913513.413          49.000    22912445.285    96950209.844          51.000    22912446.161   120405868.477          48.000  
C22  22636360.214   117873553.907          50.000                                                    22636354.353    91147328.571          52.000    22636355.675    88830025.406          49.000    22636353.603    95781933.201          51.000    22636355.711   118954962.145          47.000  
C34  23157513.557   120587256.153          48.000                                                    23157512.967    93245717.647          49.000    23157514.307    90875064.021          45.000    23157513.593    97987024.440          48.000    23157509.268   121693561.473          45.000  
C35  24886341.261   129589523.469          43.000                                                    24886353.983   100206787.350          44.000    24886357.629    97659150.625          42.000    24886350.856   105302059.992          44.000    24886337.347   130778418.206          40.000  
> 2026 07 01 07 04 00.0000000  0 14                     
C01  38084021.245   198313382.689          47.000                                                    38084009.648   153348452.605          49.000                                                    38084021.781   161145845.297          45.000                                                  
C02  36975093.606   192538924.465          49.000                                                    36975079.722   148883284.575          51.000                                                    36975077.560   156453627.198          49.000                                                  
C03  36651497.751   190853891.243          48.000                                                    36651488.317   147580312.482          52.000                                                    36651486.637   155084402.752          50.000                                                  
C04  39523311.344   205808185.259          43.000                                                    39523304.161   159143945.362          38.000                                                    39523301.427   167235994.004          42.000                                                  
C06  37012269.287   192732564.887          48.000                                                    37012266.267   149033035.032          50.000    37012267.750   145244055.921          48.000    37012266.446   156610986.552          49.000    37012265.177   194500754.148          45.000  
C07  38168323.364   198752623.583          45.000                                                    38168324.633   153688175.020          48.000    38168326.902   149780853.250          45.000    38168323.704   161502818.102          46.000    38168319.755   200576041.054          42.000  
C08                                                                                                                                                  39609416.877   155435859.9431         25.000                                                                                                  
C09  37309568.087   194280700.050          47.000    37309568.784   150230159.353          49.000                                                                                                    37309567.926   157868982.920          47.000                                                  
C10  39089454.165   203549104.324          42.000    39089462.921   157397097.994          45.000                                                                                                    39089458.632   165400339.370          40.000                                                  
C14  24164696.015   125831980.004          46.000                                                    24164715.403    97301284.618          46.000    24164716.868    94827520.848          45.000    24164687.081   102248803.775          46.000    24164691.816   126986396.484          42.000  
C21  22910785.646   119302601.080          50.000                                                    22910782.162    92252377.915          51.000    22910783.359    89906979.346          49.000    22910780.035    96943164.397          51.000    22910780.768   120397118.451          48.000  
C22  22640579.037   117895522.008          50.000                                                    22640573.069    91164315.700          52.000    22640574.409    88846580.655          49.000    22640572.336    95799784.090          51.000    22640574.534   118977131.785          47.000  
C34  23153213.644   120564865.436          47.000                                                    23153213.162    93228403.758          49.000    23153214.377    90858190.298          45.000    23153213.627    97968830.149          47.000    23153209.463   121670965.334          45.000  
C35  24895599.970   129637731.647          43.000                                                    24895612.764   100244064.641          44.000    24895616.445    97695480.118          42.000    24895609.405   105341232.816          44.000    24895595.127   130827068.714          39.000  
> 2026 07 01 07 04 15.0000000  0 14                     
C01  38084064.184   198313606.079          47.000                                                    38084052.534   153348625.357          49.000                                                    38084064.685   161146026.832          45.000                                                  
C02  36974997.096   192538421.743          49.000                                                    36974983.176   148882895.856          51.000                                                    36974981.014   156453218.710          49.000                                                  
C03  36651454.419   190853665.512          49.000                                                    36651444.966   147580137.935          52.000                                                    36651443.287   155084219.325          50.000                                                  
C04  39523354.159   205808408.041          43.000                                                    39523346.957   159144117.652          38.000                                                    39523344.206   167236175.040          42.000                                                  
C06  37012200.330   192732205.978          48.000                                                    37012197.346   149032757.519          50.000    37012198.829   145243785.457          48.000    37012197.507   156610694.918          49.000    37012196.292   194500391.961          45.000  
C07  38163411.223   198727043.559          46.000                                                    38163412.331   153668395.001          48.000    38163414.386   149761576.124          45.000    38163410.973   161482032.295          46.000    38163407.149   200550226.353          42.000  
C08  39614250.162                1         25.000                                                                                                    39614244.015   155454802.0641         25.000                                                                                                  
C09  37309556.508   194280639.574          47.000    37309557.205   150230112.590          49.000                                                                                                    37309556.275   157868933.783          47.000                                                  
C10  39084722.912   203524468.816          42.000    39084731.811   157378048.423          45.000                                                                                                    39084727.558   165380321.132          40.000                                                  
C14  24160449.084   125809865.578          47.000                                                    24160468.472    97284184.424          47.000    24160469.973    94810855.416          45.000    24160440.168   102230834.061          46.000    24160444.867   126964079.182          42.000  
C21  22909129.402   119293976.728          50.000                                                    22909125.900    92245709.062          51.000    22909127.115    89900480.047          49.000    22909123.881    96936156.442          50.000    22909124.596   120388414.991          48.000  
C22  22644801.022   117917506.611          50.000                                                    22644794.893    91181315.590          52.000    22644796.323    88863148.349          49.000    22644794.214    95817648.376          51.000    22644796.841   118999318.082          47.000  
C34  23148933.996   120542580.656          47.000                                                    23148933.620    93211171.763          49.000    23148934.764    90841396.403          45.000    23148934.031    97950721.955          47.000    23148929.975   121648476.099          45.000  
C35  24904862.664   129685964.274          43.000                                                    24904875.512   100281360.846          44.000    24904879.103    97731828.055          41.000    24904872.206   105380425.495          44.000    24904857.982   130875743.836          40.000  
> 2026 07 01 07 04 30.0000000  0 14                     
C01  38084107.159   198313829.587          47.000                                                    38084095.455   153348798.188          49.000                                                    38084107.624   161146208.444          45.000                                                  
C02  36974900.782   192537920.022          49.000                                                    36974886.826   148882507.900          51.000                                                    36974884.664   156452811.025          49.000                                                  
C03  36651411.230   190853440.683          49.000                                                    36651401.795   147579964.072          52.000                                                    36651400.115   155084036.629          50.000                                                  
C04  39523397.205   205808631.797          43.000                                                    39523389.932   159144290.634          37.000                                                    39523387.163   167236356.843          42.000                                                  
C06  37012127.585   192731827.997          49.000                                                    37012124.726   149032465.240          49.000    37012126.299   145243500.619          47.000    37012124.887   156610387.775          49.000    37012123.726   194500010.501          45.000  
C07  38158502.156   198701478.364          46.000                                                    38158502.764   153648626.447          47.000    38158504.801   149742310.165          45.000    38158501.441   161461258.551          46.000    38158497.224   200524426.638          42.000  
C08  39619076.817                1         24.000                                                                                                    39619070.331   155473742.264          25.000                                                                                                  
C09  37309540.729   194280557.424          47.000    37309541.551   150230049.086          49.000                                                                                                    37309540.318   157868867.041          47.000                                                  
C10  39079992.106   203499836.231          42.000    39080001.291   157359001.108          45.000                                                                                                    39079997.038   165360305.261          40.000                                                  
C14  24156210.177   125787792.448          47.000                                                    24156229.600    97267116.177          47.000    24156231.030    94794221.114          44.000    24156201.242   102212897.906          46.000    24156205.799   126941803.567          43.000  
C21  22907481.950   119285398.267          50.000                                                    22907478.412    92239075.676          51.000    22907479.716    89894015.309          48.000    22907476.500    96929185.759          51.000    22907477.286   120379757.814          48.000  
C22  22649025.956   117939507.430          51.000                                                    22649019.899    91198328.026          51.000    22649021.364    88879728.258          49.000    22649019.202    95835525.846          51.000    22649022.025   119021520.752          47.000  
C34  23144674.449   120520401.805          48.000                                                    23144674.610    93194021.678          48.000    23144675.557    90824682.348          46.000    23144674.664    97932699.837          47.000    23144670.983   121626093.755          45.000  
C35  24914130.093   129734220.919          44.000                                                    24914142.852   100318675.599          44.000    24914146.390    97768194.114          41.000    24914139.599   105419637.712          44.000    24914125.251   130924443.244          40.000  
> 2026 07 01 07 04 45.0000000  0 14                     
C01  38084150.116   198314053.163          47.000                                                    38084138.394   153348971.078          49.000                                                    38084150.545   161146390.122          46.000                                                  
C02  36974804.629   192537419.228          49.000                                                    36974790.655   148882120.652          51.000                                                    36974788.493   156452404.089          49.000                                                  
C03  36651368.219   190853216.677          49.000                                                    36651358.766   147579790.858          52.000                                                    36651357.087   155083854.606          50.000                                                  
C04  39523440.323   205808856.413          43.000                                                    39523433.086   159144464.324          37.000                                                    39523430.299   167236539.351          42.000                                                  
C06  37012051.303   192731430.882          48.000                                                    37012048.479   149032158.170          49.000    37012050.052   145243201.355          48.000    37012048.622   156610065.094          49.000    37012047.425   194499609.737          44.000  
C07  38153595.876   198675928.025          46.000                                                    38153596.055   153628869.370          47.000    38153598.056   149723055.401          45.000    38153594.768   161440496.857          47.000    38153590.265   200498641.892          41.000  
C08                                                                                                                                                  39623895.414   155492678.389          24.000                                                                                                  
C09  37309520.680   194280453.369          47.000    37309521.610   150229968.622          49.000                                                                                                    37309520.341   157868782.490          47.000                                                  
C10  39075261.980   203475206.573          41.000    39075271.432   157339956.065          45.000                                                                                                    39075267.108   165340291.791          41.000                                                  
C14  24151979.203   125765760.542          47.000                                                    24151998.627    97250079.783          46.000    24152000.003    94777617.886          45.000    24151970.197   102194995.245          46.000    24151974.790   126919569.533          42.000  
C21  22905843.110   119276865.486          50.000                                                    22905839.483    92232477.621          50.000    22905841.055    89887585.001          49.000    22905837.964    96922252.197          51.000    22905838.965   120371146.751          48.000  
C22  22653254.071   117961524.306          51.000                                                    22653247.995    91215352.862          51.000    22653249.461    88896320.264          49.000    22653247.299    95853416.354          51.000    22653249.943   119043739.603          46.000  
C34  23140435.524   120498329.001          48.000                                                    23140435.792    93176953.622          48.000    23140436.757    90808048.223          46.000    23140435.792    97914763.897          47.000    23140432.075   121603818.460          44.000  
C35  24923402.722   129782501.268          44.000                                                    24923415.409   100356008.670          45.000    24923418.536    97804577.996          41.000    24923412.282   105458869.167          44.000    24923397.290   130973166.508          39.000  
> 2026 07 01 07 05 00.0000000  0 14                     
C01  38084193.217   198314276.776          47.000                                                    38084181.334   153349143.999          49.000                                                    38084193.502   161146571.833          45.000                                                  
C02  36974708.726   192536919.347          49.000                                                    36974694.663   148881734.129          51.000                                                    36974692.465   156451997.902          49.000                                                  
C03  36651325.351   190852993.486          49.000                                                    36651315.916   147579618.279          52.000                                                    36651314.237   155083673.246          50.000                                                  
C04  39523483.602   205809081.885          43.000                                                    39523476.436   159144638.637          37.000                                                    39523473.559   167236722.567          42.000                                                  
C06  37011971.374   192731014.626          49.000                                                    37011968.533   149031836.308          49.000    37011970.141   145242887.675          48.000    37011968.694   156609726.862          49.000    37011967.390   194499189.662          44.000  
C07  38148692.205   198650392.579          45.000                                                    38148692.205   153609123.822          47.000    38148694.189   149703811.866          45.000    38148690.919   161419747.282          46.000    38148686.416   200472872.186          41.000  
C08                                                                                                                                                  39628720.747                1         24.000                                                                                                  
C09  37309496.504   194280327.474          47.000    37309497.415   150229871.290          49.000                                                                                                    37309496.164   157868680.200          47.000                                                  
C10  39070531.424   203450579.908          41.000    39070541.984   157320913.343          46.000                                                                                                    39070537.499   165320280.743          41.000                                                  
C14  24147756.110   125743769.752          47.000                                                    24147775.426    97233075.197          46.000    24147776.820    94761045.622          45.000    24147746.693   102177125.991          45.000    24147751.142   126897376.969          42.000  
C21  22904212.991   119268378.259          51.000                                                    22904209.631    92225914.803          51.000    22904211.240    89881189.043          49.000    22904208.077    96915355.663          51.000    22904209.381   120362581.660          48.000  
C22  22657485.152   117983557.059          51.000                                                    22657479.130    91232389.991          51.000    22657480.613    88912924.248          49.000    22657478.397    95871319.780          51.000    22657480.935   119065974.500          46.000  
C34  23136217.059   120476362.400          48.000                                                    23136217.273    93159967.677          48.000    23136218.381    90791494.124          46.000    23136217.291    97896914.258          46.000    23136213.574   121581650.337          44.000  
C35  24932679.390   129830804.990          44.000                                                    24932691.862   100393359.850          45.000    24932694.882    97840979.524          40.000    24932688.664   105498119.635          44.000    24932673.547   131021913.401          40.000  
> 2026 07 01 07 05 15.0000000  0 14                     
C01  38084236.245   198314500.567          47.000                                                    38084224.326   153349317.050          49.000                                                    38084236.477   161146753.689          45.000                                                  
C02  36974612.930   192536420.507          49.000                                                    36974598.885   148881348.407          51.000                                                    36974596.669   156451592.567          49.000                                                  
C03  36651282.662   190852771.242          49.000                                                    36651273.245   147579446.417          52.000                                                    36651271.547   155083492.655          50.000                                                  
C04  39523527.113   205809308.365          43.000                                                    39523520.073   159144813.766          38.000                                                    39523517.017   167236906.566          42.000                                                  
C06  37011887.837   192730579.397          49.000                                                    37011884.978   149031499.766          50.000    37011886.657   145242559.691          48.000    37011885.138   156609373.209          49.000    37011883.727   194498750.454          45.000  
C07  38143792.073   198624872.271          45.000                                                    38143791.143   153589389.955          48.000    38143793.038   149684579.718          45.000    38143789.910   161399009.980          47.000    38143785.014   200447117.732          42.000  
C08                                                                                                                                                  39633544.722                1         23.000                                                                                                  
C09  37309468.002   194280179.672          47.000    37309469.128   150229757.018          50.000                                                                                                    37309467.806   157868560.108          47.000                                                  
C10  39065802.458   203425956.445          42.000    39065813.358   157301873.077          46.000                                                                                                    39065808.784   165300272.299          41.000                                                  
C14  24143540.932   125721820.141          46.000                                                    24143560.195    97216102.438          47.000    24143561.607    94744504.404          45.000    24143531.426   102159290.188          46.000    24143535.715   126875225.991          42.000  
C21  22902591.984   119259936.597          51.000                                                    22902588.500    92219387.211          51.000    22902590.144    89874827.406          49.000    22902586.963    96908496.154          51.000    22902588.339   120354062.554          48.000  
C22  22661719.288   118005605.676          50.000                                                    22661713.338    91249439.385          52.000    22661714.803    88929540.182          49.000    22661712.623    95889236.092          51.000    22661715.214   119088225.401          47.000  
C34  23132018.982   120454502.311          48.000                                                    23132019.089    93143064.079          48.000    23132020.679    90775020.296          46.000    23132019.178    97879151.161          47.000    23132015.426   121559589.697          45.000  
C35  24941960.292   129879132.023          42.000                                                    24941972.801   100430729.005          45.000    24941975.695    97877398.593          40.000    24941969.584   105537389.013          44.000    24941954.681   131070683.772          40.000  
> 2026 07 01 07 05 30.0000000  0 14                     
C01  38084279.256   198314724.501          46.000                                                    38084267.319   153349490.214          50.000                                                    38084279.488   161146935.653          45.000                                                  
C02  36974517.313   192535922.682          48.000                                                    36974503.285   148880963.466          51.000                                                    36974501.070   156451188.051          49.000                                                  
C03  36651240.134   190852549.888          48.000                                                    36651230.735   147579275.249          52.000                                                    36651229.037   155083312.787          50.000                                                  
C04  39523570.767   205809535.771          43.000                                                    39523563.780   159144989.623          38.000                                                    39523560.582   167237091.365          42.000                                                  
C06  37011800.672   192730125.150          48.000                                                    37011797.741   149031148.525          50.000    37011799.439   145242217.382          48.000    37011797.920   156609004.102          49.000    37011796.580   194498292.032          45.000  
C07  38138893.709   198599367.090          44.000                                                    38138893.083   153569667.805          48.000    38138895.031   149665358.985          45.000    38138891.850   161378284.987          47.000    38138887.347   200421378.535          42.000  
C08                                                                                                                                                  39638368.679                1         23.000                                                                                                  
C09  37309435.445   194280010.076          46.000    37309436.535   150229625.901          49.000                                                                                                    37309435.249   157868422.317          47.000                                                  
C10  39061074.208   203401336.220          42.000    39061085.322   157282835.326          45.000                                                                                                    39061080.712   165280266.499          41.000                                                  
C14  24139333.546   125699911.585          46.000                                                    24139352.862    97199161.420          47.000    24139354.310    94727994.097          45.000    24139324.093   102141487.756          46.000    24139328.221   126853116.413          41.000  
C21  22900979.698   119251540.345          51.000                                                    22900976.124    92212894.734          51.000    22900977.733    89868499.995          49.000    22900974.534    96901673.535          51.000    22900975.856   120345589.270          47.000  
C22  22665956.552   118027670.048          50.000                                                    22665950.601    91266500.959          52.000    22665952.013    88946167.986          49.000    22665949.833    95907165.195          51.000    22665952.495   119110492.195          47.000  
C34  23127841.580   120432748.841          48.000                                                    23127841.562    93126242.956          48.000    23127843.206    90758626.829          46.000    23127841.508    97861474.709          46.000    23127837.881   121537636.654          44.000  
C35  24951246.323   129927482.005          42.000                                                    24951258.992   100468115.929          45.000    24951261.369    97913834.989          40.000    24951255.436   105576677.060          43.000    24951240.230   131119477.388          38.000  
> 2026 07 01 07 05 45.0000000  0 13                     
C01  38084322.392   198314948.597          47.000                                                    38084310.384   153349663.509          49.000                                                    38084322.535   161147117.759          45.000                                                  
C02  36974421.856   192535425.889          49.000                                                    36974407.901   148880579.324          51.000                                                    36974405.649   156450784.368          49.000                                                  
C03  36651197.784   190852329.484          49.000                                                    36651188.439   147579104.822          52.000                                                    36651186.723   155083133.686          50.000                                                  
C04  39523614.618   205809764.188          43.000                                                    39523607.667   159145166.230          38.000                                                    39523604.432   167237276.966          42.000                                                  
C06  37011709.843   192729651.972          49.000                                                    37011706.877   149030782.642          50.000    37011708.575   145241860.795          48.000    37011707.056   156608619.610          49.000    37011705.733   194497814.509          45.000  
C07  38133998.222   198573877.180          45.000                                                    38133997.990   153549957.446          48.000    38133999.955   149646149.746          45.000    38133996.757   161357572.392          47.000    38133992.593   200395654.778          42.000  
C09  37309398.635   194279818.637          47.000    37309399.653   150229477.875          49.000                                                                                                    37309398.492   157868266.768          47.000                                                  
C10  39056346.046   203376719.372          43.000    39056357.965   157263800.197          45.000                                                                                                    39056353.158   165260263.430          41.000                                                  
C14  24135134.040   125678044.032          47.000                                                    24135153.356    97182252.117          47.000    24135154.911    94711514.700          44.000    24135124.337   102123718.644          46.000    24135128.000   126831048.261          40.000  
C21  22899376.096   119243189.438          50.000                                                    22899372.380    92206437.312          51.000    22899374.131    89862206.749          49.000    22899370.807    96894887.762          51.000    22899372.290   120337161.736          48.000  
C22  22670196.853   118049750.034          51.000                                                    22670190.849    91283574.603          52.000    22670192.225    88962807.556          49.000    22670190.081    95925106.999          51.000    22670192.797   119132774.759          47.000  
C34  23123684.691   120411102.226          49.000                                                    23123684.494    93109504.418          48.000    23123686.210    90742313.854          46.000    23123684.387    97843885.051          47.000    23123680.831   121515791.449          44.000  
C35  24960535.678   129975854.754          43.000                                                    24960548.615   100505520.468          45.000    24960551.099    97950288.510          41.000    24960544.987   105615983.609          43.000    24960530.692   131168293.912          38.000  
> 2026 07 01 07 06 00.0000000  0 13                     
C01  38084365.420   198315172.661          47.000                                                    38084353.394   153349836.765          49.000                                                    38084365.563   161147299.827          45.000                                                  
C02  36974326.614   192534929.911          49.000                                                    36974312.659   148880195.804          51.000                                                    36974310.389   156450381.355          49.000                                                  
C03  36651155.578   190852109.796          49.000                                                    36651146.250   147578934.938          52.000                                                    36651144.534   155082955.169          50.000                                                  
C04  39523658.593   205809993.367          43.000                                                    39523651.678   159145343.430          38.000                                                    39523648.461   167237463.183          42.000                                                  
C06  37011615.549   192729159.628          49.000                                                    37011612.332   149030401.933          50.000    37011614.083   145241489.774          47.000    37011612.564   156608219.550          49.000    37011611.260   194497317.657          45.000  
C07  38129104.450   198548402.362          45.000                                                    38129105.666   153530258.773          48.000    38129107.738   149626951.890          45.000    38129104.433   161336872.068          47.000    38129101.877   200369946.243          42.000  
C09  37309357.500   194279605.192          47.000    37309358.430   150229312.835          49.000                                                                                                    37309357.518   157868093.334          47.000                                                  
C10  39051619.493   203352105.742          43.000    39051630.947   157244767.535          45.000                                                                                                    39051626.301   165240262.989          41.000                                                  
C14  24130942.431   125656217.213          46.000                                                    24130961.801    97165374.326          47.000    24130963.284    94695066.008          44.000    24130932.782   102105982.634          47.000    24130936.409   126809021.196          41.000  
C21  22897780.875   119234883.490          51.000                                                    22897777.266    92200014.669          51.000    22897779.017    89855947.400          48.000    22897775.747    96888138.532          51.000    22897777.194   120328779.605          48.000  
C22  22674440.121   118071845.313          51.000                                                    22674434.063    91300660.064          52.000    22674435.296    88979458.646          48.000    22674433.259    95943061.216          51.000    22674435.957   119155072.738          47.000  
C34  23119548.566   120389562.399          49.000                                                    23119547.762    93092848.469          48.000    23119549.745    90726081.374          46.000    23119547.690    97826382.194          47.000    23119544.117   121494054.008          44.000  
C35  24969829.517   130024249.731          43.000                                                    24969842.472   100542942.190          44.000    24969845.135    97986758.791          41.000    24969838.791   105655308.225          42.000    24969824.228   131217132.908          38.000  
> 2026 07 01 07 06 15.0000000  0 13                     
C01  38084408.449   198315396.760          47.000                                                    38084396.423   153350010.055          49.000                                                    38084408.592   161147481.923          46.000                                                  
C02  36974231.551   192534434.860          49.000                                                    36974217.578   148879813.015          51.000                                                    36974215.326   156449979.092          49.000                                                  
C03  36651113.532   190851890.928          49.000                                                    36651104.222   147578765.696          52.000                                                    36651102.507   155082777.316          50.000                                                  
C04  39523702.712   205810223.398          43.000                                                    39523695.922   159145521.304          37.000                                                    39523692.616   167237650.097          42.000                                                  
C06  37011517.376   192728648.244          48.000                                                    37011514.106   149030006.509          50.000    37011515.875   145241104.408          48.000    37011514.374   156607804.011          49.000    37011513.034   194496801.584          45.000  
C07  38124215.093   198522942.832          45.000                                                    38124216.415   153510571.915          48.000    38124218.488   149607765.561          45.000    38124215.182   161316184.176          47.000    38124212.734   200344253.134          43.000  
C09  37309312.292   194279369.768          47.000    37309313.275   150229130.791          49.000                                                                                                    37309312.292   157867902.034          47.000                                                  
C10  39046893.619   203327495.520          43.000    39046904.591   157225737.503          45.000                                                                                                    39046900.088   165220265.286          41.000                                                  
C14  24126758.543   125634431.171          46.000                                                    24126778.020    97148528.044          47.000    24126779.449    94678648.016          44.000    24126749.072   102088279.730          47.000    24126752.664   126787035.249          42.000  
C21  22896194.374   119226622.516          50.000                                                    22896190.693    92193626.794          51.000    22896192.533    89849721.929          49.000    22896189.299    96881425.841          51.000    22896190.854   120320442.843          48.000  
C22  22678686.229   118093955.831          50.000                                                    22678680.136    91317757.317          52.000    22678681.369    88996121.221          49.000    22678679.368    95961027.816          51.000    22678681.923   119177386.108          47.000  
C34  23115432.580   120368129.590          48.000                                                    23115431.847    93076275.279          48.000    23115433.812    90709929.547          46.000    23115431.722    97808966.297          47.000    23115428.077   121472424.565          45.000  
C35  24979127.413   130072666.800          43.000                                                    24979140.493   100580381.011          43.000    24979143.335    98023245.742          41.000    24979136.812   105694650.800          42.000    24979122.178   131265994.177          39.000  
> 2026 07 01 07 06 30.0000000  0 14                     
C01  38084451.495   198315621.089          47.000                                                    38084439.487   153350183.520          49.000                                                    38084451.656   161147664.211          45.000                                                  
C02  36974136.667   192533940.902          49.000                                                    36974122.693   148879431.062          51.000                                                    36974120.459   156449577.711          49.000                                                  
C03  36651071.665   190851673.040          49.000                                                    36651062.408   147578597.213          52.000                                                    36651060.675   155082600.267          50.000                                                  
C04  39523747.098   205810454.478          43.000                                                    39523740.308   159145699.988          38.000                                                    39523737.002   167237837.858          42.000                                                  
C06  37011415.594   192728118.023          48.000                                                    37011412.288   149029596.514          50.000    37011414.040   145240704.838          48.000    37011412.556   156607373.170          49.000    37011411.252   194496266.488          45.000  
C07  38119328.862   198497498.827          46.000                                                    38119330.149   153490897.057          48.000    38119332.221   149588590.920          46.000    38119328.916   161295508.885          47.000    38119326.378   200318575.698          43.000  
C09  37309262.759   194279112.453          47.000    37309263.795   150228931.828          49.000                                                                                                    37309262.866   157867692.948          47.000                                                  
C10  39042169.103   203302888.933          43.000    39042178.359   157206710.291          45.000                                                                                                    39042174.303   165200270.563          41.000                                                  
C14  24122582.320   125612685.962          46.000                                                    24122602.261    97131713.352          48.000    24122603.351    94662260.832          44.000    24122573.385   102070610.047          47.000    24122576.727   126765090.581          41.000  
C21  22894616.253   119218406.541          50.000                                                    22894612.894    92187273.726          51.000    22894614.520    89843530.390          49.000    22894611.447    96874749.735          51.000    22894613.180   120312151.512          48.000  
C22  22682935.090   118116081.646          51.000                                                    22682929.175    91334866.415          52.000    22682930.390    89012795.339          49.000    22682928.407    95979006.870          51.000    22682930.944   119199714.927          47.000  
C34  23111337.232   120346804.190          49.000                                                    23111336.553    93059785.143          49.000    23111338.411    90693858.648          46.000    23111336.356    97791637.663          47.000    23111332.800   121450903.514          45.000  
C35  24988429.455   130121105.859          43.000                                                    24988442.982   100617836.840          43.000    24988446.520    98059749.254          42.000    24988439.390   105734011.250          43.000    24988424.434   131314877.642          40.000  
C39  25864637.764   134683956.693          41.000                                                    25864646.895   104146178.733          40.000    25864647.110   101498394.631          37.000    25864642.589   109441747.056          40.000                                                  
> 2026 07 01 07 06 45.0000000  0 14                     
C01  38084494.560   198315845.278          47.000                                                    38084482.534   153350356.880          49.000                                                    38084494.721   161147846.395          45.000                                                  
C02  36974041.943   192533447.686          49.000                                                    36974027.952   148879049.685          51.000                                                    36974025.736   156449176.949          49.000                                                  
C03  36651029.958   190851455.804          49.000                                                    36651020.702   147578429.232          52.000                                                    36651018.951   155082423.742          50.000                                                  
C04  39523791.592   205810686.248          43.000                                                    39523784.802   159145879.194          37.000                                                    39523781.550   167238026.187          42.000                                                  
C06  37011310.060   192727568.600          48.000                                                    37011306.772   149029171.667          50.000    37011308.541   145240290.792          48.000    37011307.058   156606926.723          49.000    37011305.735   194495712.035          45.000  
C07  38114445.365   198472070.068          45.000                                                    38114446.741   153471234.001          48.000    38114448.814   149569427.777          45.000    38114445.544   161274846.001          47.000    38114442.792   200292913.656          42.000  
C09  37309209.009   194278832.941          47.000    37309210.027   150228715.692          49.000                                                                                                    37309209.188   157867465.830          47.000                                                  
C10  39037444.033   203278285.731          42.000    39037453.414   157187685.723          45.000                                                                                                    39037449.429   165180278.575          41.000                                                  
C14  24118413.977   125590981.221          46.000                                                    24118434.115    97114929.916          48.000    24118435.134    94645904.096          44.000    24118405.132   102052973.207          46.000    24118408.545   126743186.667          42.000  
C21  22893047.031   119210235.133          50.000                                                    22893043.672    92180955.110          51.000    22893045.191    89837372.424          49.000    22893042.153    96868109.820          51.000    22893043.940   120303905.119          48.000  
C22  22687186.917   118138222.324          51.000                                                    22687181.020    91351986.982          52.000    22687182.217    89029480.636          49.000    22687180.323    95996997.967          51.000    22687182.628   119222058.715          47.000  
C34  23107262.487   120325585.968          48.000                                                    23107261.862    93043377.895          49.000    23107263.666    90677868.524          46.000    23107261.736    97774396.146          48.000    23107258.002   121429490.632          45.000  
C35  24997735.570   130169566.292          43.000                                                    24997749.419   100655309.210          43.000    24997752.993    98096268.876          42.000    24997745.863   105773389.073          43.000    24997731.210   131363782.684          40.000  
C39  25857924.873   134648991.905          43.000                                                    25857932.824   104119142.004          42.000    25857931.859   101472045.305          39.000    25857928.018   109413335.498          41.000    25857919.851   135884312.006          40.000  
> 2026 07 01 07 07 00.0000000  0 14                     
C01  38084537.606   198316069.572          47.000                                                    38084525.598   153350530.320          49.000                                                    38084537.785   161148028.648          45.000                                                  
C02  36973947.398   192532955.429          49.000                                                    36973933.407   148878669.050          51.000                                                    36973931.191   156448776.962          49.000                                                  
C03  36650988.413   190851239.436          48.000                                                    36650979.139   147578261.919          52.000                                                    36650977.406   155082247.928          50.000                                                  
C04  39523836.265   205810918.922          43.000                                                    39523829.439   159146059.107          37.000                                                    39523826.348   167238215.256          42.000                                                  
C06  37011200.934   192727000.247          48.000                                                    37011197.646   149028732.196          50.000    37011199.379   145239862.492          48.000    37011197.967   156606464.904          49.000    37011196.556   194495138.468          45.000  
C07  38109565.156   198446656.877          45.000                                                    38109566.371   153451582.977          48.000    38109568.426   149550276.358          45.000    38109565.192   161254195.758          47.000    38109561.994   200267267.310          42.000  
C09  37309151.095   194278531.538          47.000    37309152.096   150228482.633          49.000                                                                                                    37309151.292   157867220.914          47.000                                                  
C10  39032719.713   203253686.219          43.000    39032729.023   157168663.964          44.000                                                                                                    39032725.253   165160289.577          41.000                                                  
C14  24114253.550   125569317.054          46.000                                                    24114273.760    97098177.878          48.000    24114274.671    94629577.988          44.000    24114244.723   102035369.371          46.000    24114248.172   126721323.750          41.000  
C21  22891486.297   119202108.367          50.000                                                    22891483.009    92174671.014          51.000    22891484.475    89831248.101          49.000    22891481.401    96861506.198          51.000    22891483.278   120295703.808          48.000  
C22  22691441.692   118160377.892          50.000                                                    22691435.759    91369119.086          52.000    22691436.957    89046177.176          49.000    22691435.098    96015001.196          51.000    22691437.475   119244417.551          47.000  
C34  23103208.256   120304475.320          48.000                                                    23103207.916    93027053.825          48.000    23103209.417    90661959.471          46.000    23103207.898    97757242.036          48.000    23103203.663   121408186.290          44.000  
C35  25007046.082   130218048.051          43.000                                                    25007059.948   100692798.098          43.000    25007063.594    98132804.615          42.000    25007056.517   105812784.247          44.000    25007041.972   131412709.277          40.000  
C39  25851209.569   134614021.662          44.000                                                    25851217.395   104092101.048          42.000    25851216.305   101445691.858          40.000    25851212.410   109384919.517          43.000    25851206.156   135849020.927          41.000  
> 2026 07 01 07 07 15.0000000  0 14                     
C01  38084580.688   198316293.973          46.000                                                    38084568.698   153350703.844          49.000                                                    38084580.867   161148210.999          45.000                                                  
C02  36973853.050   192532464.167          49.000                                                    36973839.040   148878289.191          51.000                                                    36973836.842   156448377.776          49.000                                                  
C03  36650947.028   190851023.947          48.000                                                    36650937.754   147578095.296          52.000                                                    36650936.021   155082072.833          50.000                                                  
C04  39523881.134   205811152.538          43.000                                                    39523874.237   159146239.743          38.000                                                    39523871.252   167238405.079          42.000                                                  
C06  37011088.180   192726412.981          48.000                                                    37011084.892   149028278.094          50.000    37011086.590   145239419.938          48.000    37011085.196   156605987.715          49.000    37011083.820   194494545.821          45.000  
C07  38104687.878   198421259.329          45.000                                                    38104688.986   153431944.037          48.000    38104691.041   149531136.732          45.000    38104687.807   161233558.209          47.000    38104684.322   200241636.752          41.000  
C09  37309089.036   194278208.168          46.000    37309089.965   150228232.589          49.000                                                                                                    37309089.215   157866958.161          47.000                                                  
C10  39027996.198   203229090.469          42.000    39028005.472   157149645.130          44.000                                                                                                    39028001.809   165140303.631          41.000                                                  
C14  24110100.968   125547693.413          46.000                                                    24110121.106    97081457.184          48.000    24110122.000    94613282.401          44.000    24110092.105   102017798.453          47.000    24110095.589   126699501.733          41.000  
C21  22889934.194   119194026.146          51.000                                                    22889930.835    92168421.373          51.000    22889932.050    89825157.345          49.000    22889929.012    96854938.757          51.000    22889931.299   120287547.441          48.000  
C22  22695699.326   118182548.316          50.000                                                    22695693.358    91386262.662          52.000    22695694.555    89062884.898          49.000    22695692.679    96033016.481          51.000    22695694.984   119266791.374          46.000  
C34  23099174.771   120283472.424          47.000                                                    23099174.449    93010813.070          48.000    23099175.914    90646131.631          46.000    23099174.574    97740175.475          48.000    23099170.285   121386990.708          44.000  
C35  25016360.685   130266550.900          43.000                                                    25016374.802   100730303.297          43.000    25016378.840    98169356.237          42.000    25016371.907   105852196.558          44.000    25016357.969   131461657.094          39.000  
C39  25844492.549   134579046.218          43.000                                                    25844500.340   104065056.095          43.000    25844499.983   101419334.520          40.000    25844495.694   109356499.342          43.000    25844489.744   135813724.621          40.000  
> 2026 07 01 07 07 45.0000000  0 14                     
C01  38084666.871   198316742.959          47.000                                                    38084654.916   153351051.021          49.000                                                    38084667.085   161148575.828          46.000                                                  
C02  36973664.924   192531484.443          49.000                                                    36973650.808   148877531.610          51.000                                                    36973648.664   156447581.679          50.000                                                  
C03  36650864.759   190850595.464          48.000                                                    36650855.449   147577763.963          52.000                                                    36650853.716   155081724.650          50.000                                                  
C04  39523971.390   205811622.341          43.000                                                    39523964.279   159146603.004          37.000                                                    39523961.527   167238786.835          43.000                                                  
C06  37010851.880   192725181.680          48.000                                                    37010848.467   149027325.980          50.000    37010850.093   145238492.026          48.000    37010848.735   156604987.186          49.000    37010847.717   194493303.211          45.000  
C07  38094942.542   198370511.277          45.000                                                    38094943.131   153392702.547          48.000    38094945.240   149492892.922          45.000    38094941.916   161192321.360          47.000    38094937.270   200190423.112          42.000  
C09  37308952.285   194277495.360          46.000    37308952.999   150227681.401          49.000                                                                                                    37308952.463   157866378.948          47.000                                                  
C10  39018551.312   203179910.444          43.000    39018559.817   157111616.309          45.000                                                                                                    39018556.726   165100341.080          41.000                                                  
C14  24101818.997   125504567.284          46.000                                                    24101838.993    97048109.476          48.000    24101839.743    94580782.518          44.000    24101810.134   101982755.042          47.000    24101813.905   126655979.957          42.000  
C21  22886856.183   119177994.729          51.000                                                    22886852.181    92156024.927          51.000    22886853.342    89813076.079          49.000    22886850.287    96841911.974          51.000    22886852.431   120271368.929          48.000  
C22  22704223.047   118226932.891          50.000                                                    22704216.935    91420583.640          52.000    22704218.133    89096333.302          49.000    22704216.256    96069082.581          51.000    22704218.383   119311583.144          46.000  
C34  23091169.841   120241790.388          48.000                                                    23091169.645    92978581.913          48.000    23091171.146    90614719.911          46.000    23091170.324    97706305.441          48.000    23091165.428   121344926.285          45.000  
C35  25035002.454   130363618.684          42.000                                                    25035015.820   100805361.712          44.000    25035020.055    98242506.297          42.000    25035013.158   105931071.602          45.000    25034998.880   131559615.432          40.000  
C39  25831055.008   134509080.915          40.000                                                    25831062.674   104010954.986          42.000    25831064.854   101366608.960          40.000    25831059.136   109299647.194          41.000    25831051.899   135743117.317          36.000  
> 2026 07 01 07 08 00.0000000  0 14                     
C01  38084710.024   198316967.602          47.000                                                    38084698.052   153351224.734          49.000                                                    38084710.221   161148758.368          46.000                                                  
C02  36973571.148   192530996.045          49.000                                                    36973557.013   148877153.966          51.000                                                    36973554.869   156447184.825          50.000                                                  
C03  36650823.857   190850382.545          48.000                                                    36650814.565   147577599.323          52.000                                                    36650812.832   155081551.641          51.000                                                  
C04  39524016.796   205811858.650          43.000                                                    39524009.684   159146785.749          37.000                                                    39524007.003   167238978.845          43.000                                                  
C06  37010728.191   192724537.739          48.000                                                    37010724.885   149026828.054          50.000    37010726.422   145238006.765          48.000    37010725.064   156604463.936          50.000    37010724.045   194492653.363          45.000  
C07  38090074.144   198345161.027          45.000                                                    38090074.859   153373100.180          48.000    38090076.985   149473788.927          45.000    38090073.608   161171722.253          47.000    38090069.087   200164840.283          42.000  
C09  37308877.413   194277106.079          47.000    37308878.343   150227380.407          49.000                                                                                                    37308877.699   157866062.640          48.000                                                  
C10  39013830.334   203155326.386          43.000    39013838.678   157092606.520          44.000                                                                                                    39013835.516   165080364.643          41.000                                                  
C14  24097689.627   125483064.726          46.000                                                    24097709.587    97031482.413          47.000    24097710.301    94564578.175          44.000    24097680.746   101965282.509          47.000    24097684.642   126634280.119          42.000  
C21  22885329.758   119170045.382          52.000                                                    22885325.630    92149878.008          51.000    22885326.756    89807085.439          49.000    22885323.736    96835452.488          52.000    22885325.630   120263346.637          47.000  
C22  22708489.026   118249146.902          50.000                                                    22708482.897    91437760.916          51.000    22708484.112    89113073.870          49.000    22708482.218    96087133.288          51.000    22708484.237   119334000.944          46.000  
C34  23087198.755   120221111.648          48.000                                                    23087198.397    92962591.822          48.000    23087200.059    90599136.343          46.000    23087199.094    97689502.283          48.000    23087194.270   121324057.826          44.000  
C35  25044330.299   130412183.152          41.000                                                    25044342.646   100842914.571          44.000    25044347.113    98279104.377          41.000    25044340.180   105970533.997          45.000    25044325.403   131608625.448          39.000  
C39  25824334.558   134474091.559          39.000                                                    25824342.778   103983899.320          42.000    25824345.798   101340241.183          39.000    25824339.419   109271215.736          41.000    25824331.092   135707806.938          37.000  
> 2026 07 01 07 08 15.0000000  0 14                     
C01  38084753.214   198317192.480          47.000                                                    38084741.224   153351398.618          50.000                                                    38084753.410   161148941.100          46.000                                                  
C02  36973477.603   192530508.760          49.000                                                    36973463.433   148876777.171          51.000                                                    36973461.271   156446788.867          50.000                                                  
C03  36650783.133   190850170.621          48.000                                                    36650773.859   147577435.456          52.000                                                    36650772.126   155081379.437          50.000                                                  
C04  39524062.344   205812095.988          43.000                                                    39524055.268   159146969.260          38.000                                                    39524052.605   167239171.702          43.000                                                  
C06  37010600.856   192723875.102          48.000                                                    37010597.640   149026315.667          50.000    37010599.158   145237507.398          48.000    37010597.800   156603925.496          49.000    37010596.782   194491984.640          45.000  
C07  38085208.820   198319826.820          45.000                                                    38085209.678   153353510.235          48.000    38085211.840   149454697.045          45.000    38085208.391   161151136.187          47.000    38085204.031   200139273.660          43.000  
C09  37308798.522   194276694.894          47.000    37308799.415   150227062.450          49.000                                                                                                    37308798.700   157865728.521          47.000                                                  
C10  39009110.696   203130746.545          43.000    39009118.129   157073599.983          45.000                                                                                                    39009114.698   165060391.619          41.000                                                  
C14  24093567.922   125461602.513          46.000                                                    24093587.668    97014886.536          47.000    24093588.311    94548404.227          43.000    24093558.952   101947842.764          47.000    24093563.455   126612621.022          42.000  
C21  22883812.356   119162140.192          50.000                                                    22883807.531    92143765.247          51.000    22883808.639    89801128.092          49.000    22883805.655    96829028.899          51.000    22883806.781   120255368.919          48.000  
C22  22712757.703   118271375.339          50.000                                                    22712751.627    91454949.356          52.000    22712752.860    89129825.319          49.000    22712750.948    96105195.716          51.000    22712753.021   119356433.324          47.000  
C34  23083248.486   120200541.399          48.000                                                    23083248.039    92946685.622          48.000    23083249.737    90583634.549          45.000    23083248.789    97672787.295          48.000    23083243.983   121303298.863          44.000  
C35  25053660.001   130460767.759          41.000                                                    25053673.099   100880482.993          45.000    25053677.299    98315717.642          41.000    25053670.491   106010012.739          45.000    25053656.160   131657655.786          39.000  
C39  25817611.392   134439098.386          41.000                                                    25817620.523   103956840.662          43.000    25817626.509   101313870.481          39.000    25817617.825   109242781.136          42.000    25817607.264   135672492.767          39.000  
> 2026 07 01 07 08 30.0000000  0 14                     
C01  38084796.403   198317417.402          47.000                                                    38084784.413   153351572.541          50.000                                                    38084796.600   161149123.868          46.000                                                  
C02  36973384.184   192530022.398          49.000                                                    36973370.014   148876401.093          51.000                                                    36973367.870   156446393.665          50.000                                                  
C03  36650742.571   190849959.517          49.000                                                    36650733.315   147577272.213          52.000                                                    36650731.581   155081207.891          51.000                                                  
C04  39524108.071   205812334.195          43.000                                                    39524101.012   159147153.469          37.000                                                    39524098.350   167239365.251          43.000                                                  
C06  37010469.823   192723193.584          49.000                                                    37010466.767   149025788.686          50.000    37010468.250   145236993.819          48.000    37010466.856   156603371.714          50.000    37010465.927   194491296.873          45.000  
C07  38080346.069   198294508.585          45.000                                                    38080347.481   153333932.624          48.000    38080349.697   149435617.174          45.000    38080346.087   161130563.094          47.000    38080342.335   200113723.142          42.000  
C09  37308715.270   194276261.648          46.000    37308716.521   150226727.448          49.000                                                                                                    37308715.413   157865376.477          48.000                                                  
C10  39004391.201   203106170.795          43.000    39004398.688   157054596.598          45.000                                                                                                    39004395.150   165040421.937          41.000                                                  
C14  24089453.955   125440180.407          47.000                                                    24089473.683    96998321.670          47.000    24089474.290    94532260.503          44.000    24089444.913   101930435.588          47.000    24089449.541   126591002.375          42.000  
C21  22882302.352   119154278.889          51.000                                                    22882297.813    92137686.429          51.000    22882298.993    89795203.818          49.000    22882295.991    96822640.980          52.000    22882297.152   120247435.515          47.000  
C22  22717029.168   118293617.919          51.000                                                    22717023.057    91472148.732          52.000    22717024.325    89146587.415          49.000    22717022.378    96123269.632          52.000    22717024.272   119378879.961          46.000  
C34  23079319.016   120180079.664          48.000                                                    23079318.409    92930863.316          48.000    23079320.267    90568214.505          46.000    23079319.034    97656160.451          48.000    23079314.370   121282649.390          43.000  
C35  25062993.832   130509372.042          42.000                                                    25063007.341   100918066.660          45.000    25063011.272    98352345.785          41.000    25063004.589   106049507.502          45.000    25062990.169   131706705.998          38.000  
C39  25810891.174   134404101.453          41.000                                                    25810900.001   103929779.131          44.000    25810904.951   101287496.974          40.000    25810896.785   109214343.528          42.000    25810886.903   135637174.764          38.000  
> 2026 07 01 07 08 45.0000000  0 14                     
C01  38084839.611   198317642.385          46.000                                                    38084827.620   153351746.515          49.000                                                    38084839.789   161149306.690          46.000                                                  
C02  36973290.962   192529536.974          49.000                                                    36973276.791   148876025.742          51.000                                                    36973274.629   156445999.225          50.000                                                  
C03  36650702.169   190849749.232          48.000                                                    36650692.931   147577109.616          52.000                                                    36650691.197   155081037.027          51.000                                                  
C04  39524153.869   205812573.278          43.000                                                    39524146.954   159147338.320          37.000                                                    39524144.291   167239559.516          43.000                                                  
C06  37010335.465   192722493.227          49.000                                                    37010332.285   149025247.125          50.000    37010333.750   145236466.034          48.000    37010332.338   156602802.619          50.000    37010331.445   194490590.079          45.000  
C07  38075486.875   198269206.377          45.000                                                    38075488.483   153314367.411          48.000    38075490.591   149416549.386          45.000    38075487.089   161110003.018          48.000    38075483.533   200088188.789          43.000  
C09  37308627.890   194275806.288          47.000    37308629.088   150226375.355          49.000                                                                                                    37308627.926   157865006.469          48.000                                                  
C10  38999672.349   203081599.215          43.000    38999680.015   157035596.442          45.000                                                                                                    38999676.406   165020455.640          42.000                                                  
C14  24085347.761   125418798.338          47.000                                                    24085367.363    96981787.765          47.000    24085368.042    94516146.961          44.000    24085338.612   101913060.963          47.000    24085343.311   126569424.143          42.000  
C21  22880800.997   119146461.362          50.000                                                    22880796.476    92131641.449          51.000    22880797.763    89789312.524          49.000    22880794.725    96816288.620          52.000    22880795.904   120239546.268          48.000  
C22  22721303.438   118315874.524          51.000                                                    22721297.202    91489358.941          51.000    22721298.506    89163360.081          49.000    22721296.559    96141354.937          52.000    22721298.578   119401340.758          47.000  
C34  23075410.346   120159726.556          47.000                                                    23075409.774    92915125.018          48.000    23075411.668    90552876.342          45.000    23075410.382    97639621.899          48.000    23075405.700   121262109.562          44.000  
C35  25072331.504   130557995.793          41.000                                                    25072345.299   100955665.380          45.000    25072349.016    98388988.582          40.000    25072342.387   106089018.082          45.000    25072327.859   131755775.824          38.000  
C39  25804170.509   134369101.100          43.000                                                    25804178.836   103902714.932          43.000    25804182.875   101261120.862          39.000    25804175.209   109185903.076          41.000    25804165.935   135601853.319          38.000  
> 2026 07 01 07 09 00.0000000  0 14                     
C01  38084882.907   198317867.712          46.000                                                    38084870.917   153351920.754          49.000                                                    38084883.050   161149489.779          46.000                                                  
C02  36973197.971   192529052.766          49.000                                                    36973183.783   148875651.329          51.000                                                    36973181.639   156445605.779          50.000                                                  
C03  36650661.928   190849540.085          48.000                                                    36650652.761   147576947.895          52.000                                                    36650651.010   155080867.085          51.000                                                  
C04  39524199.989   205812813.495          43.000                                                    39524193.074   159147524.082          37.000                                                    39524190.411   167239754.721          43.000                                                  
C06  37010197.445   192721774.336          49.000                                                    37010194.229   149024691.251          50.000    37010195.694   145235924.283          48.000    37010194.264   156602218.470          50.000    37010193.335   194489864.586          45.000  
C07  38070630.968   198243920.567          45.000                                                    38070632.629   153294814.881          48.000    38070634.631   149397493.961          45.000    38070631.236   161089456.276          47.000    38070627.841   200062670.993          43.000  
C09  37308536.383   194275329.128          47.000    37308537.419   150226006.385          49.000                                                                                                    37308536.258   157864618.748          47.000                                                  
C10  38994954.141   203057032.197          42.000    38994962.414   157016599.818          45.000                                                                                                    38994958.376   165000493.051          41.000                                                  
C14  24081249.179   125397456.531          46.000                                                    24081268.638    96965284.977          47.000    24081269.281    94500063.764          44.000    24081239.708   101895719.050          47.000    24081244.765   126547886.536          42.000  
C21  22879307.558   119138687.792          51.000                                                    22879303.591    92125630.463          51.000    22879305.056    89783454.368          49.000    22879301.911    96809971.987          52.000    22879303.198   120231701.375          47.000  
C22  22725580.442   118338145.327          50.000                                                    22725574.081    91506580.137          51.000    22725575.403    89180143.451          49.000    22725573.438    96159451.798          52.000    22725575.493   119423815.866          47.000  
C34  23071522.601   120139482.531          47.000                                                    23071522.100    92899471.085          49.000    23071523.941    90537620.384          45.000    23071522.815    97623172.005          48.000    23071518.098   121241679.806          44.000  
C35  25081672.411   130606638.971          42.000                                                    25081687.814   100993279.164          45.000    25081690.691    98425646.075          40.000    25081684.348   106128544.483          44.000    25081669.320   131804865.305          39.000  
C39  25797449.059   134334097.886          41.000                                                    25797456.992   103875648.479          43.000    25797460.530   101234742.571          40.000    25797453.240   109157460.286          42.000    25797444.162   135566528.957          37.000  
> 2026 07 01 07 09 15.0000000  0 14                     
C01  38084926.114   198318092.692          46.000                                                    38084914.124   153352094.716          50.000                                                    38084926.257   161149672.601          46.000                                                  
C02  36973105.088   192528569.099          49.000                                                    36973090.900   148875277.333          51.000                                                    36973088.738   156445212.762          50.000                                                  
C03  36650621.866   190849331.345          49.000                                                    36650612.663   147576786.491          52.000                                                    36650610.930   155080697.471          51.000                                                  
C04  39524246.234   205813054.183          43.000                                                    39524239.301   159147710.195          38.000                                                    39524236.620   167239950.305          43.000                                                  
C06  37010055.672   192721036.221          49.000                                                    37010052.456   149024120.501          50.000    37010053.939   145235368.056          48.000    37010052.491   156601618.697          50.000    37010051.598   194489119.709          45.000  
C07  38065778.045   198218650.523          46.000                                                    38065779.814   153275274.554          48.000    38065781.368   149378450.429          45.000    38065778.420   161068922.351          47.000    38065775.454   200037169.122          42.000  
C09  37308440.516   194274829.477          47.000    37308441.356   150225620.027          49.000                                                                                                    37308440.301   157864212.736          48.000                                                  
C10  38990236.630   203032469.130          42.000    38990245.225   156997606.243          45.000                                                                                                    38990241.258   164980533.661          41.000                                                  
C14  24077158.191   125376154.204          46.000                                                    24077177.686    96948812.733          47.000    24077178.383    94484010.314          44.000    24077148.863   101878409.207          48.000    24077153.760   126526388.746          42.000  
C21  22877823.160   119130957.359          51.000                                                    22877818.996    92119652.824          51.000    22877820.515    89777628.706          49.000    22877817.317    96803690.400          52.000    22877818.639   120223900.018          47.000  
C22  22729860.038   118360429.485          50.000                                                    22729853.515    91523811.662          51.000    22729854.945    89196936.884          49.000    22729852.944    96177559.495          51.000    22729855.052   119446304.472          47.000  
C34  23067655.762   120119347.067          48.000                                                    23067655.315    92883901.077          48.000    23067657.120    90522446.234          45.000    23067655.976    97606810.294          48.000    23067651.295   121221359.611          44.000  
C35  25091017.624   130655300.649          42.000                                                    25091032.866   101030907.237          45.000    25091035.743    98462317.502          40.000    25091029.311   106168085.928          43.000    25091014.122   131853973.425          39.000  
C39  25790727.947   134299091.337          40.000                                                    25790734.898   103848579.525          43.000    25790736.274   101208361.844          41.000    25790730.324   109129014.869          42.000    25790721.925   135531201.200          36.000  
> 2026 07 01 07 09 30.0000000  0 14                     
C01  38084969.340   198318317.742          46.000                                                    38084957.332   153352268.739          49.000                                                    38084969.483   161149855.455          46.000                                                  
C02  36973012.366   192528086.357          49.000                                                    36972998.195   148874904.060          51.000                                                    36972996.033   156444820.506          50.000                                                  
C03  36650581.946   190849123.457          48.000                                                    36650572.744   147576625.743          52.000                                                    36650571.010   155080528.545          51.000                                                  
C04  39524292.658   205813295.734          43.000                                                    39524285.689   159147896.974          38.000                                                    39524283.008   167240146.571          43.000                                                  
C06  37009910.343   192720279.340          48.000                                                    37009907.038   149023535.243          50.000    37009908.556   145234797.676          48.000    37009907.055   156601003.676          50.000    37009906.198   194488355.881          45.000  
C07  38060928.696   198193396.738          46.000                                                    38060930.000   153255746.789          48.000    38060931.555   149359419.145          45.000    38060928.624   161048401.635          47.000    38060925.497   200011683.652          42.000  
C09  37308340.574   194274307.768          47.000    37308341.075   150225216.620          49.000                                                                                                    37308340.038   157863788.806          48.000                                                  
C10  38985520.047   203007910.481          42.000    38985528.857   156978616.088          45.000                                                                                                    38985524.961   164960577.865          42.000                                                  
C14  24073074.762   125354891.683          46.000                                                    24073094.400    96932371.283          47.000    24073095.222    94467986.872          44.000    24073065.684   101861131.728          48.000    24073070.473   126504931.146          42.000  
C21  22876346.946   119123270.348          51.000                                                    22876342.747    92113708.769          51.000    22876344.302    89771835.781          49.000    22876341.085    96797444.097          52.000    22876342.372   120216142.486          47.000  
C22  22734141.831   118382727.313          50.000                                                    22734135.577    91541053.764          51.000    22734137.024    89213740.628          49.000    22734135.005    96195678.309          51.000    22734137.310   119468806.867          47.000  
C34  23063809.866   120099320.727          48.000                                                    23063809.455    92868415.455          49.000    23063811.134    90507354.319          46.000    23063810.169    97590537.278          48.000    23063805.309   121201149.548          44.000  
C35  25100366.375   130703981.008          42.000                                                    25100381.475   101068549.785          44.000    25100384.405    98499003.006          40.000    25100377.794   106207642.557          43.000    25100362.659   131903100.364          38.000  
C39  25784004.138   134264082.229          41.000                                                    25784011.321   103821508.561          42.000    25784013.572   101181979.178          41.000    25784007.175   109100567.352          41.000    25783998.187   135495870.902          38.000  
> 2026 07 01 07 09 45.0000000  0 14                     
C01  38085012.601   198318542.954          46.000                                                    38085000.593   153352442.876          50.000                                                    38085012.744   161150038.462          46.000                                                  
C02  36972919.876   192527604.679          49.000                                                    36972905.688   148874531.600          51.000                                                    36972903.525   156444429.108          50.000                                                  
C03  36650542.205   190848916.505          48.000                                                    36650533.003   147576465.717          52.000                                                    36650531.252   155080360.382          51.000                                                  
C04  39524339.242   205813538.283          43.000                                                    39524332.291   159148084.530          38.000                                                    39524329.593   167240343.666          43.000                                                  
C06  37009761.351   192719503.793          49.000                                                    37009758.099   149022935.557          50.000    37009759.618   145234213.237          48.000    37009758.081   156600373.497          50.000    37009757.206   194487573.225          45.000  
C07  38056082.331   198168159.395          46.000                                                    38056083.349   153236231.741          48.000    38056084.922   149340400.243          45.000    38056081.973   161027894.280          47.000    38056078.614   199986214.773          42.000  
C09  37308236.166   194273764.093          47.000    37308236.773   150224796.216          49.000                                                                                                    37308235.665   157863347.035          48.000                                                  
C10  38980804.448   202983356.463          42.000    38980813.382   156959629.497          45.000                                                                                                    38980809.558   164940625.828          42.000                                                  
C14  24068999.034   125333669.029          46.000                                                    24069018.797    96915960.642          47.000    24069019.584    94451993.466          44.000    24068990.082   101843886.639          47.000    24068994.871   126483513.811          43.000  
C21  22874879.578   119115626.747          51.000                                                    22874874.700    92107798.279          51.000    22874876.451    89766075.562          49.000    22874873.074    96791233.064          52.000    22874874.396   120208428.743          47.000  
C22  22738426.394   118405038.779          50.000                                                    22738420.247    91558306.406          52.000    22738421.748    89230554.648          49.000    22738419.675    96213808.214          51.000    22738422.123   119491323.036          47.000  
C34  23059985.091   120079403.750          48.000                                                    23059984.733    92853014.404          49.000    23059986.288    90492344.813          46.000    23059985.341    97574353.122          48.000    23059980.409   121181049.838          44.000  
C35  25109719.630   130752679.809          43.000                                                    25109733.853   101106206.619          44.000    25109736.998    98535702.451          40.000    25109729.958   106247214.192          43.000    25109714.448   131952245.990          38.000  
C39  25777280.292   134229070.952          42.000                                                    25777287.243   103794435.913          42.000    25777290.245   101155594.870          41.000    25777283.384   109072118.074          42.000    25777274.681   135460538.453          40.000  
> 2026 07 01 07 10 00.0000000  0 14                     
C01  38085055.844   198318768.155          46.000                                                    38085043.836   153352617.011          50.000                                                    38085056.004   161150221.447          46.000                                                  
C02  36972827.546   192527123.858          49.000                                                    36972813.323   148874159.806          52.000                                                    36972811.178   156444038.406          49.000                                                  
C03  36650502.626   190848710.321          48.000                                                    36650493.387   147576306.280          52.000                                                    36650491.654   155080192.840          50.000                                                  
C04  39524385.970   205813781.635          43.000                                                    39524379.036   159148272.676          38.000                                                    39524376.320   167240541.395          42.000                                                  
C06  37009608.750   192718709.440          48.000                                                    37009605.534   149022321.322          50.000    37009607.052   145233614.615          48.000    37009605.516   156599728.022          49.000    37009604.640   194486771.569          45.000  
C07  38051238.968   198142938.398          45.000                                                    38051239.861   153216729.319          48.000    38051241.416   149321393.658          45.000    38051238.450   161007400.195          47.000    38051234.858   199960762.389          42.000  
C09  37308127.433   194273198.182          47.000    37308128.129   150224358.622          49.000                                                                                                    37308127.004   157862887.184          47.000                                                  
C10  38976088.777   202958806.921          42.000    38976098.301   156940646.405          46.000                                                                                                    38976094.817   164920677.434          41.000                                                  
C14  24064930.651   125312485.974          46.000                                                    24064950.629    96899580.623          47.000    24064951.504    94436029.895          43.000    24064922.127   101826673.714          47.000    24064926.952   126462136.404          42.000  
C21  22873419.804   119108026.257          51.000                                                    22873415.086    92101921.124          52.000    22873416.873    89760347.829          49.000    22873413.478    96785057.062          51.000    22873414.622   120200758.517          47.000  
C22  22742713.208   118427363.602          50.000                                                    22742707.472    91575569.362          52.000    22742709.098    89247378.722          49.000    22742706.882    96231948.953          51.000    22742709.866   119513852.663          46.000  
C34  23056181.294   120059596.132          48.000                                                    23056180.972    92837697.915          49.000    23056182.491    90477417.716          46.000    23056181.508    97558257.805          48.000    23056176.576   121161060.508          44.000  
C35  25119075.457   130801396.702          43.000                                                    25119089.502   101143877.435          44.000    25119092.772    98572415.504          41.000    25119085.481   106286800.530          43.000    25119070.346   132001409.809          38.000  
C39  25770554.982   134194057.663          43.000                                                    25770561.540   103767361.722          42.000    25770567.347   101129209.056          41.000    25770558.931   109043667.133          42.000    25770550.443   135425203.917          40.000  
> 2026 07 01 07 10 15.0000000  0 14                     
C01  38085099.122   198318993.607          46.000                                                    38085087.132   153352791.344          50.000                                                    38085099.301   161150404.642          46.000                                                  
C02  36972735.449   192526644.192          49.000                                                    36972721.208   148873788.907          51.000                                                    36972719.063   156443648.638          50.000                                                  
C03  36650463.207   190848505.163          48.000                                                    36650454.004   147576147.648          52.000                                                    36650452.253   155080026.140          51.000                                                  
C04  39524432.912   205814026.059          43.000                                                    39524426.014   159148461.678          38.000                                                    39524423.262   167240740.003          43.000                                                  
C06  37009452.307   192717896.569          48.000                                                    37009449.412   149021692.767          50.000    37009450.931   145233002.045          48.000    37009449.305   156599067.512          50.000    37009448.501   194485951.244          45.000  
C07  38046399.125   198117734.084          45.000                                                    38046399.339   153197239.803          48.000    38046400.876   149302399.640          45.000    38046397.856   160986919.670          47.000    38046393.461   199935326.839          43.000  
C09  37308014.536   194272610.388          47.000    37308015.358   150223904.120          49.000                                                                                                    37308014.197   157862409.572          48.000                                                  
C10  38971375.143   202934262.261          42.000    38971384.775   156921667.076          46.000                                                                                                    38971381.219   164900733.025          42.000                                                  
C14  24060870.452   125291342.712          46.000                                                    24060890.304    96883231.388          48.000    24060891.037    94420096.331          44.000    24060861.642   101809493.159          47.000    24060866.556   126440799.178          42.000  
C21  22871968.303   119100469.031          51.000                                                    22871963.800    92096077.434          52.000    22871965.587    89754652.714          49.000    22871962.210    96778916.228          52.000    22871963.300   120193131.971          48.000  
C22  22747003.096   118449701.912          50.000                                                    22746997.288    91592842.765          52.000    22746998.897    89264212.964          49.000    22746996.681    96250100.657          51.000    22746999.522   119536395.906          47.000  
C34  23052398.779   120039898.288          48.000                                                    23052398.457    92822466.313          49.000    23052399.815    90462573.364          46.000    23052398.958    97542251.717          49.000    23052393.865   121141181.952          45.000  
C35  25128434.679   130850131.588          42.000                                                    25128448.528   101181562.226          43.000    25128451.976    98609142.174          41.000    25128444.632   106326401.527          44.000    25128429.587   132050591.842          40.000  
C39  25763830.886   134159042.885          43.000                                                    25763837.212   103740286.349          42.000    25763842.769   101102822.091          40.000    25763834.514   109015214.980          43.000    25763827.223   135389867.888          40.000  
> 2026 07 01 07 10 30.0000000  0 14                     
C01  38085142.419   198319219.116          46.000                                                    38085130.447   153352965.711          49.000                                                    38085142.616   161150587.882          46.000                                                  
C02  36972643.531   192526165.430          49.000                                                    36972629.254   148873418.703          51.000                                                    36972627.109   156443259.615          50.000                                                  
C03  36650423.948   190848300.822          48.000                                                    36650414.764   147575989.643          52.000                                                    36650413.012   155079860.101          51.000                                                  
C04  39524479.961   205814271.306          43.000                                                    39524473.099   159148651.330          38.000                                                    39524470.365   167240939.310          43.000                                                  
C06  37009292.433   192717064.967          48.000                                                    37009289.627   149021049.729          50.000    37009291.235   145232375.360          48.000    37009289.574   156598391.777          49.000    37009288.769   194485112.018          45.000  
C07  38041561.695   198092546.289          45.000                                                    38041562.266   153177763.058          48.000    38041563.785   149283418.080          45.000    38041560.730   160966452.570          47.000    38041556.352   199909907.975          43.000  
C09  37307897.405   194272000.410          47.000    37307898.173   150223432.451          49.000                                                                                                    37307897.029   157861913.925          47.000                                                  
C10  38966662.528   202909722.326          42.000    38966672.106   156902691.372          45.000                                                                                                    38966668.532   164880792.409          42.000                                                  
C14  24056817.793   125270238.963          47.000                                                    24056837.574    96866912.701          48.000    24056838.253    94404192.537          44.000    24056808.751   101792344.691          47.000    24056813.737   126419501.811          42.000  
C21  22870525.165   119092954.738          51.000                                                    22870520.644    92090266.933          51.000    22870522.538    89748989.942          49.000    22870519.179    96772810.276          51.000    22870520.269   120185548.737          48.000  
C22  22751295.521   118472053.397          50.000                                                    22751289.678    91610126.342          51.000    22751291.232    89281057.130          49.000    22751289.035    96268263.067          51.000    22751291.840   119558952.447          47.000  
C34  23048637.064   120020310.146          48.000                                                    23048636.653    92807319.525          49.000    23048638.172    90447811.665          46.000    23048637.296    97526334.758          48.000    23048632.257   121121414.099          44.000  
C35  25137797.690   130898884.066          42.000                                                    25137811.020   101219260.593          43.000    25137815.023    98645882.089          41.000    25137807.411   106366016.782          43.000    25137792.168   132099791.582          40.000  
C39  25757106.273   134124026.679          42.000                                                    25757112.795   103713209.890          41.000    25757117.780   101076434.051          40.000    25757110.025   108986761.692          43.000    25757103.217   135354530.412          39.000  
> 2026 07 01 07 10 45.0000000  0 14                     
C01  38085185.698   198319444.907          46.000                                                    38085173.815   153353140.303          50.000                                                    38085185.966   161150771.351          46.000                                                  
C02  36972551.899   192525687.852          49.000                                                    36972537.532   148873049.413          51.000                                                    36972535.388   156442871.548          50.000                                                  
C03  36650384.869   190848097.543          49.000                                                    36650375.720   147575832.459          52.000                                                    36650373.951   155079694.925          51.000                                                  
C04  39524527.260   205814517.688          43.000                                                    39524520.416   159148841.847          38.000                                                    39524517.664   167241139.489          43.000                                                  
C06  37009129.110   192716214.912          48.000                                                    37009126.394   149020392.426          50.000    37009127.984   145231734.765          48.000    37009126.322   156597701.049          50.000    37009125.536   194484254.162          45.000  
C07  38036727.624   198067375.362          45.000                                                    38036728.446   153158299.377          48.000    38036729.929   149264449.243          45.000    38036726.855   160945999.189          48.000    38036722.602   199884506.116          43.000  
C09  37307776.092   194271368.615          47.000    37307776.914   150222943.919          49.000                                                                                                    37307775.663   157861400.544          48.000                                                  
C10  38961950.860   202885187.427          43.000    38961960.223   156883719.587          45.000                                                                                                    38961956.596   164860855.929          42.000                                                  
C14  24052773.050   125249174.888          46.000                                                    24052792.456    96850624.687          48.000    24052792.938    94388318.634          45.000    24052763.258   101775228.452          48.000    24052768.351   126398244.476          43.000  
C21  22869089.854   119085483.507          51.000                                                    22869085.815    92084489.730          51.000    22869087.709    89743359.619          49.000    22869084.457    96766739.310          52.000    22869085.297   120178008.954          48.000  
C22  22755590.341   118494418.153          50.000                                                    22755584.605    91627420.208          52.000    22755586.106    89297911.322          49.000    22755583.926    96286436.275          51.000    22755586.749   119581522.397          47.000  
C34  23044896.541   120000832.089          48.000                                                    23044896.005    92792257.874          49.000    23044897.649    90433132.943          46.000    23044896.613    97510507.251          48.000    23044891.770   121101757.350          45.000  
C35  25147163.488   130947654.046          42.000                                                    25147176.890   101256972.514          43.000    25147180.857    98682635.241          41.000    25147173.280   106405646.310          44.000    25147158.753   132149009.014          39.000  
C39  25750381.016   134089009.612          41.000                                                    25750388.163   103686132.788          42.000    25750391.451   101050045.371          40.000    25750385.108   108958307.710          44.000    25750380.855   135319192.062          39.000  
> 2026 07 01 07 11 00.0000000  0 14                     
C01  38085229.030   198319670.495          46.000                                                    38085217.147   153353314.731          50.000                                                    38085229.298   161150954.653          46.000                                                  
C02  36972460.338   192525210.957          49.000                                                    36972445.935   148872680.655          51.000                                                    36972443.791   156442484.032          50.000                                                  
C03  36650345.932   190847894.836          49.000                                                    36650336.783   147575675.722          52.000                                                    36650335.032   155079530.211          51.000                                                  
C04  39524574.720   205814764.688          43.000                                                    39524567.858   159149032.826          37.000                                                    39524565.107   167241340.195          43.000                                                  
C06  37008961.963   192715345.947          48.000                                                    37008959.515   149019720.494          50.000    37008961.123   145231079.926          48.000    37008959.372   156596994.945          50.000    37008958.764   194483377.228          45.000  
C07  38031895.750   198042220.881          46.000                                                    38031897.752   153138848.397          48.000    38031899.056   149245492.782          45.000    38031895.929   160925559.158          47.000    38031891.962   199859120.845          43.000  
C09  37307650.526   194270714.402          47.000    37307651.134   150222438.053          49.000                                                                                                    37307649.901   157860868.949          48.000                                                  
C10  38957240.353   202860657.169          43.000    38957249.538   156864751.382          46.000                                                                                                    38957245.731   164840923.201          42.000                                                  
C14  24048735.384   125228149.914          46.000                                                    24048754.843    96834366.926          48.000    24048755.451    94372474.208          45.000    24048725.609   101758144.009          47.000    24048730.809   126377026.612          42.000  
C21  22867663.244   119078054.697          51.000                                                    22867659.135    92078745.348          51.000    22867661.029    89737761.279          49.000    22867657.812    96760702.829          52.000    22867658.849   120170512.004          48.000  
C22  22759887.787   118516795.614          51.000                                                    22759881.962    91644723.873          51.000    22759883.320    89314775.057          49.000    22759881.140    96304619.783          51.000    22759884.052   119604105.152          47.000  
C34  23041176.997   119981463.794          48.000                                                    23041176.157    92777281.098          49.000    23041178.319    90418536.930          46.000    23041176.854    97494768.937          48.000    23041172.619   121082211.371          44.000  
C35  25156532.378   130996440.860          41.000                                                    25156545.869   101294697.467          43.000    25156549.943    98719401.032          41.000    25156542.474   106445289.472          44.000    25156527.821   132198243.389          38.000  
C39  25743655.544   134053991.496          41.000                                                    25743663.246   103659054.849          41.000    25743666.319   101023655.912          41.000    25743660.423   108929852.873          43.000    25743655.366   135283852.687          39.000  
> 2026 07 01 07 11 15.0000000  0 14                     
C01  38085272.363   198319896.199          47.000                                                    38085260.498   153353489.257          49.000                                                    38085272.648   161151138.049          46.000                                                  
C02  36972368.974   192524735.068          49.000                                                    36972354.553   148872312.672          51.000                                                    36972352.409   156442097.340          50.000                                                  
C03  36650307.174   190847693.034          48.000                                                    36650298.025   147575519.678          52.000                                                    36650296.274   155079366.233          51.000                                                  
C04  39524622.305   205815012.588          43.000                                                    39524615.462   159149224.538          37.000                                                    39524612.710   167241541.645          43.000                                                  
C06  37008791.600   192714458.388          48.000                                                    37008789.080   149019034.188          50.000    37008790.670   145230411.068          48.000    37008788.919   156596273.735          50.000    37008788.437   194482481.523          45.000  
C07  38027068.398   198017083.218          45.000                                                    38027070.346   153119410.425          48.000    38027071.579   149226549.004          45.000    38027068.541   160905132.798          48.000    38027064.717   199833752.556          43.000  
C09  37307520.636   194270038.065          47.000    37307521.101   150221915.060          49.000                                                                                                    37307519.993   157860319.359          48.000                                                  
C10  38952530.722   202836131.936          43.000    38952539.781   156845787.069          46.000                                                                                                    38952535.850   164820994.551          42.000                                                  
C14  24044705.222   125207164.294          46.000                                                    24044724.842    96818139.594          47.000    24044725.450    94356659.438          45.000    24044695.537   101741091.528          47.000    24044700.844   126355848.466          43.000  
C21  22866244.819   119070668.536          51.000                                                    22866240.477    92073033.918          51.000    22866242.532    89732195.065          49.000    22866239.334    96754700.989          52.000    22866240.441   120163058.077          47.000  
C22  22764187.628   118539185.958          50.000                                                    22764181.767    91662037.501          51.000    22764183.125    89331648.514          49.000    22764180.945    96322813.772          51.000    22764183.947   119626700.924          47.000  
C34  23037478.663   119962205.742          47.000                                                    23037477.966    92762389.564          49.000    23037479.842    90404023.984          46.000    23037478.466    97479120.190          48.000    23037474.339   121062776.622          45.000  
C35  25165904.341   131045244.515          41.000                                                    25165918.118   101332435.443          42.000    25165922.245    98756179.548          42.000    25165914.830   106484946.347          44.000    25165900.034   132247494.772          37.000  
C39  25736930.198   134018972.944          42.000                                                    25736937.953   103631976.577          40.000    25736941.241   100997266.119          40.000    25736935.344   108901397.676          43.000    25736929.519   135248512.840          38.000  
> 2026 07 01 07 11 30.0000000  0 14                     
C01  38085315.677   198320122.005          46.000                                                    38085303.866   153353663.856          49.000                                                    38085316.017   161151321.527          46.000                                                  
C02  36972277.913   192524260.165          49.000                                                    36972263.332   148871945.455          51.000                                                    36972261.188   156441711.447          50.000                                                  
C03  36650268.577   190847492.110          48.000                                                    36650259.446   147575364.313          52.000                                                    36650257.677   155079202.965          51.000                                                  
C04  39524670.087   205815261.406          43.000                                                    39524663.243   159149416.928          37.000                                                    39524660.509   167241743.823          43.000                                                  
C06  37008617.573   192713552.251          48.000                                                    37008615.072   149018333.514          50.000    37008616.662   145229728.204          48.000    37008614.911   156595537.431          50.000    37008614.428   194481567.075          44.000  
C07  38022244.280   197991962.453          45.000                                                    38022246.156   153099985.519          48.000    38022247.354   149207617.967          45.000    38022244.405   160884720.172          48.000    38022240.528   199808401.334          42.000  
C09  37307386.494   194269339.546          47.000    37307386.958   150221374.936          49.000                                                                                                    37307385.868   157859751.774          48.000                                                  
C10  38947822.663   202811611.788          43.000    38947831.061   156826826.661          46.000                                                                                                    38947826.755   164801070.038          42.000                                                  
C14  24040682.387   125186217.963          47.000                                                    24040702.346    96801942.635          47.000    24040703.222    94340874.272          45.000    24040672.970   101724070.971          47.000    24040678.438   126334709.962          42.000  
C21  22864834.810   119063324.871          51.000                                                    22864830.200    92067355.364          51.000    22864832.023    89726660.888          49.000    22864828.914    96748733.679          51.000    22864830.164   120155647.033          47.000  
C22  22768489.881   118561589.056          50.000                                                    22768484.020    91679360.995          51.000    22768485.396    89348531.574          48.000    22768483.216    96341018.119          51.000    22768486.361   119649309.552          46.000  
C34  23033801.397   119943058.011          47.000                                                    23033800.896    92747583.346          49.000    23033802.683    90389594.208          46.000    23033801.307    97463561.120          48.000    23033797.233   121043453.246          45.000  
C35  25175279.145   131094064.741          40.000                                                    25175293.637   101370186.247          42.000    25175298.032    98792970.568          42.000    25175290.813   106524616.714          44.000    25175275.535   132296762.891          38.000  
C39  25730204.959   133983954.261          41.000                                                    25730212.571   103604898.187          41.000    25730216.216   100970876.219          40.000    25730210.087   108872942.350          42.000    25730203.851   135213172.861          37.000  
> 2026 07 01 07 11 45.0000000  0 14                     
C01  38085359.045   198320347.887          47.000                                                    38085347.252   153353838.513          49.000                                                    38085359.403   161151505.072          46.000                                                  
C02  36972186.924   192523786.219          49.000                                                    36972172.307   148871578.972          51.000                                                    36972170.181   156441326.334          50.000                                                  
C03  36650230.159   190847292.029          48.000                                                    36650221.010   147575209.605          52.000                                                    36650219.241   155079040.388          51.000                                                  
C04  39524718.065   205815511.108          43.000                                                    39524711.186   159149610.007          37.000                                                    39524708.470   167241946.715          43.000                                                  
C06  37008440.062   192712627.539          48.000                                                    37008437.489   149017618.471          50.000    37008439.080   145229031.341          48.000    37008437.328   156594786.036          49.000    37008436.774   194480633.880          45.000  
C07  38017423.539   197966858.628          45.000                                                    38017425.201   153080573.712          48.000    38017426.273   149188699.683          45.000    38017423.593   160864321.313          48.000    38017419.805   199783067.205          43.000  
C09  37307248.080   194268618.939          47.000    37307248.545   150220817.715          49.000                                                                                                    37307247.508   157859166.226          48.000                                                  
C10  38943114.694   202787096.767          43.000    38943123.056   156807870.229          46.000                                                                                                    38943118.911   164781149.693          42.000                                                  
C14  24036667.432   125165310.736          47.000                                                    24036687.106    96785775.938          47.000    24036688.106    94325118.603          45.000    24036657.979   101707082.205          47.000    24036663.661   126313610.934          42.000  
C21  22863432.700   119056023.593          51.000                                                    22863428.054    92061709.566          51.000    22863429.841    89721158.632          49.000    22863426.714    96742800.802          51.000    22863427.929   120148278.754          47.000  
C22  22772794.743   118584004.759          50.000                                                    22772788.650    91696694.232          51.000    22772790.026    89365424.135          49.000    22772787.881    96359232.709          51.000    22772791.241   119671930.898          47.000  
C34  23030145.484   119924020.763          48.000                                                    23030145.019    92732862.545          49.000    23030146.735    90375247.661          46.000    23030145.323    97448091.792          48.000    23030141.374   121024241.336          45.000  
C35  25184657.666   131142901.207          42.000                                                    25184672.229   101407949.646          43.000    25184676.607    98829773.851          42.000    25184669.477   106564300.277          44.000    25184654.217   132346047.407          37.000  
C39  25723478.540   133948935.656          41.000                                                    25723486.421   103577819.895          42.000    25723490.638   100944486.387          40.000    25723484.384   108844487.115          42.000    25723475.967   135177832.967          37.000  
> 2026 07 01 07 12 00.0000000  0 14                     
C01  38085402.413   198320573.803          47.000                                                    38085390.638   153354013.201          49.000                                                    38085402.789   161151688.643          46.000                                                  
C02  36972096.096   192523313.197          49.000                                                    36972081.461   148871213.213          51.000                                                    36972079.335   156440941.972          50.000                                                  
C03  36650191.883   190847092.756          49.000                                                    36650182.734   147575055.521          52.000                                                    36650180.983   155078878.475          51.000                                                  
C04  39524766.258   205815761.664          43.000                                                    39524759.289   159149803.742          37.000                                                    39524756.627   167242150.315          43.000                                                  
C06  37008259.174   192711684.223          49.000                                                    37008256.369   149016889.048          50.000    37008257.941   145228320.470          48.000    37008256.190   156594019.519          50.000    37008255.654   194479681.907          45.000  
C07  38012605.908   197941771.762          46.000                                                    38012607.445   153061175.025          48.000    38012608.642   149169794.192          45.000    38012605.890   160843936.233          48.000    38012602.012   199757750.190          43.000  
C09  37307105.217   194267876.082          47.000    37307105.610   150220243.300          49.000                                                                                                    37307104.931   157858562.601          48.000                                                  
C10  38938407.689   202762586.945          43.000    38938416.088   156788917.823          46.000                                                                                                    38938412.049   164761233.562          42.000                                                  
C14  24032660.000   125144442.587          46.000                                                    24032679.441    96769639.446          47.000    24032680.567    94309392.359          45.000    24032650.422   101690125.183          48.000    24032656.158   126292551.334          43.000  
C21  22862038.505   119048764.507          51.000                                                    22862034.020    92056096.405          51.000    22862035.789    89715688.178          49.000    22862032.626    96736902.218          52.000    22862033.859   120140953.068          47.000  
C22  22777101.803   118606432.922          50.000                                                    22777095.763    91714037.115          51.000    22777097.104    89382326.097          48.000    22777094.995    96377457.431          51.000    22777098.104   119694564.835          47.000  
C34  23026510.675   119905094.104          48.000                                                    23026510.514    92718227.265          49.000    23026511.890    90360984.464          46.000    23026510.424    97432712.343          48.000    23026506.940   121005141.053          45.000  
C35  25194039.493   131191753.588          42.000                                                    25194053.984   101445725.363          44.000    25194058.219    98866589.151          41.000    25194051.125   106603996.804          44.000    25194035.955   132395348.015          38.000  
C39  25716753.730   133913917.455          40.000                                                    25716761.378   103550741.900          42.000    25716765.631   100918096.849          40.000    25716759.162   108816032.198          42.000    25716750.442   135142493.513          36.000  
> 2026 07 01 07 12 15.0000000  0 14                     
C01  38085445.799   198320799.801          47.000                                                    38085434.041   153354187.948          49.000                                                    38085446.192   161151872.278          46.000                                                  
C02  36972005.428   192522841.138          49.000                                                    36971990.811   148870848.196          51.000                                                    36971988.685   156440558.393          50.000                                                  
C03  36650153.787   190846894.356          49.000                                                    36650144.638   147574902.112          52.000                                                    36650142.869   155078717.258          51.000                                                  
C04  39524814.558   205816013.120          43.000                                                    39524807.607   159149998.192          37.000                                                    39524804.909   167242354.643          43.000                                                  
C06  37008074.516   192710722.378          48.000                                                    37008071.675   149016145.296          50.000    37008073.211   145227595.626          48.000    37008071.478   156593237.944          49.000    37008070.996   194478711.241          45.000  
C07  38007791.671   197916702.013          46.000                                                    38007792.976   153041789.564          48.000    38007794.280   149150901.588          45.000    38007791.457   160823565.054          48.000    38007787.615   199732450.429          43.000  
C09  37306958.209   194267111.196          47.000    37306958.691   150219651.846          49.000                                                                                                    37306958.084   157857941.078          48.000                                                  
C10  38933701.668   202738082.432          43.000    38933710.138   156769969.517          46.000                                                                                                    38933706.188   164741321.754          42.000                                                  
C14  24028659.912   125123613.437          46.000                                                    24028679.371    96753533.091          47.000    24028680.461    94293695.521          45.000    24028650.387   101673199.859          47.000    24028656.105   126271531.070          42.000  
C21  22860652.512   119041547.534          51.000                                                    22860648.080    92050515.816          51.000    22860649.778    89710249.470          49.000    22860646.454    96731037.865          51.000    22860647.473   120133669.878          47.000  
C22  22781411.383   118628873.501          50.000                                                    22781405.218    91731389.581          51.000    22781406.558    89399237.403          48.000    22781404.485    96395692.231          51.000    22781407.237   119717211.271          46.000  
C34  23022897.379   119886278.195          49.000                                                    23022897.022    92703677.629          48.000    23022898.559    90346804.741          46.000    23022897.058    97417422.891          48.000    23022893.627   120986152.507          45.000  
C35  25203424.786   131240621.772          42.000                                                    25203439.153   101483513.271          44.000    25203442.923    98903416.353          41.000    25203436.079   106643706.150          45.000    25203421.230   132444664.508          37.000  
C39  25710028.831   133878899.961          41.000                                                    25710036.675   103523664.483          43.000    25710040.731   100891707.858          40.000    25710034.370   108787577.863          42.000    25710024.953   135107154.729          36.000  
> 2026 07 01 07 12 30.0000000  0 14                     
C01  38085489.185   198321025.927          47.000                                                    38085477.463   153354362.803          49.000                                                    38085489.632   161152056.021          46.000                                                  
C02  36971915.011   192522370.114          49.000                                                    36971900.341   148870483.979          51.000                                                    36971898.214   156440175.647          50.000                                                  
C03  36650115.833   190846696.849          49.000                                                    36650106.702   147574749.392          52.000                                                    36650104.933   155078556.770          51.000                                                  
C04  39524863.055   205816265.517          43.000                                                    39524856.068   159150193.349          37.000                                                    39524853.388   167242559.741          43.000                                                  
C06  37007886.212   192709742.075          48.000                                                    37007883.424   149015387.274          50.000    37007884.943   145226856.877          47.000    37007883.228   156592441.380          50.000    37007882.710   194477721.950          44.000  
C07  38002980.723   197891649.464          46.000                                                    38002981.831   153022417.420          48.000    38002983.189   149132021.967          45.000    38002980.330   160803207.867          48.000    38002976.542   199707168.054          43.000  
C09  37306806.983   194266324.030          48.000    37306807.662   150219043.182          50.000                                                                                                    37306806.930   157857301.446          48.000                                                  
C10  38928996.164   202713583.349          43.000    38929004.884   156751025.420          46.000                                                                                                    38929001.257   164721414.352          42.000                                                  
C14  24024667.221   125102823.274          46.000                                                    24024686.377    96737456.888          47.000    24024687.664    94278028.057          45.000    24024657.733   101656306.212          48.000    24024663.344   126250550.163          42.000  
C21  22859274.560   119034372.617          51.000                                                    22859270.236    92044967.739          51.000    22859271.898    89704842.453          49.000    22859268.538    96725207.673          52.000    22859269.700   120126429.144          47.000  
C22  22785723.160   118651326.366          50.000                                                    22785717.049    91748751.571          51.000    22785718.353    89416157.987          48.000    22785716.405    96413937.034          51.000    22785718.300   119739870.149          46.000  
C34  23019305.366   119867573.263          48.000                                                    23019304.830    92689213.791          48.000    23019306.528    90332708.636          46.000    23019305.009    97402223.608          49.000    23019301.525   120967275.966          45.000  
C35  25212812.795   131289505.431          42.000                                                    25212826.876   101521313.211          44.000    25212830.450    98940255.260          40.000    25212823.767   106683428.107          45.000    25212808.900   132493996.662          37.000  
C39  25703304.092   133843883.517          41.000                                                    25703311.740   103496587.875          42.000    25703315.403   100865319.693          39.000    25703309.113   108759124.422          42.000    25703297.945   135071817.024          38.000  
> 2026 07 01 07 12 45.0000000  0 14                     
C01  38085532.607   198321252.134          46.000                                                    38085520.903   153354537.702          49.000                                                    38085533.072   161152239.819          46.000                                                  
C02  36971824.719   192521900.044          49.000                                                    36971810.066   148870120.500          51.000                                                    36971807.940   156439793.688          50.000                                                  
C03  36650078.058   190846500.211          48.000                                                    36650068.944   147574597.336          52.000                                                    36650067.175   155078396.985          51.000                                                  
C04  39524911.712   205816518.799          42.000                                                    39524904.743   159150389.213          37.000                                                    39524902.027   167242765.551          43.000                                                  
C06  37007694.495   192708743.288          48.000                                                    37007691.618   149014614.951          50.000    37007693.119   145226104.191          47.000    37007691.440   156591629.783          50.000    37007690.671   194476713.991          44.000  
C07  37998173.438   197866614.150          46.000                                                    37998173.741   153003058.590          47.000    37998175.457   149113155.323          45.000    37998172.383   160782864.675          48.000    37998168.738   199681903.049          42.000  
C09  37306651.273   194265514.753          47.000    37306652.434   150218417.398          49.000                                                                                                    37306651.612   157856643.852          48.000                                                  
C10  38924292.287   202689089.749          42.000    38924301.186   156732085.525          46.000                                                                                                    38924297.415   164701511.396          42.000                                                  
C14  24020682.125   125082071.965          46.000                                                    24020701.335    96721410.727          47.000    24020702.603    94262389.858          45.000    24020672.566   101639444.142          47.000    24020678.123   126229608.481          42.000  
C21  22857904.649   119027239.594          51.000                                                    22857900.432    92039452.056          51.000    22857902.023    89699466.990          49.000    22857898.717    96719411.518          52.000    22857899.753   120119230.661          46.000  
C22  22790037.403   118673791.405          49.000                                                    22790031.221    91766122.953          51.000    22790032.525    89433087.720          48.000    22790030.577    96432191.707          51.000    22790032.471   119762541.263          46.000  
C34  23015734.778   119848979.372          47.000                                                    23015733.635    92674835.812          48.000    23015735.886    90318696.215          46.000    23015734.439    97387114.560          48.000    23015731.026   120948511.480          45.000  
C35  25222203.467   131338404.296          41.000                                                    25222217.512   101559124.872          45.000    25222220.836    98977105.656          39.000    25222214.260   106723162.432          43.000    25222199.554   132543344.148          38.000  
C39  25696580.121   133808868.413          41.000                                                    25696587.484   103469512.288          42.000    25696590.771   100838932.497          39.000    25696584.857   108730672.033          42.000    25696574.082   135036480.681          38.000  
> 2026 07 01 07 13 00.0000000  0 14                     
C01  38085576.047   198321478.388          47.000                                                    38085564.360   153354712.647          49.000                                                    38085576.529   161152423.666          46.000                                                  
C02  36971734.641   192521430.927          49.000                                                    36971719.971   148869757.756          51.000                                                    36971717.844   156439412.500          50.000                                                  
C03  36650040.443   190846304.398          49.000                                                    36650031.330   147574445.931          52.000                                                    36650029.561   155078237.881          51.000                                                  
C04  39524960.548   205816772.950          43.000                                                    39524953.543   159150585.727          37.000                                                    39524950.827   167242972.072          43.000                                                  
C06  37007499.187   192707725.995          49.000                                                    37007496.292   149013828.318          50.000    37007497.739   145225337.557          48.000    37007496.078   156590803.152          50.000    37007495.077   194475687.359          44.000  
C07  37993369.101   197841596.116          47.000                                                    37993369.279   152983713.127          48.000    37993370.995   149094301.696          45.000    37993367.885   160762535.523          48.000    37993364.294   199656655.504          42.000  
C09  37306491.595   194264683.314          47.000    37306492.828   150217774.496          49.000                                                                                                    37306491.881   157855968.253          48.000                                                  
C10  38919589.607   202664601.630          43.000    38919598.523   156713149.898          46.000                                                                                                    38919594.628   164681612.904          42.000                                                  
C14  24016704.535   125061359.387          47.000                                                    24016723.708    96705394.536          47.000    24016724.995    94246780.869          45.000    24016694.778   101622613.554          47.000    24016700.371   126208705.879          42.000  
C21  22856542.869   119020148.304          51.000                                                    22856538.723    92033968.645          51.000    22856540.207    89694122.990          49.000    22856536.919    96713649.287          52.000    22856537.866   120112074.333          47.000  
C22  22794353.737   118696268.448          50.000                                                    22794347.715    91783503.626          51.000    22794349.002    89450026.511          48.000    22794347.072    96450456.150          51.000    22794349.020   119785224.528          46.000  
C34  23012185.258   119830496.639          48.000                                                    23012184.257    92660543.809          48.000    23012186.383    90304767.563          46.000    23012184.936    97372095.837          48.000    23012181.594   120929859.184          44.000  
C35  25231597.356   131387318.080          43.000                                                    25231611.347   101596948.119          44.000    25231613.884    99013967.284          40.000    25231607.666   106762908.895          43.000    25231593.192   132592706.683          38.000  
C39  25689856.401   133773854.897          42.000                                                    25689863.460   103442437.918          42.000    25689866.604   100812546.502          40.000    25689860.654   108702220.912          41.000    25689850.808   135001145.925          39.000  
> 2026 07 01 07 13 15.0000000  0 14                     
C01  38085619.486   198321704.755          47.000                                                    38085607.853   153354887.679          49.000                                                    38085620.022   161152607.601          46.000                                                  
C02  36971644.706   192520962.808          49.000                                                    36971630.054   148869395.783          51.000                                                    36971627.927   156439032.124          49.000                                                  
C03  36650003.008   190846109.470          48.000                                                    36649993.894   147574295.209          52.000                                                    36649992.125   155078079.491          50.000                                                  
C04  39525009.527   205817028.028          43.000                                                    39525002.522   159150782.988          37.000                                                    39524999.806   167243179.344          42.000                                                  
C06  37007300.322   192706690.291          48.000                                                    37007297.410   149013027.461          50.000    37007298.839   145224557.059          48.000    37007297.177   156589961.566          49.000    37007296.052   194474642.153          44.000  
C07  37988568.016   197816595.500          46.000                                                    37988568.141   152964381.130          48.000    37988569.874   149075461.206          45.000    37988566.765   160742220.536          47.000    37988563.155   199631425.510          42.000  
C09  37306327.700   194263829.674          47.000    37306328.969   150217114.428          49.000                                                                                                    37306327.915   157855274.615          47.000                                                  
C10  38914887.909   202640119.165          43.000    38914897.005   156694218.637          46.000                                                                                                    38914892.520   164661718.990          41.000                                                  
C14  24012734.198   125040685.541          46.000                                                    24012753.479    96689408.294          47.000    24012754.801    94231201.066          45.000    24012724.263   101605814.427          47.000    24012729.821   126187842.374          43.000  
C21  22855189.022   119013098.702          51.000                                                    22855184.913    92028517.473          51.000    22855186.289    89688810.410          49.000    22855183.090    96707920.927          51.000    22855183.894   120104960.048          47.000  
C22  22798672.555   118718757.441          50.000                                                    22798666.480    91800893.536          51.000    22798667.766    89466974.298          48.000    22798665.854    96468730.288          50.000    22798667.784   119807919.823          46.000  
C34  23008657.198   119812125.259          48.000                                                    23008656.233    92646337.904          48.000    23008658.306    90290922.834          46.000    23008656.876    97357167.598          47.000    23008653.463   120911319.254          45.000  
C35  25240993.370   131436246.527          42.000                                                    25241007.433   101634782.735          44.000    25241009.989    99050839.996          39.000    25241003.788   106802667.288          42.000    25240990.154   132642084.018          39.000  
C39  25683133.217   133738843.315          42.000                                                    25683139.650   103415365.056          42.000    25683142.098   100786161.958          40.000    25683136.362   108673771.377          41.000    25683129.393   134965813.147          38.000  
> 2026 07 01 07 13 30.0000000  0 14                     
C01  38085662.962   198321931.061          47.000                                                    38085651.329   153355062.660          49.000                                                    38085663.498   161152791.483          46.000                                                  
C02  36971554.968   192520495.514          49.000                                                    36971540.315   148869034.460          51.000                                                    36971538.189   156438652.424          50.000                                                  
C03  36649965.715   190845915.272          49.000                                                    36649956.602   147574145.040          52.000                                                    36649954.833   155077921.688          51.000                                                  
C04  39525058.649   205817283.854          43.000                                                    39525051.662   159150980.800          37.000                                                    39525048.928   167243387.221          43.000                                                  
C06  37007097.777   192705636.008          48.000                                                    37007094.954   149012212.230          50.000    37007096.348   145223762.549          48.000    37007094.650   156589104.883          49.000    37007092.935   194473578.204          45.000  
C07  37983770.272   197791612.188          46.000                                                    37983770.219   152945062.509          48.000    37983772.006   149056633.749          45.000    37983768.879   160721919.598          48.000    37983765.448   199606212.990          43.000  
C09  37306159.553   194262953.728          47.000    37306160.822   150216437.102          49.000                                                                                                    37306159.535   157854562.846          48.000                                                  
C10  38910187.767   202615642.235          43.000    38910196.540   156675291.662          46.000                                                                                                    38910191.841   164641829.598          42.000                                                  
C14  24008771.278   125020050.179          46.000                                                    24008790.487    96673451.804          47.000    24008791.845    94215650.249          44.000    24008761.450   101589046.569          47.000    24008766.989   126167017.685          43.000  
C21  22853843.271   119006090.481          52.000                                                    22853839.036    92023098.297          51.000    22853840.465    89683529.011          49.000    22853837.249    96702226.190          51.000    22853838.035   120097887.528          47.000  
C22  22802993.553   118741258.107          50.000                                                    22802987.531    91818292.471          51.000    22802988.764    89483930.887          48.000    22802986.888    96487013.914          51.000    22802989.014   119830626.942          47.000  
C34  23005150.384   119793865.204          48.000                                                    23005149.687    92632218.103          48.000    23005151.385    90277162.010          46.000    23005149.973    97342329.819          48.000    23005146.703   120892891.689          45.000  
C35  25250392.351   131485189.255          42.000                                                    25250406.361   101672628.343          44.000    25250408.755    99087723.487          38.000    25250402.519   106842437.321          42.000    25250389.081   132691475.747          39.000  
C39  25676409.586   133703833.820          41.000                                                    25676416.144   103388293.802          43.000    25676419.021   100759779.006          40.000    25676412.642   108645323.533          42.000    25676405.977   134930482.438          39.000  
> 2026 07 01 07 13 45.0000000  0 14                     
C01  38085706.455   198322157.471          47.000                                                    38085694.804   153355237.726          50.000                                                    38085706.991   161152975.451          46.000                                                  
C02  36971465.409   192520029.233          49.000                                                    36971450.774   148868673.900          51.000                                                    36971448.647   156438273.522          50.000                                                  
C03  36649928.601   190845721.957          49.000                                                    36649919.488   147573995.557          52.000                                                    36649917.701   155077764.605          51.000                                                  
C04  39525107.914   205817540.584          43.000                                                    39525100.963   159151179.329          38.000                                                    39525098.211   167243595.835          43.000                                                  
C06  37006891.711   192704563.355          48.000                                                    37006888.978   149011382.784          50.000    37006890.336   145222954.195          48.000    37006888.638   156588233.259          49.000    37006886.923   194472495.707          45.000  
C07  37978975.531   197766646.436          46.000                                                    37978975.781   152925757.468          48.000    37978977.586   149037819.518          46.000    37978974.477   160701632.920          48.000    37978971.082   199581018.180          43.000  
C09  37305987.027   194262055.532          47.000    37305988.207   150215742.571          48.000                                                                                                    37305987.063   157853833.003          48.000                                                  
C10  38905488.571   202591171.121          43.000    38905497.023   156656369.170          45.000                                                                                                    38905492.306   164621944.908          41.000                                                  
C14  24004815.702   124999453.397          46.000                                                    24004834.965    96657525.149          47.000    24004836.340    94200128.520          45.000    24004806.035   101572310.060          47.000    24004811.520   126146231.945          43.000  
C21  22852505.381   118999123.714          51.000                                                    22852500.968    92017711.163          51.000    22852502.558    89678278.839          49.000    22852499.359    96696565.133          51.000    22852500.074   120090856.836          47.000  
C22  22807316.820   118763770.522          50.000                                                    22807310.834    91835700.485          52.000    22807312.049    89500896.327          49.000    22807310.155    96505307.089          51.000    22807312.406   119853345.885          47.000  
C34  23001665.299   119775716.807          48.000                                                    23001664.441    92618184.611          48.000    23001666.228    90263485.306          46.000    23001664.835    97327582.770          48.000    23001661.404   120874576.779          45.000  
C35  25259793.941   131534146.147          40.000                                                    25259808.058   101710484.935          44.000    25259810.381    99124617.617          40.000    25259804.144   106882218.822          42.000    25259790.600   132740881.761          39.000  
C39  25669686.348   133668826.884          42.000                                                    25669693.282   103361224.518          43.000    25669696.194   100733397.961          40.000    25669689.708   108616877.760          42.000    25669682.810   134895154.332          39.000  
> 2026 07 01 07 14 00.0000000  0 14                     
C01  38085749.984   198322383.868          47.000                                                    38085738.315   153355412.783          49.000                                                    38085750.484   161153159.410          45.000                                                  
C02  36971375.992   192519563.826          49.000                                                    36971361.375   148868314.027          51.000                                                    36971359.249   156437895.356          49.000                                                  
C03  36649891.648   190845529.416          49.000                                                    36649882.517   147573846.684          52.000                                                    36649880.712   155077608.156          50.000                                                  
C04  39525157.393   205817798.119          43.000                                                    39525150.424   159151378.487          37.000                                                    39525147.673   167243805.106          42.000                                                  
C06  37006682.161   192703472.234          48.000                                                    37006679.427   149010539.066          50.000    37006680.786   145222131.926          48.000    37006679.088   156587346.641          49.000    37006677.390   194471394.575          45.000  
C07  37974184.274   197741698.191          46.000                                                    37974184.703   152906465.964          48.000    37974186.508   149019018.497          46.000    37974183.434   160681360.480          47.000    37974180.164   199555841.038          43.000  
C09  37305810.303   194261135.074          47.000    37305811.464   150215030.832          49.000                                                                                                    37305810.321   157853085.053          47.000                                                  
C10  38900791.269   202566705.774          43.000    38900798.471   156637451.140          45.000                                                                                                    38900793.485   164602064.927          41.000                                                  
C14  24000867.166   124978895.001          46.000                                                    24000886.536    96641628.159          47.000    24000887.894    94184635.708          44.000    24000857.910   101555604.743          47.000    24000863.467   126125484.934          43.000  
C21  22851175.390   118992198.134          51.000                                                    22851170.887    92012355.895          51.000    22851172.495    89673059.731          49.000    22851169.279    96690937.558          51.000    22851169.940   120083867.731          48.000  
C22  22811642.356   118786294.441          50.000                                                    22811636.335    91853117.401          51.000    22811637.550    89517870.431          48.000    22811635.656    96523609.608          50.000    22811637.871   119876076.457          48.000  
C34  22998201.496   119757680.042          48.000                                                    22998200.621    92604237.451          48.000    22998202.461    90249892.749          46.000    22998201.121    97312926.437          47.000    22998197.601   120856374.542          45.000  
C35  25269197.354   131583116.856          38.000                                                    25269212.239   101748352.192          42.000    25269214.490    99161522.171          40.000    25269208.254   106922011.506          43.000    25269194.495   132790301.667          38.000  
C39  25662963.879   133633822.661          42.000                                                    25662970.955   103334157.347          43.000    25662973.761   100707018.983          40.000    25662967.471   108588434.233          42.000    25662960.216   134859828.960          39.000  
> 2026 07 01 07 14 15.0000000  0 14                     
C01  38085793.513   198322610.479          47.000                                                    38085781.844   153355587.996          49.000                                                    38085793.995   161153343.531          45.000                                                  
C02  36971286.826   192519099.513          49.000                                                    36971272.191   148867955.004          51.000                                                    36971270.082   156437518.066          49.000                                                  
C03  36649854.856   190845337.858          49.000                                                    36649845.725   147573698.561          52.000                                                    36649843.920   155077452.500          50.000                                                  
C04  39525207.069   205818056.670          43.000                                                    39525200.100   159151578.399          37.000                                                    39525197.331   167244015.192          42.000                                                  
C06  37006469.145   192702362.881          48.000                                                    37006466.357   149009681.245          50.000    37006467.733   145221295.911          48.000    37006466.036   156586445.199          49.000    37006464.427   194470275.045          45.000  
C07  37969395.751   197716767.722          46.000                                                    37969396.949   152887188.225          48.000    37969398.753   149000230.870          46.000    37969395.858   160661102.495          47.000    37969392.856   199530681.834          43.000  
C09  37305629.343   194260192.569          47.000    37305630.487   150214302.035          49.000                                                                                                    37305629.361   157852319.207          47.000                                                  
C10  38896093.879   202542246.477          42.000    38896101.026   156618537.784          45.000                                                                                                    38896096.327   164582189.842          41.000                                                  
C14  23996926.403   124958375.113          46.000                                                    23996945.987    96625760.942          47.000    23996947.185    94169171.919          45.000    23996917.326   101538930.703          47.000    23996922.668   126104776.784          43.000  
C21  22849853.332   118985313.840          52.000                                                    22849848.811    92007032.545          51.000    22849850.366    89667871.719          49.000    22849847.114    96685343.524          51.000    22849848.007   120076920.281          47.000  
C22  22815970.377   118808829.959          51.000                                                    22815964.105    91870543.278          51.000    22815965.284    89534853.274          48.000    22815963.336    96541921.546          50.000    22815966.017   119898818.714          47.000  
C34  22994759.208   119739755.293          48.000                                                    22994758.368    92590376.905          49.000    22994760.155    90236384.570          46.000    22994758.832    97298361.106          47.000    22994755.294   120838285.343          45.000  
C35  25278603.643   131632101.209          40.000                                                    25278619.064   101786230.030          43.000    25278621.476    99198437.009          40.000    25278615.204   106961815.350          42.000    25278600.963   132839735.476          37.000  
C39  25656241.195   133598821.678          43.000                                                    25656248.718   103307092.697          43.000    25656251.559   100680642.434          40.000    25656245.037   108559993.319          42.000    25656237.550   134824506.867          39.000  
> 2026 07 01 07 14 30.0000000  0 14                     
C01  38085837.042   198322837.151          47.000                                                    38085825.373   153355763.267          49.000                                                    38085837.524   161153527.716          45.000                                                  
C02  36971197.838   192518636.189          49.000                                                    36971183.221   148867596.739          51.000                                                    36971181.095   156437141.591          49.000                                                  
C03  36649818.224   190845147.166          48.000                                                    36649809.111   147573551.110          52.000                                                    36649807.288   155077297.557          50.000                                                  
C04  39525256.906   205818316.107          43.000                                                    39525249.937   159151779.008          38.000                                                    39525247.149   167244226.018          42.000                                                  
C06  37006252.358   192701235.192          48.000                                                    37006249.731   149008809.244          50.000    37006251.143   145220446.082          48.000    37006249.427   156585528.859          49.000    37006248.016   194469137.004          45.000  
C07  37964611.660   197691854.982          46.000                                                    37964612.696   152867924.197          48.000    37964614.519   148981456.612          46.000    37964611.660   160640858.917          48.000    37964608.551   199505540.551          43.000  
C09  37305444.202   194259227.834          47.000    37305445.149   150213556.047          49.000                                                                                                    37305444.220   157851535.293          47.000                                                  
C10  38891397.542   202517793.167          42.000    38891404.654   156599629.075          45.000                                                                                                    38891400.330   164562319.636          41.000                                                  
C14  23992993.020   124937893.537          46.000                                                    23993012.694    96609923.361          48.000    23993013.927    94153736.997          45.000    23992984.032   101522287.790          46.000    23992989.464   126084107.274          43.000  
C21  22848539.209   118978470.620          51.000                                                    22848534.634    92001740.949          51.000    22848536.153    89662714.660          49.000    22848532.901    96679782.854          51.000    22848533.705   120070014.259          47.000  
C22  22820300.273   118831376.855          50.000                                                    22820294.001    91887977.959          51.000    22820295.199    89551844.701          49.000    22820293.233    96560242.739          50.000    22820295.878   119921572.468          47.000  
C34  22991338.451   119721942.528          48.000                                                    22991337.683    92576602.977          49.000    22991339.416    90222960.826          46.000    22991338.165    97283886.799          48.000    22991334.395   120820309.173          44.000  
C35  25288012.827   131681098.940          40.000                                                    25288028.463   101824118.215          42.000    25288031.018    99235361.935          41.000    25288024.782   107001630.027          43.000    25288010.272   132889182.690          36.000  
C39  25649520.834   133563824.125          43.000                                                    25649527.643   103280030.671          42.000    25649530.287   100654268.459          40.000    25649524.104   108531555.182          42.000    25649516.885   134789188.224          39.000  
> 2026 07 01 07 14 45.0000000  0 14                     
C01  38085880.588   198323063.885          47.000                                                    38085868.920   153355938.571          49.000                                                    38085881.071   161153711.942          45.000                                                  
C02  36971109.029   192518173.807          49.000                                                    36971094.412   148867239.200          51.000                                                    36971092.303   156436765.868          49.000                                                  
C03  36649781.771   190844957.306          48.000                                                    36649772.658   147573404.299          52.000                                                    36649770.835   155077143.282          50.000                                                  
C04  39525306.868   205818576.399          43.000                                                    39525299.917   159151980.262          37.000                                                    39525297.129   167244437.529          42.000                                                  
C06  37006032.211   192700089.161          48.000                                                    37006029.620   149007923.055          50.000    37006031.050   145219582.424          48.000    37006029.352   156584597.615          49.000    37006028.030   194467980.480          45.000  
C07  37959830.892   197666960.031          46.000                                                    37959831.839   152848673.912          48.000    37959833.698   148962695.747          45.000    37959830.839   160620629.796          47.000    37959827.551   199480417.209          42.000  
C09  37305254.862   194258240.780          47.000    37305255.613   150212792.805          49.000                                                                                                    37305254.666   157850733.237          47.000                                                  
C10  38886702.295   202493345.944          42.000    38886709.514   156580725.043          44.000                                                                                                    38886705.512   164542454.344          41.000                                                  
C14  23989067.017   124917450.129          47.000                                                    23989086.762    96594115.308          48.000    23989088.049    94138330.851          45.000    23989058.011   101505675.917          46.000    23989063.622   126063476.335          43.000  
C21  22847232.697   118971668.266          51.000                                                    22847228.230    91996480.969          51.000    22847229.624    89657588.408          49.000    22847226.282    96674255.420          50.000    22847227.390   120063149.519          48.000  
C22  22824632.368   118853934.981          50.000                                                    22824626.078    91905421.308          51.000    22824627.275    89568844.575          49.000    22824625.292    96578573.047          50.000    22824627.883   119944337.532          46.000  
C34  22987939.245   119704241.899          48.000                                                    22987938.459    92562915.721          49.000    22987940.210    90209621.558          46.000    22987938.995    97269503.590          47.000    22987935.081   120802446.126          44.000  
C35  25297423.405   131730109.643          41.000                                                    25297439.988   101862016.469          42.000    25297443.294    99272296.650          41.000    25297437.111   107041455.269          43.000    25297421.475   132938643.073          37.000  
C39  25642801.135   133528830.260          43.000                                                    25642807.174   103252971.495          42.000    25642809.855   100627897.264          41.000    25642803.887   108503120.027          42.000    25642796.864   134753873.305          38.000  
> 2026 07 01 07 15 00.0000000  0 14                     
C01  38085924.171   198323290.711          47.000                                                    38085912.520   153356113.961          49.000                                                    38085924.635   161153896.250          45.000                                                  
C02  36971020.363   192517712.399          49.000                                                    36971005.782   148866882.424          51.000                                                    36971003.691   156436390.943          49.000                                                  
C03  36649745.479   190844768.313          49.000                                                    36649736.366   147573258.164          52.000                                                    36649734.526   155076989.707          50.000                                                  
C04  39525357.026   205818837.604          43.000                                                    39525350.075   159152182.274          37.000                                                    39525347.287   167244649.787          42.000                                                  
C06  37005808.581   192698924.848          48.000                                                    37005806.008   149007022.737          50.000    37005807.455   145218704.995          48.000    37005805.757   156583651.515          49.000    37005804.507   194466805.471          45.000  
C07  37955053.591   197642082.990          46.000                                                    37955054.431   152829437.475          48.000    37955056.307   148943948.381          46.000    37955053.448   160600415.214          47.000    37955049.981   199455311.947          43.000  
C09  37305061.073   194257231.480          47.000    37305061.716   150212012.362          49.000                                                                                                    37305060.822   157849913.113          47.000                                                  
C10  38882007.049   202468904.867          42.000    38882014.661   156561825.787          45.000                                                                                                    38882011.838   164522594.088          41.000                                                  
C14  23985148.287   124897044.894          46.000                                                    23985168.282    96578336.776          48.000    23985169.587    94122953.466          45.000    23985139.352   101489095.075          47.000    23985145.213   126042883.935          43.000  
C21  22845934.280   118964906.752          51.000                                                    22845929.795    91991252.560          51.000    22845931.117    89652492.938          49.000    22845927.794    96668761.155          51.000    22845929.152   120056325.973          48.000  
C22  22828966.660   118876504.241          50.000                                                    22828960.317    91922873.289          51.000    22828961.585    89585852.855          49.000    22828959.513    96596912.422          50.000    22828961.782   119967113.852          47.000  
C34  22984561.571   119686653.559          48.000                                                    22984560.856    92549315.319          49.000    22984562.536    90196366.918          46.000    22984561.338    97255211.628          48.000    22984557.372   120784696.416          44.000  
C35  25306838.022   131779133.143          40.000                                                    25306854.443   101899924.621          42.000    25306857.731    99309241.051          41.000    25306851.566   107081290.952          43.000    25306836.145   132988116.359          37.000  
C39  25636083.097   133493840.431          43.000                                                    25636086.778   103225915.425          41.000    25636089.440   100601529.097          41.000    25636084.473   108474688.154          42.000    25636077.986   134718562.474          39.000  
> 2026 07 01 07 15 15.0000000  0 14                     
C01  38085967.753   198323517.570          47.000                                                    38085956.085   153356289.367          49.000                                                    38085968.218   161154080.581          45.000                                                  
C02  36970931.929   192517251.939          49.000                                                    36970917.348   148866526.367          51.000                                                    36970915.257   156436016.784          49.000                                                  
C03  36649709.348   190844580.142          48.000                                                    36649700.217   147573112.663          52.000                                                    36649698.394   155076836.815          50.000                                                  
C04  39525407.363   205819099.635          43.000                                                    39525400.376   159152384.909          37.000                                                    39525397.607   167244862.718          42.000                                                  
C06  37005581.322   192697742.237          48.000                                                    37005578.892   149006108.258          50.000    37005580.357   145217813.768          48.000    37005578.660   156582690.538          49.000    37005577.713   194465612.010          45.000  
C07  37950279.810   197617223.857          45.000                                                    37950280.346   152810214.890          48.000    37950282.276   148925214.518          45.000    37950279.453   160580215.196          47.000    37950275.486   199430224.737          43.000  
C09  37304863.352   194256199.934          47.000    37304863.548   150211214.712          49.000                                                                                                    37304862.673   157849074.899          47.000                                                  
C10  38877314.375   202444470.007          42.000    38877322.202   156542931.323          45.000                                                                                                    38877319.361   164502738.850          41.000                                                  
C14  23981237.026   124876677.713          46.000                                                    23981257.039    96562587.652          48.000    23981258.254    94107604.749          44.000    23981228.127   101472545.119          47.000    23981233.845   126022329.855          43.000  
C21  22844643.494   118958185.883          51.000                                                    22844639.151    91986055.573          51.000    22844640.474    89647428.083          49.000    22844637.150    96663299.915          51.000    22844638.633   120049543.435          48.000  
C22  22833302.793   118899084.535          50.000                                                    22833296.628    91940333.785          51.000    22833297.933    89602869.455          48.000    22833295.842    96615260.749          50.000    22833298.201   119989901.302          47.000  
C34  22981205.375   119669177.590          48.000                                                    22981204.982    92535801.807          49.000    22981206.608    90183196.978          46.000    22981205.518    97241010.990          47.000    22981201.140   120767060.126          45.000  
C35  25316254.729   131828169.164          41.000                                                    25316271.311   101937842.419          42.000    25316274.635    99346194.837          41.000    25316268.470   107121136.759          44.000    25316252.853   133037602.246          36.000  
C39  25629364.058   133458854.858          42.000                                                    25629367.668   103198862.674          41.000    25629371.063   100575164.182          41.000    25629365.809   108446259.782          42.000    25629359.198   134683255.880          38.000  
> 2026 07 01 07 15 30.0000000  0 14                     
C01  38086011.336   198323744.495          47.000                                                    38085999.668   153356464.824          49.000                                                    38086011.801   161154264.960          46.000                                                  
C02  36970843.674   192516792.441          50.000                                                    36970829.110   148866171.072          50.000                                                    36970827.020   156435643.421          49.000                                                  
C03  36649673.378   190844392.815          49.000                                                    36649664.247   147572967.809          51.000                                                    36649662.406   155076684.591          50.000                                                  
C04  39525457.897   205819362.556          43.000                                                    39525450.856   159152588.218          37.000                                                    39525448.069   167245076.367          42.000                                                  
C06  37005350.758   192696541.359          49.000                                                    37005348.203   149005179.664          49.000    37005349.740   145216908.781          48.000    37005348.060   156581714.724          49.000    37005347.006   194464400.115          45.000  
C07  37945509.138   197592382.749          46.000                                                    37945509.817   152791006.233          47.000    37945511.747   148906494.221          45.000    37945508.942   160560029.809          48.000    37945504.993   199405155.723          43.000  
C09  37304660.931   194255146.169          48.000    37304661.164   150210399.894          49.000                                                                                                    37304660.270   157848218.639          47.000                                                  
C10  38872622.917   202420041.405          43.000    38872630.976   156524041.722          46.000                                                                                                    38872628.045   164482888.730          42.000                                                  
C14  23977332.984   124856348.493          48.000                                                    23977353.015    96546867.888          47.000    23977354.141    94092284.641          44.000    23977324.138   101456026.010          47.000    23977329.678   126001814.110          41.000  
C21  22843360.551   118951505.580          51.000                                                    22843356.424    91980889.957          51.000    22843357.585    89642393.798          49.000    22843354.333    96657871.629          51.000    22843355.709   120042801.833          47.000  
C22  22837641.106   118921675.743          50.000                                                    22837635.048    91957802.740          50.000    22837636.388    89619894.284          48.000    22837634.244    96633617.958          50.000    22837636.692   120012699.789          47.000  
C34  22977870.855   119651814.131          48.000                                                    22977870.479    92522375.297          48.000    22977872.213    90170111.818          46.000    22977870.837    97226901.758          47.000    22977866.745   120749537.384          44.000  
C35  25325674.402   131877217.429          42.000                                                    25325690.449   101975769.723          41.000    25325693.969    99383157.870          41.000    25325687.804   107160992.521          44.000    25325671.758   133087100.490          37.000  
C39  25622645.681   133423873.938          42.000                                                    25622649.594   103171813.498          40.000    25622653.508   100548802.765          41.000    25622647.897   108417835.153          43.000    25622641.053   134647953.988          38.000  
> 2026 07 01 07 15 45.0000000  0 14                     
C01  38086054.972   198323971.438          47.000                                                    38086043.286   153356640.297          49.000                                                    38086055.419   161154449.360          45.000                                                  
C02  36970755.508   192516333.862          49.000                                                    36970741.016   148865816.477          50.000                                                    36970738.926   156435270.783          49.000                                                  
C03  36649637.568   190844206.281          49.000                                                    36649628.419   147572823.579          51.000                                                    36649626.579   155076533.022          50.000                                                  
C04  39525508.555   205819626.317          43.000                                                    39525501.497   159152792.186          37.000                                                    39525498.727   167245290.702          42.000                                                  
C06  37005116.692   192695322.203          49.000                                                    37005114.065   149004236.928          49.000    37005115.620   145215990.009          48.000    37005113.958   156580724.052          49.000    37005112.904   194463169.774          45.000  
C07  37940741.915   197567559.673          46.000                                                    37940742.737   152771811.524          47.000    37940744.667   148887787.532          45.000    37940741.915   160539859.083          47.000    37940738.056   199380104.901          43.000  
C09  37304454.258   194254070.038          48.000    37304454.544   150209567.766          49.000                                                                                                    37304453.579   157847344.199          47.000                                                  
C10  38867932.030   202395619.150          43.000    38867941.001   156505157.007          46.000                                                                                                    38867937.766   164463043.747          41.000                                                  
C14  23973436.590   124836057.135          47.000                                                    23973456.263    96531177.388          47.000    23973457.157    94076993.080          44.000    23973427.441   101439537.674          47.000    23973431.819   125981336.584          40.000  
C21  22842085.239   118944865.655          51.000                                                    22842081.272    91975755.568          51.000    22842082.416    89637389.946          49.000    22842079.342    96652476.164          51.000    22842080.879   120036100.991          47.000  
C22  22841981.581   118944277.715          50.000                                                    22841975.523    91975280.000          50.000    22841976.899    89636927.212          48.000    22841974.719    96651983.891          50.000    22841977.221   120035509.119          47.000  
C34  22974558.027   119634563.311          48.000                                                    22974557.723    92509035.886          48.000    22974559.367    90157111.545          47.000    22974557.991    97212884.067          48.000    22974553.899   120732128.288          44.000  
C35  25335096.077   131926277.620          41.000                                                    25335111.873   102013706.231          43.000    25335115.465    99420129.877          41.000    25335109.211   107200857.984          43.000    25335093.039   133136610.759          37.000  
C39  25615926.589   133388897.851          41.000                                                    25615931.521   103144768.094          40.000    25615937.310   100522444.996          41.000    25615930.484   108389414.477          43.000    25615922.872   134612657.013          38.000  
> 2026 07 01 07 16 00.0000000  0 14                     
C01  38086098.573   198324198.454          47.000                                                    38086086.868   153356815.824          49.000                                                    38086099.019   161154633.820          45.000                                                  
C02  36970667.610   192515876.260          49.000                                                    36970653.136   148865462.641          51.000                                                    36970651.046   156434898.958          49.000                                                  
C03  36649601.937   190844020.623          49.000                                                    36649592.771   147572680.016          52.000                                                    36649590.930   155076382.157          50.000                                                  
C04  39525559.357   205819890.968          43.000                                                    39525552.317   159152996.822          37.000                                                    39525549.547   167245505.745          42.000                                                  
C06  37004879.249   192694084.848          48.000                                                    37004876.443   149003280.119          50.000    37004878.016   145215057.522          48.000    37004876.425   156579718.600          49.000    37004875.407   194461921.070          45.000  
C07  37935977.730   197542754.770          45.000                                                    37935978.963   152752630.862          48.000    37935980.893   148869094.518          45.000    37935978.266   160519703.124          47.000    37935974.692   199355072.421          43.000  
C09  37304243.315   194252971.705          47.000    37304243.654   150208718.479          49.000                                                                                                    37304242.546   157846451.718          47.000                                                  
C10  38863243.503   202371203.363          43.000    38863252.383   156486277.311          47.000                                                                                                    38863248.863   164443204.033          41.000                                                  
C14  23969547.200   124815803.599          47.000                                                    23969566.767    96515516.154          48.000    23969567.446    94061730.018          44.000    23969537.908   101423080.078          47.000    23969542.036   125960897.244          42.000  
C21  22840817.861   118938266.074          51.000                                                    22840813.840    91970652.365          51.000    22840815.037    89632416.488          49.000    22840811.910    96647113.476          51.000    22840813.447   120029440.861          48.000  
C22  22846324.039   118966890.391          50.000                                                    22846318.125    91992765.542          51.000    22846319.590    89653968.206          48.000    22846317.303    96670358.535          50.000    22846320.055   120058329.253          47.000  
C34  22971266.607   119617425.277          47.000                                                    22971266.589    92495783.687          48.000    22971268.376    90144196.273          46.000    22971266.625    97198958.025          48.000    22971262.729   120714833.016          45.000  
C35  25344519.842   131975349.528          42.000                                                    25344535.674   102051651.806          43.000    25344539.176    99457110.743          40.000    25344532.904   107240732.974          44.000    25344516.858   133186132.868          37.000  
C39  25609210.427   133353926.992          41.000                                                    25609215.931   103117726.736          41.000    25609221.095   100496091.180          40.000    25609214.626   108360998.085          43.000    25609207.121   134577365.350          39.000  
> 2026 07 01 07 16 15.0000000  0 14                     
C01  38086142.173   198324425.559          47.000                                                    38086130.505   153356991.423          49.000                                                    38086142.655   161154818.343          45.000                                                  
C02  36970579.873   192515419.644          49.000                                                    36970565.453   148865109.563          51.000                                                    36970563.362   156434527.934          49.000                                                  
C03  36649566.450   190843835.834          49.000                                                    36649557.283   147572537.128          52.000                                                    36649555.442   155076232.008          50.000                                                  
C04  39525610.337   205820156.497          43.000                                                    39525603.279   159153202.164          37.000                                                    39525600.545   167245721.521          42.000                                                  
C06  37004638.106   192692829.339          48.000                                                    37004635.301   149002309.267          50.000    37004636.909   145214111.354          48.000    37004635.318   156578698.389          49.000    37004634.425   194460654.048          45.000  
C07  37931217.655   197517968.117          46.000                                                    37931218.870   152733464.328          48.000    37931220.835   148850415.273          45.000    37931218.244   160499561.994          47.000    37931214.778   199330058.376          43.000  
C09  37304028.011   194251851.062          47.000    37304028.404   150207851.933          49.000                                                                                                    37304027.367   157845541.120          47.000                                                  
C10  38858556.279   202346794.135          43.000    38858565.017   156467402.671          46.000                                                                                                    38858561.229   164423369.621          41.000                                                  
C14  23965664.923   124795587.846          47.000                                                    23965684.543    96499884.124          48.000    23965685.132    94046495.431          44.000    23965655.684   101406653.188          48.000    23965659.812   125940496.020          42.000  
C21  22839558.166   118931706.703          51.000                                                    22839554.003    91965580.270          51.000    22839555.343    89627473.347          49.000    22839552.234    96641783.476          51.000    22839553.860   120022821.327          47.000  
C22  22850668.696   118989513.685          51.000                                                    22850662.745    92010259.288          51.000    22850664.157    89671017.192          48.000    22850661.852    96688741.806          50.000    22850664.639   120081160.098          47.000  
C34  22967997.040   119600400.187          47.000                                                    22967997.094    92482618.817          48.000    22967998.863    90131366.111          46.000    22967997.183    97185123.752          48.000    22967993.073   120697651.744          44.000  
C35  25353945.823   132024432.902          42.000                                                    25353961.637   102089606.238          43.000    25353965.086    99494100.258          40.000    25353958.814   107280617.272          43.000    25353942.839   133235666.548          39.000  
C39  25602495.802   133318961.695          42.000                                                    25602501.342   103090689.675          42.000    25602505.898   100469741.545          41.000    25602499.823   108332586.163          42.000    25602492.586   134542079.270          38.000  
> 2026 07 01 07 16 30.0000000  0 14                     
C01  38086185.773   198324652.607          47.000                                                    38086174.141   153357166.975          49.000                                                    38086186.292   161155002.830          45.000                                                  
C02  36970492.190   192514963.863          49.000                                                    36970477.913   148864757.144          51.000                                                    36970475.822   156434157.579          49.000                                                  
C03  36649531.140   190843651.757          49.000                                                    36649521.920   147572394.795          52.000                                                    36649520.097   155076082.433          50.000                                                  
C04  39525661.478   205820422.784          43.000                                                    39525654.438   159153408.081          37.000                                                    39525651.686   167245937.906          42.000                                                  
C06  37004393.551   192691555.528          49.000                                                    37004390.692   149001324.269          49.000    37004392.282   145213151.399          48.000    37004390.709   156577663.302          49.000    37004389.816   194459368.548          45.000  
C07  37926461.099   197493199.642          46.000                                                    37926462.314   152714311.833          48.000    37926464.244   148831749.720          45.000    37926461.689   160479435.627          47.000    37926458.276   199305062.674          43.000  
C09  37303808.525   194250708.075          47.000    37303808.829   150206968.115          49.000                                                                                                    37303807.864   157844612.345          47.000                                                  
C10  38853871.146   202322391.418          43.000    38853879.170   156448533.050          46.000                                                                                                    38853874.470   164403540.523          41.000                                                  
C14  23961789.900   124775409.641          47.000                                                    23961809.502    96484281.128          48.000    23961809.627    94031289.135          45.000    23961780.608   101390256.806          48.000    23961784.825   125920132.688          42.000  
C21  22838306.173   118925187.307          50.000                                                    22838301.974    91960539.080          51.000    22838303.225    89622560.325          49.000    22838300.115    96636485.942          51.000    22838301.992   120016242.117          48.000  
C22  22855015.282   119012147.370          50.000                                                    22855009.349    92027761.077          51.000    22855010.708    89688074.014          48.000    22855008.402    96707133.505          50.000    22855011.208   120104001.446          47.000  
C34  22964749.095   119583488.003          48.000                                                    22964749.274    92469541.252          49.000    22964750.953    90118621.036          46.000    22964749.488    97171381.241          48.000    22964745.128   120680584.405          45.000  
C35  25363374.360   132073527.355          41.000                                                    25363389.745   102127569.235          43.000    25363392.943    99531098.083          40.000    25363386.528   107320510.566          42.000    25363371.232   133285211.388          38.000  
C39  25595782.464   133284002.118          43.000                                                    25595787.664   103063657.020          41.000    25595791.845   100443396.214          40.000    25595786.091   108304178.919          42.000    25595778.908   134506798.946          38.000  
> 2026 07 01 07 16 45.0000000  0 14                     
C01  38086229.392   198324879.841          47.000                                                    38086217.777   153357342.677          49.000                                                    38086229.946   161155187.467          45.000                                                  
C02  36970404.846   192514509.174          49.000                                                    36970390.587   148864405.550          51.000                                                    36970388.496   156433788.115          49.000                                                  
C03  36649496.010   190843468.670          49.000                                                    36649486.754   147572253.226          52.000                                                    36649484.931   155075933.664          50.000                                                  
C04  39525712.798   205820690.067          43.000                                                    39525705.776   159153614.763          37.000                                                    39525703.006   167246155.100          42.000                                                  
C06  37004145.600   192690263.710          49.000                                                    37004142.598   149000325.340          50.000    37004144.206   145212177.862          48.000    37004142.634   156576613.582          48.000    37004141.740   194458064.879          44.000  
C07  37921708.082   197468449.653          46.000                                                    37921709.136   152695173.639          48.000    37921711.013   148813098.103          45.000    37921708.582   160459324.297          47.000    37921705.598   199280085.623          43.000  
C09  37303584.662   194249542.832          47.000    37303585.055   150206067.088          49.000                                                                                                    37303584.091   157843665.497          47.000                                                  
C10  38849186.157   202297995.475          43.000    38849194.090   156429668.690          46.000                                                                                                    38849189.444   164383716.928          41.000                                                  
C14  23957922.096   124755269.126          47.000                                                    23957941.663    96468707.290          48.000    23957941.931    94016111.240          45.000    23957912.894   101373891.071          48.000    23957916.646   125899807.395          42.000  
C21  22837061.810   118918707.978          51.000                                                    22837057.718    91955528.879          51.000    22837058.933    89617677.506          49.000    22837055.752    96631220.978          51.000    22837057.772   120009703.345          47.000  
C22  22859364.173   119034791.525          51.000                                                    22859358.134    92045270.950          51.000    22859359.206    89705138.720          48.000    22859356.972    96725533.719          50.000    22859359.938   120126853.328          46.000  
C34  22961523.039   119566689.102          48.000                                                    22961523.325    92456551.290          49.000    22961524.844    90105961.314          46.000    22961523.415    97157730.758          47.000    22961519.055   120663631.395          45.000  
C35  25372804.808   132122632.781          42.000                                                    25372819.979   102165540.702          44.000    25372822.963    99568104.213          39.000    25372816.494   107360412.826          42.000    25372801.770   133334767.350          38.000  
C39  25589070.269   133249048.778          42.000                                                    25589075.165   103036629.202          42.000    25589077.631   100417055.582          40.000    25589073.039   108275776.718          42.000    25589066.267   134471524.898          37.000  
> 2026 07 01 07 17 00.0000000  0 14                     
C01  38086273.064   198325107.266          47.000                                                    38086261.467   153357518.510          49.000                                                    38086273.635   161155372.252          45.000                                                  
C02  36970317.699   192514055.556          49.000                                                    36970303.457   148864054.798          51.000                                                    36970301.385   156433419.527          49.000                                                  
C03  36649461.022   190843286.536          49.000                                                    36649451.784   147572112.389          52.000                                                    36649449.961   155075785.668          49.000                                                  
C04  39525764.243   205820958.312          43.000                                                    39525757.328   159153822.216          37.000                                                    39525754.522   167246373.083          41.000                                                  
C06  37003894.344   192688953.881          49.000                                                    37003891.092   148999312.481          49.000    37003892.664   145211190.760          48.000    37003891.145   156575549.229          48.000    37003890.573   194456743.027          45.000  
C07  37916958.782   197443718.229          46.000                                                    37916959.747   152676049.808          48.000    37916961.534   148794460.471          45.000    37916959.086   160439228.042          47.000    37916956.137   199255127.312          43.000  
C09  37303356.457   194248355.365          47.000    37303356.868   150205148.863          49.000                                                                                                    37303356.028   157842700.601          46.000                                                  
C10  38844502.239   202273606.422          43.000    38844510.334   156410809.646          46.000                                                                                                    38844505.741   164363898.931          41.000                                                  
C14  23954061.422   124735166.262          46.000                                                    23954080.989    96453162.556          47.000    23954081.382    94000961.711          45.000    23954052.345   101357555.898          47.000    23954056.205   125879520.095          42.000  
C21  22835825.131   118912268.622          51.000                                                    22835821.146    91950549.567          51.000    22835822.343    89612824.786          49.000    22835819.145    96625988.478          50.000    22835820.949   120003204.903          48.000  
C22  22863714.834   119057446.090          51.000                                                    22863708.722    92062788.879          51.000    22863709.759    89722211.267          48.000    22863707.579    96743942.392          49.000    22863710.349   120149715.733          46.000  
C34  22958318.516   119550003.588          49.000                                                    22958319.141    92443648.994          48.000    22958320.267    90093387.049          46.000    22958319.338    97144172.430          47.000    22958314.621   120646792.811          45.000  
C35  25382236.990   132171748.995          40.000                                                    25382252.268   102203520.506          43.000    25382255.073    99605118.466          39.000    25382248.604   107400323.792          41.000    25382234.184   133384334.136          38.000  
C39  25582359.039   133214101.987          42.000                                                    25582363.650   103009606.441          42.000    25582366.330   100390719.873          40.000    25582361.505   108247379.845          41.000    25582354.536   134436257.467          38.000  
> 2026 07 01 07 17 15.0000000  0 14                     
C01  38086316.735   198325334.764          47.000                                                    38086305.156   153357694.420          49.000                                                    38086317.325   161155557.111          45.000                                                  
C02  36970230.748   192513602.941          49.000                                                    36970216.543   148863704.816          50.000                                                    36970214.452   156433051.743          49.000                                                  
C03  36649426.213   190843105.280          48.000                                                    36649416.975   147571972.230          51.000                                                    36649415.135   155075638.382          50.000                                                  
C04  39525815.938   205821227.467          43.000                                                    39525809.005   159154030.360          37.000                                                    39525806.200   167246591.803          42.000                                                  
C06  37003639.335   192687625.989          48.000                                                    37003636.083   148998285.662          49.000    37003637.655   145210190.040          48.000    37003636.154   156574470.196          48.000    37003635.690   194455402.964          45.000  
C07  37912213.091   197419005.343          46.000                                                    37912213.895   152656940.306          48.000    37912215.628   148775836.812          46.000    37912213.162   160419146.849          47.000    37912210.160   199230187.684          43.000  
C09  37303124.178   194247145.700          47.000    37303124.589   150204213.487          49.000                                                                                                    37303123.695   157841717.652          46.000                                                  
C10  38839819.608   202249224.233          43.000    38839827.881   156391955.926          46.000                                                                                                    38839823.378   164344086.495          42.000                                                  
C14  23950207.932   124715100.797          45.000                                                    23950227.516    96437646.770          47.000    23950227.981    93985840.385          45.000    23950198.872   101341251.133          46.000    23950203.000   125859270.544          42.000  
C21  22834596.028   118905868.992          51.000                                                    22834592.222    91945601.000          51.000    22834593.437    89608002.033          49.000    22834590.095    96620788.278          51.000    22834591.721   119996746.563          47.000  
C22  22868067.335   119080110.832          50.000                                                    22868061.241    92080314.682          51.000    22868062.260    89739291.492          48.000    22868060.115    96762359.342          50.000    22868062.814   120172588.402          46.000  
C34  22955136.204   119533431.529          48.000                                                    22955136.597    92430834.422          48.000    22955137.705    90080898.269          46.000    22955136.865    97130706.267          47.000    22955132.219   120630068.718          45.000  
C35  25391670.797   132220875.617          38.000                                                    25391686.611   102241508.370          42.000    25391688.791    99642140.557          39.000    25391682.055   107440243.253          40.000    25391668.760   133433911.457          35.000  
C39  25575648.935   133179161.927          42.000                                                    25575653.563   102982588.925          42.000    25575656.458   100364389.283          40.000    25575651.276   108218988.444          41.000    25575644.075   134400996.862          38.000  
> 2026 07 01 07 17 30.0000000  0 14                     
C01  38086360.389   198325562.289          47.000                                                    38086348.864   153357870.338          49.000                                                    38086361.051   161155741.972          45.000                                                  
C02  36970143.851   192513151.245          49.000                                                    36970129.771   148863355.543          51.000                                                    36970127.680   156432684.714          49.000                                                  
C03  36649391.548   190842924.817          49.000                                                    36649382.309   147571832.688          52.000                                                    36649380.469   155075491.744          50.000                                                  
C04  39525867.758   205821497.447          43.000                                                    39525860.861   159154239.117          37.000                                                    39525858.038   167246811.196          42.000                                                  
C06  37003380.806   192686279.999          48.000                                                    37003377.589   148997244.848          49.000    37003379.162   145209175.690          48.000    37003377.661   156573376.469          48.000    37003377.196   194454044.628          45.000  
C07  37907470.884   197394311.002          46.000                                                    37907471.599   152637845.138          48.000    37907473.315   148757227.126          45.000    37907470.813   160399080.725          47.000    37907467.722   199205266.778          43.000  
C09  37302887.699   194245913.677          47.000    37302887.985   150203260.809          49.000                                                                                                    37302887.056   157840716.532          46.000                                                  
C10  38835137.834   202224848.939          43.000    38835146.465   156373107.522          46.000                                                                                                    38835142.230   164324279.659          42.000                                                  
C14  23946361.249   124695072.651          46.000                                                    23946380.941    96422159.804          47.000    23946381.692    93970747.171          45.000    23946352.440   101324976.685          47.000    23946357.175   125839058.656          42.000  
C21  22833374.698   118899508.925          50.000                                                    22833370.856    91940683.004          51.000    22833372.125    89603209.080          49.000    22833368.783    96615620.214          51.000    22833370.427   119990328.138          48.000  
C22  22872421.908   119102785.597          50.000                                                    22872415.690    92097848.235          51.000    22872416.673    89756379.274          48.000    22872414.653    96780784.432          50.000    22872416.923   120195471.193          46.000  
C34  22951975.674   119516972.951          49.000                                                    22951975.871    92418107.612          48.000    22951977.032    90068495.018          46.000    22951976.067    97117332.320          47.000    22951971.654   120613459.126          45.000  
C35  25401106.624   132270012.310          40.000                                                    25401122.760   102279504.026          42.000    25401124.994    99679170.235          39.000    25401118.168   107480170.900          41.000    25401104.212   133483498.973          36.000  
C39  25568939.850   133144228.901          42.000                                                    25568943.799   102955576.808          43.000    25568947.426   100338063.954          40.000    25568941.440   108190602.754          41.000    25568933.721   134365743.332          38.000  
> 2026 07 01 07 17 45.0000000  0 14                     
C01  38086404.133   198325789.964          47.000                                                    38086392.589   153358046.380          49.000                                                    38086404.776   161155926.972          45.000                                                  
C02  36970057.276   192512700.607          49.000                                                    36970043.213   148863007.099          51.000                                                    36970041.140   156432318.549          49.000                                                  
C03  36649357.060   190842745.318          49.000                                                    36649347.840   147571693.887          52.000                                                    36649345.999   155075345.884          50.000                                                  
C04  39525919.757   205821768.423          43.000                                                    39525912.878   159154448.652          37.000                                                    39525910.072   167247031.383          42.000                                                  
C06  37003118.989   192684916.074          49.000                                                    37003115.665   148996190.156          49.000    37003117.202   145208147.815          48.000    37003115.755   156572268.156          48.000    37003115.415   194452668.178          45.000  
C07  37902732.538   197369635.402          46.000                                                    37902732.877   152618764.476          48.000    37902734.414   148738631.574          46.000    37902731.823   160379029.837          47.000    37902728.589   199180364.796          43.000  
C09  37302647.057   194244659.474          47.000    37302647.110   150202290.982          49.000                                                                                                    37302646.056   157839697.404          46.000                                                  
C10  38830457.955   202200480.711          43.000    38830466.783   156354264.599          47.000                                                                                                    38830462.512   164304478.598          42.000                                                  
C14  23942522.269   124675081.846          47.000                                                    23942541.853    96406701.713          47.000    23942542.550    93955682.091          45.000    23942513.334   101308732.594          47.000    23942518.230   125818884.461          42.000  
C21  22832160.784   118893188.455          51.000                                                    22832157.049    91935795.644          51.000    22832158.371    89598445.968          50.000    22832155.012    96610484.334          50.000    22832156.674   119983949.689          47.000  
C22  22876778.233   119125470.420          50.000                                                    22876772.015    92115389.568          50.000    22876773.123    89773474.639          49.000    22876771.068    96799217.707          50.000    22876773.319   120218364.143          46.000  
C34  22948837.391   119500628.151          48.000                                                    22948836.694    92405468.752          48.000    22948838.160    90056177.504          46.000    22948837.123    97104050.824          47.000    22948833.299   120596964.369          45.000  
C35  25410544.792   132319158.983          40.000                                                    25410560.785   102317507.408          42.000    25410563.197    99716207.433          40.000    25410556.282   107520106.626          41.000    25410541.772   133533096.495          37.000  
C39  25562232.230   133109303.304          42.000                                                    25562236.625   102928570.448          43.000    25562240.146   100311744.226          41.000    25562234.285   108162223.108          41.000    25562226.494   134330497.305          39.000  
> 2026 07 01 07 18 00.0000000  0 14                     
C01  38086447.876   198326017.657          47.000                                                    38086436.315   153358222.433          49.000                                                    38086448.520   161156111.977          45.000                                                  
C02  36969970.897   192512250.891          49.000                                                    36969956.852   148862659.357          51.000                                                    36969954.779   156431953.117          49.000                                                  
C03  36649322.752   190842566.592          49.000                                                    36649313.531   147571555.687          52.000                                                    36649311.673   155075200.657          49.000                                                  
C04  39525971.863   205822040.183          43.000                                                    39525965.019   159154658.815          37.000                                                    39525962.232   167247252.206          41.000                                                  
C06  37002853.652   192683534.068          48.000                                                    37002850.275   148995121.500          49.000    37002851.793   145207106.325          47.000    37002850.346   156571145.154          48.000    37002850.007   194451273.503          45.000  
C07  37897997.390   197344978.476          46.000                                                    37897997.747   152599698.248          48.000    37897999.266   148720050.094          45.000    37897996.675   160358994.122          47.000    37897993.441   199155481.660          43.000  
C09  37302401.805   194243382.802          47.000    37302401.930   150201303.783          49.000                                                                                                    37302400.911   157838659.996          46.000                                                  
C10  38825779.470   202176119.473          42.000    38825788.458   156335427.084          47.000                                                                                                    38825784.151   164284683.201          41.000                                                  
C14  23938690.382   124655128.182          47.000                                                    23938709.930    96391272.353          48.000    23938710.591    93940645.036          44.000    23938681.429   101292518.665          47.000    23938686.343   125798747.724          43.000  
C21  22830954.607   118886907.279          51.000                                                    22830950.747    91930938.662          51.000    22830952.159    89593712.473          49.000    22830948.764    96605380.381          50.000    22830950.283   119977610.884          48.000  
C22  22881136.434   119148165.043          50.000                                                    22881130.252    92132938.476          50.000    22881131.413    89790577.387          48.000    22881129.358    96817658.932          49.000    22881131.574   120241266.970          47.000  
C34  22945720.283   119484397.034          48.000                                                    22945719.711    92392917.836          49.000    22945721.034    90043945.669          45.000    22945720.087    97090861.717          47.000    22945716.334   120580584.348          45.000  
C35  25419984.747   132368315.174          41.000                                                    25420000.257   102355518.155          42.000    25420003.438    99753251.775          40.000    25419996.129   107560050.100          42.000    25419981.477   133582703.677          37.000  
C39  25555526.110   133074385.291          42.000                                                    25555530.971   102901569.949          43.000    25555534.384   100285430.229          40.000    25555528.630   108133849.615          41.000    25555520.875   134295258.946          39.000  
> 2026 07 01 07 18 15.0000000  0 14                     
C01  38086491.727   198326245.382          46.000                                                    38086480.076   153358398.509          49.000                                                    38086492.281   161156297.013          45.000                                                  
C02  36969884.625   192511802.126          49.000                                                    36969870.634   148862312.348          51.000                                                    36969868.561   156431588.461          49.000                                                  
C03  36649288.586   190842388.706          48.000                                                    36649279.366   147571418.139          52.000                                                    36649277.490   155075056.117          50.000                                                  
C04  39526024.202   205822312.804          43.000                                                    39526017.358   159154869.620          38.000                                                    39526014.570   167247473.756          42.000                                                  
C06  37002584.777   192682134.058          48.000                                                    37002581.417   148994038.912          50.000    37002582.918   145206051.262          47.000    37002581.489   156570007.526          49.000    37002581.167   194449860.645          45.000  
C07  37893265.833   197320340.340          46.000                                                    37893266.208   152580646.543          48.000    37893267.727   148701482.766          45.000    37893265.154   160338973.674          47.000    37893261.902   199130617.486          43.000  
C09  37302152.228   194242083.901          47.000    37302152.514   150200299.401          49.000                                                                                                    37302151.495   157837604.539          47.000                                                  
C10  38821101.967   202151765.420          42.000    38821111.545   156316595.091          47.000                                                                                                    38821107.006   164264893.633          42.000                                                  
C14  23934865.571   124635211.595          46.000                                                    23934885.030    96375871.665          48.000    23934885.513    93925635.894          45.000    23934856.422   101276334.882          48.000    23934861.675   125778648.434          43.000  
C21  22829755.917   118880665.320          50.000                                                    22829751.968    91926112.010          51.000    22829753.558    89589008.533          49.000    22829750.110    96600308.301          51.000    22829751.682   119971311.680          48.000  
C22  22885496.637   119170869.412          50.000                                                    22885490.347    92150494.912          50.000    22885491.562    89807687.473          48.000    22885489.507    96836108.081          50.000    22885491.705   120264179.648          47.000  
C34  22942625.207   119468279.826          48.000                                                    22942624.689    92380455.004          49.000    22942625.869    90031799.675          46.000    22942624.939    97077765.158          47.000    22942621.223   120564319.290          45.000  
C35  25429426.989   132417480.678          40.000                                                    25429441.784   102393536.077          42.000    25429445.179    99790303.127          39.000    25429437.889   107600001.121          42.000    25429421.932   133632320.240          36.000  
C39  25548819.813   133039475.201          42.000                                                    25548826.567   102874575.608          42.000    25548829.694   100259122.207          41.000    25548824.173   108105482.582          41.000    25548816.703   134260028.542          38.000  
> 2026 07 01 07 18 30.0000000  0 14                     
C01  38086535.470   198326473.177          47.000                                                    38086523.820   153358574.641          49.000                                                    38086536.024   161156482.103          45.000                                                  
C02  36969798.604   192511354.318          49.000                                                    36969784.630   148861966.083          51.000                                                    36969782.575   156431224.592          49.000                                                  
C03  36649254.599   190842211.663          48.000                                                    36649245.379   147571281.236          52.000                                                    36649243.485   155074912.251          50.000                                                  
C04  39526076.719   205822586.257          43.000                                                    39526069.875   159155081.096          38.000                                                    39526067.105   167247695.983          42.000                                                  
C06  37002312.399   192680716.068          48.000                                                    37002309.111   148992942.425          50.000    37002310.576   145204982.649          47.000    37002309.183   156568855.289          49.000    37002308.915   194448429.649          45.000  
C07  37888537.690   197295721.055          46.000                                                    37888538.190   152561609.420          48.000    37888539.673   148682929.648          45.000    37888537.136   160318968.545          47.000    37888533.776   199105772.327          43.000  
C09  37301897.987   194240762.670          47.000    37301898.756   150199277.748          49.000                                                                                                    37301897.862   157836530.939          47.000                                                  
C10  38816426.484   202127418.556          43.000    38816436.079   156297768.677          47.000                                                                                                    38816431.380   164245109.915          42.000                                                  
C14  23931047.890   124615332.027          47.000                                                    23931067.385    96360499.592          48.000    23931067.885    93910654.653          45.000    23931038.759   101260181.166          48.000    23931044.048   125758586.458          43.000  
C21  22828564.804   118874462.496          51.000                                                    22828560.765    91921315.607          51.000    22828562.320    89584334.081          49.000    22828558.925    96595268.015          51.000    22828560.712   119965051.941          47.000  
C22  22889858.519   119193583.415          51.000                                                    22889852.211    92168058.795          51.000    22889853.640    89824804.823          48.000    22889851.586    96854565.052          50.000    22889853.783   120287102.042          47.000  
C34  22939551.861   119452276.638          48.000                                                    22939551.593    92368080.312          50.000    22939552.575    90019739.599          46.000    22939551.789    97064761.259          48.000    22939548.126   120548169.260          45.000  
C35  25438870.588   132466655.216          42.000                                                    25438885.152   102431560.997          42.000    25438888.583    99827361.324          39.000    25438881.346   107639959.490          42.000    25438865.889   133681945.918          37.000  
C39  25542117.285   133004573.367          42.000                                                    25542124.039   102847587.640          43.000    25542126.970   100232820.421          41.000    25542121.448   108077122.254          42.000    25542113.961   134224806.508          38.000  
