     3.04           OBSERVATION DATA    M: Mixed            RINEX VERSION / TYPE
CONVBIN EX 2.5.0                        20260702 082907 UTC PGM / RUN BY / DATE 
format: RTCM 3                                              COMMENT             
log: C:\Users\Admin\Desktop\540423496360\2026-06-08\0.rtcm3 COMMENT             
0000                                                        MARKER NAME         
                                                            MARKER NUMBER       
                                                            MARKER TYPE         
                                                            OBSERVER / AGENCY   
                    NONE                                    REC # / TYPE / VERS 
NONE                NONE                                    ANT # / TYPE        
  -493099.6505  5551400.7556  3092551.4870                  APPROX POSITION XYZ 
        0.0000        0.0000        0.0000                  ANTENNA: DELTA H/E/N
C   10 C2I L2I C7I L7I C5P L5P C6I L6I C1P L1P              SYS / # / OBS TYPES 
  2026    06    07    16    00   18.0000000     GPS         TIME OF FIRST OBS   
  2026    06    07    17    00   03.0000000     GPS         TIME OF LAST OBS    
C L2I                                                       SYS / PHASE SHIFT   
C L7I                                                       SYS / PHASE SHIFT   
C L5P  0.00000                                              SYS / PHASE SHIFT   
C L6I                                                       SYS / PHASE SHIFT   
C L1P  0.00000                                              SYS / PHASE SHIFT   
  0                                                         GLONASS SLOT / FRQ #
 C1C    0.000 C1P    0.000 C2C    0.000 C2P    0.000        GLONASS COD/PHS/BIS 
                                                            END OF HEADER       
> 2026 06 07 16 00 18.0000000  0 10                     
C01  38585994.389   200927386.490                                                                    38585991.405   163269949.435                                  
C02  36913859.699   192220132.689                                                                    36913842.688   156194534.315                                  
C03  36963958.882   192481006.289                                                                    36963944.837   156406524.546                                  
C06  39099107.279   203599184.894                                                                    39099109.084   165441065.120                                  
C08  39592501.417   206168523.119                                                                    39592500.773   167528842.642                                  
C09  37412234.308   194815337.656    37412237.650   150643545.465                                    37412237.239   158303380.834                                  
C12  21495152.382   111930897.785                                                                    21495149.219    90953039.767                                  
C19  22203492.550   115619426.983                                    22203490.870    87131256.046    22203486.975    93950209.632    22203487.439   116680128.289  
C20  22641468.271   117900005.266                                    22641466.502    88849966.819    22641461.552    95803410.359    22641462.410   118981628.965  
C36  23387860.434   121786769.100                                    23387868.796    91779046.321    23387865.723    98961747.667    23387856.485   122903932.263  
> 2026 06 07 16 00 33.0000000  0 10                     
C01  38585986.259   200927343.923                                                                    38585983.311   163269914.827                                  
C02  36914059.421   192221172.711                                                                    36914042.463   156195379.421                                  
C03  36964117.916   192481834.260                                                                    36964103.907   156407197.326                                  
C06  39104017.347   203624752.814                                                                    39104019.063   165461841.125                                  
C08  39587311.323   206141497.699                                                                    39587310.805   167506882.284                                  
C09  37416757.101   194838887.224    37416759.996   150661755.472                                    37416760.031   158322516.773                                  
C12  21497635.980   111943830.335                                                                    21497633.013    90963548.511                                  
C19  22200921.215   115606037.157                                    22200919.625    87121165.384    22200915.604    93939329.278    22200916.033   116666615.618  
C20  22647086.756   117929264.310                                    22647085.434    88872016.554    22647080.717    95827185.722    22647081.592   119011156.451  
C36  23383103.503   121761998.437                                    23383112.884    91760379.109    23383107.935    98941619.537    23383099.125   122878934.333  
> 2026 06 07 16 00 48.0000000  0 10                     
C01  38585976.681   200927293.973                                                                    38585973.840   163269874.220                                  
C02  36914257.839   192222205.874                                                                    36914240.863   156196218.946                                  
C03  36964275.539   192482655.097                                                                    36964261.619   156407864.316                                  
C06  39108928.041   203650324.173                                                                    39108929.417   165482619.940                                  
C08  39582119.246   206114460.369                                                                    39582118.210   167484912.258                                  
C09  37421284.379   194862460.633    37421286.934   150679983.887                                    37421287.148   158341672.088                                  
C12  21500140.591   111956872.421                                                                    21500137.321    90974146.243                                  
C19  22198369.912   115592752.104                                    22198368.625    87111153.715    22198364.408    93928534.082    22198364.533   116653208.683  
C20  22652723.289   117958615.055                                    22652721.431    88894135.378    22652717.357    95851035.582    22652718.358   119040776.459  
C36  23378357.401   121737283.445                                    23378366.604    91741753.847    23378361.332    98921536.634    23378352.612   122853992.648  
> 2026 06 07 16 01 03.0000000  0 10                     
C01  38585966.031   200927237.865                                                                    38585963.065   163269828.618                                  
C02  36914455.166   192223233.405                                                                    36914438.191   156197053.894                                  
C03  36964432.054   192483470.050                                                                    36964418.170   156408526.532                                  
C06  39113839.735   203675900.113                                                                    39113840.628   165503402.469                                  
C08  39576925.257   206087412.426                                                                    39576923.899   167462933.621                                  
C09  37425816.052   194886058.974    37425818.661   150698231.598                                    37425818.786   158360847.641                                  
C12  21502666.396   111970025.158                                                                    21502664.323    90984833.932                                  
C19  22195839.033   115579573.251                                    22195837.853    87101222.067    22195833.476    93917825.177    22195833.547   116639908.918  
C20  22658377.799   117988058.577                                    22658375.547    88916324.090    22658372.063    95874960.823    22658372.831   119070490.100  
C36  23373622.307   121712625.312                                    23373630.759    91723171.453    23373626.542    98901499.938    23373617.357   122829108.350  
> 2026 06 07 16 01 18.0000000  0 10                     
C01  38585955.596   200927183.056                                                                    38585952.558   163269784.046                                  
C02  36914652.869   192224262.719                                                                    36914635.822   156197890.293                                  
C03  36964588.855   192484286.529                                                                    36964575.042   156409189.981                                  
C06  39118753.591   203701488.000                                                                    39118753.680   165524194.728                                  
C08  39571730.428   206060361.433                                                                    39571729.338   167440952.478                                  
C09  37430353.783   194909689.654    37430356.571   150716504.366                                    37430356.517   158380049.496                                  
C12  21505215.144   111983296.027                                                                    21505212.571    90995617.591                                  
C19  22193329.954   115566508.179                                    22193328.632    87091376.157    22193324.272    93907208.744    22193324.468   116626723.975  
C20  22664051.142   118017602.147                                    22664049.748    88938588.220    22664045.245    95898967.385    22664045.978   119100304.706  
C36  23368899.184   121688031.505                                    23368907.190    91704637.511    23368903.419    98881515.492    23368894.842   122804288.902  
> 2026 06 07 16 01 33.0000000  0 10                     
C01  38585943.945   200927121.868                                                                    38585940.836   163269734.330                                  
C02  36914849.446   192225286.182                                                                    36914832.328   156198721.927                                  
C03  36964744.494   192485096.919                                                                    36964730.663   156409848.477                                  
C06  39123668.073   203727080.054                                                                    39123668.001   165544990.392                                  
C08  39566533.545   206033299.782                                                                    39566533.009   167418962.668                                  
C09  37434896.250   194933344.882    37434899.037   150734796.076                                    37434898.734   158399271.325                                  
C12  21507784.834   111996677.278                                                                    21507781.386    91006490.960                                  
C19  22190841.281   115553549.396                                    22190840.245    87081610.365    22190835.438    93896678.670    22190836.010   116613646.315  
C20  22669742.140   118047237.999                                    22669741.068    88960921.900    22669736.618    95923048.927    22669737.226   119130212.460  
C36  23364186.819   121663494.297                                    23364194.074    91686146.248    23364191.179    98861577.065    23364183.710   122779526.556  
> 2026 06 07 16 01 48.0000000  0 10                     
C01  38585932.455   200927061.750                                                                    38585929.275   163269685.482                                  
C02  36915046.309   192226311.197                                                                    36915029.173   156199554.819                                  
C03  36964900.383   192485908.623                                                                    36964886.606   156410508.054                                  
C06  39128584.770   203752683.628                                                                    39128584.985   165565795.413                                  
C08  39561335.928   206006235.000                                                                    39561336.339   167396970.282                                  
C09  37439445.167   194957032.061    37439447.704   150753112.469                                    37439447.025   158418519.086                                  
C12  21510377.308   112010176.352                                                                    21510373.966    91017460.059                                  
C19  22188374.499   115540704.507                                    22188373.480    87071930.410    22188368.530    93886241.139    22188369.513   116600683.580  
C20  22675451.990   118076973.369                                    22675450.828    88983330.590    22675446.897    95947211.353    22675446.986   119160220.644  
C36  23359486.677   121639021.145                                    23359495.575    91667703.237    23359491.841    98841690.650    23359484.157   122754828.839  
> 2026 06 07 16 02 03.0000000  0 11                     
C01  38585920.519   200926999.343                                                                    38585917.356   163269634.736                                  
C02  36915242.833   192227334.428                                                                    36915225.679   156200386.280                                  
C03  36965055.879   192486718.287                                                                    36965042.174   156411165.967                                  
C06  39133503.290   203778295.371                                                                    39133503.594   165586607.040                                  
C08  39556137.133   205979163.812                                                                    39556138.187   167374972.722                                  
C09  37443999.570   194980747.753    37444002.089   150771450.944                                    37444000.964   158437790.036                                  
C10                                  37211352.432   149834689.597                                                                                                  
C12  21512991.671   112023789.870                                                                    21512988.848    91028522.155                                  
C19  22185929.033   115527970.354                                    22185927.550    87062333.894    22185923.298    93875893.590    22185924.298   116587832.615  
C20  22681180.745   118106804.799                                    22681179.548    89005811.647    22681174.741    95971451.809    22681174.955   119190325.757  
C36  23354798.131   121614608.669                                    23354808.638    91649305.941    23354803.760    98821853.545    23354795.540   122730192.372  
> 2026 06 07 16 02 18.0000000  0 11                     
C01  38585908.690   200926937.576                                                                    38585905.473   163269584.543                                  
C02  36915439.571   192228358.801                                                                    36915422.381   156201218.648                                  
C03  36965211.572   192487528.822                                                                    36965197.902   156411824.591                                  
C06  39138423.901   203803918.021                                                                    39138424.616   165607427.572                                  
C08  39550937.873   205952089.169                                                                    39550939.088   167352972.407                                  
C09  37448560.048   195004494.844    37448562.621   150789813.678                                    37448561.406   158457086.457                                  
C10                                  37212162.095   149837949.443                                                                                                  
C12  21515628.478   112037520.629                                                                    21515625.225    91039679.531                                  
C19  22183505.404   115515349.980                                    22183503.868    87052823.108    22183499.990    93865638.490    22183501.080   116575096.466  
C20  22686928.620   118136735.036                                    22686927.959    89028367.168    22686922.902    95995772.542    22686922.634   119220530.578  
C36  23350121.915   121590259.757                                    23350132.708    91630956.547    23350127.955    98802068.097    23350119.288   122705620.026  
> 2026 06 07 16 02 33.0000000  0 11                     
C01  38585897.539   200926879.328                                                                    38585894.216   163269537.204                                  
C02  36915637.077   192229387.186                                                                    36915619.816   156202054.286                                  
C03  36965367.980   192488343.141                                                                    36965354.346   156412486.284                                  
C06  39143347.192   203829554.491                                                                    39143348.532   165628259.264                                  
C08  39545738.773   205925014.088                                                                    39545739.327   167330971.730                                  
C09  37453126.906   195028276.161    37453129.783   150808202.857                                    37453128.604   158476410.699                                  
C10                                  37212969.739   149841200.848                                                                                                  
C12  21518288.317   112051371.581                                                                    21518284.958    91050934.562                                  
C19  22181104.290   115502846.480                                    22181102.718    87043400.420    22181098.965    93855478.379    22181100.144   116562478.261  
C20  22692696.061   118166766.856                                    22692695.847    89050999.247    22692691.201    96020175.844    22692689.218   119250837.916  
C36  23345458.779   121565977.236                                    23345469.286    91612657.211    23345464.747    98782336.611    23345455.527   122681114.746  
> 2026 06 07 16 02 48.0000000  0 11                     
C01  38585884.102   200926808.934                                                                    38585880.778   163269479.979                                  
C02  36915832.350   192230403.935                                                                    36915815.088   156202880.476                                  
C03  36965522.100   192489145.561                                                                    36965508.484   156413138.316                                  
C06  39148270.072   203855188.917                                                                    39148271.984   165649089.325                                  
C08  39540536.690   205897923.014                                                                    39540536.332   167308958.046                                  
C09  37457697.141   195052075.900    37457700.554   150826606.349                                    37457699.160   158495749.943                                  
C10                                  37213772.130   149844431.590                                                                                                  
C12  21520968.117   112065326.896                                                                    21520964.275    91062274.382                                  
C19  22178722.635   115490444.317                                    22178721.313    87034054.089    22178717.310    93845400.599    22178718.525   116549962.311  
C20  22698480.121   118196884.435                                    22698479.853    89073695.931    22698475.064    96044648.806    22698473.688   119281231.821  
C36  23340805.489   121541745.434                                    23340815.924    91594396.097    23340811.582    98762646.347    23340801.307   122656660.688  
> 2026 06 07 16 03 03.0000000  0 11                     
C01  38585871.862   200926744.864                                                                    38585868.556   163269427.929                                  
C02  36916028.963   192231427.485                                                                    36916011.683   156203712.180                                  
C03  36965677.471   192489954.520                                                                    36965663.891   156413795.674                                  
C06  39153196.008   203880839.751                                                                    39153198.313   165669932.765                                  
C08  39535335.035   205870834.426                                                                    39535333.409   167286946.380                                  
C09  37462274.738   195075912.494    37462278.383   150845038.282                                    37462276.489   158515119.110                                  
C10                                  37214572.787   149847656.045                                                                                                  
C12  21523671.700   112079405.120                                                                    21523668.376    91073714.068                                  
C19  22176364.031   115478162.122                                    22176362.906    87024798.171    22176358.581    93835420.302    22176359.636   116537567.430  
C20  22704283.980   118227106.075                                    22704283.640    89096471.047    22704278.441    96069206.345    22704277.529   119311730.714  
C36  23336165.511   121517582.800                                    23336175.232    91576187.111    23336170.943    98743012.286    23336161.437   122632276.398  
> 2026 06 07 16 03 18.0000000  0 11                     
C01  38585861.909   200926692.786                                                                    38585858.424   163269385.585                                  
C02  36916227.988   192232463.533                                                                    36916210.601   156204554.051                                  
C03  36965835.165   192490775.748                                                                    36965821.638   156414462.970                                  
C06  39158126.125   203906512.580                                                                    39158128.644   165690794.027                                  
C08  39530134.881   205843754.093                                                                    39530132.272   167264941.415                                  
C09  37466860.662   195099791.566    37466864.396   150863503.086                                    37466862.073   158534522.790                                  
C10                                  37215372.569   149850878.483                                                                                                  
C12  21526399.817   112093611.829                                                                    21526397.280    91085258.190                                  
C19  22174029.586   115466005.738                                    22174028.443    87015637.074    22174023.868    93825542.233    22174024.923   116525299.513  
C20  22710108.745   118257437.314                                    22710108.585    89119328.755    22710102.420    96093852.921    22710102.509   119342340.213  
C36  23331539.721   121493495.000                                    23331548.334    91558034.518    23331544.510    98723439.028    23331535.701   122607967.592  
> 2026 06 07 16 03 33.0000000  0 11                     
C01  38585850.723   200926634.415                                                                    38585847.202   163269338.154                                  
C02  36916425.887   192233493.815                                                                    36916408.429   156205391.223                                  
C03  36965991.698   192491590.918                                                                    36965978.225   156415125.367                                  
C06  39163056.885   203932189.094                                                                    39163059.601   165711658.250                                  
C08  39524932.726   205816663.835                                                                    39524929.706   167242928.379                                  
C09  37471451.250   195123694.760    37471454.895   150881986.547                                    37471452.357   158553946.074                                  
C10                                  37216168.115   149854084.781                                                                                                  
C12  21529149.235   112107928.725                                                                    21529146.161    91096891.834                                  
C19  22171715.780   115453957.066                                    22171714.762    87006557.138    22171710.223    93815751.691    22171710.759   116513140.280  
C20  22715951.076   118287859.706                                    22715950.218    89142255.164    22715944.214    96118573.576    22715944.858   119373041.715  
C36  23326924.885   121469463.760                                    23326933.248    91539924.529    23326929.281    98703911.714    23326920.990   122583715.861  
> 2026 06 07 16 03 48.0000000  0 11                     
C01  38585837.982   200926568.028                                                                    38585834.426   163269284.190                                  
C02  36916622.321   192234516.522                                                                    36916604.792   156206222.261                                  
C03  36966146.765   192492398.325                                                                    36966133.364   156415781.447                                  
C06  39167987.735   203957867.404                                                                    39167991.041   165732523.945                                  
C08  39519728.034   205789562.002                                                                    39519725.389   167220905.938                                  
C09  37476046.090   195147620.309    37476049.521   150900487.273                                    37476046.984   158573387.536                                  
C10                                  37216959.409   149857273.604                                                                                                  
C12  21531919.380   112122354.017                                                                    21531916.074    91108613.565                                  
C19  22169422.220   115442014.462                                    22169421.201    86997557.152    22169416.895    93806047.370    22169417.288   116501088.095  
C20  22721810.740   118318371.369                                    22721808.792    89165248.827    22721804.325    96143366.773    22721804.664   119403833.313  
C36  23322320.789   121445487.197                                    23322329.294    91521855.785    23322324.630    98684428.861    23322316.768   122559519.356  
> 2026 06 07 16 04 03.0000000  0 11                     
C01  38585826.903   200926510.198                                                                    38585823.383   163269237.192                                  
C02  36916820.489   192235548.312                                                                    36916802.834   156207060.671                                  
C03  36966303.530   192493214.560                                                                    36966290.182   156416444.709                                  
C06  39172922.355   203983564.042                                                                    39172926.107   165753404.597                                  
C08  39514523.931   205762465.275                                                                    39514522.233   167198887.623                                  
C09  37480648.275   195171584.738    37480651.634   150919018.067                                    37480648.882   158592860.588                                  
C10                                  37217749.756   149860457.672                                    37217747.272   157480467.891                                  
C12  21534713.363   112136904.245                                                                    21534710.771    91120436.850                                  
C19  22167152.157   115430194.739                                    22167151.299    86988649.788    22167146.760    93796442.905    22167147.475   116489159.970  
C20  22727690.595   118348988.785                                    22727688.648    89188322.198    22727685.485    96168245.885    22727684.734   119434731.609  
C36  23317730.147   121421582.019                                    23317738.403    91503840.803    23317732.971    98665003.999    23317725.805   122535394.868  
> 2026 06 07 16 04 18.0000000  0 11                     
C01  38585815.056   200926448.216                                                                    38585811.464   163269186.833                                  
C02  36917017.959   192236576.425                                                                    36917000.287   156207896.098                                  
C03  36966459.580   192494026.825                                                                    36966446.179   156417104.741                                  
C06  39177857.940   204009266.216                                                                    39177861.907   165774289.733                                  
C08  39509318.452   205735360.930                                                                    39509317.862   167176863.134                                  
C09  37485255.606   195195575.235    37485258.822   150937569.043                                    37485255.785   158612354.841                                  
C10                                  37218536.637   149863627.199                                    37218534.117   157483803.394                                  
C12  21537529.235   112151566.625                                                                    21537526.590    91132351.249                                  
C19  22164903.465   115418485.306                                    22164902.447    86979825.514    22164897.998    93786928.041    22164898.855   116477343.111  
C20  22733587.980   118379698.962                                    22733586.712    89211465.497    22733583.263    96193200.410    22733582.244   119465723.533  
C36  23313150.352   121397735.405                                    23313158.358    91485869.935    23313153.283    98645626.704    23313146.493   122511329.424  
> 2026 06 07 16 04 33.0000000  0 11                     
C01  38585800.761   200926373.756                                                                    38585797.223   163269126.317                                  
C02  36917213.143   192237592.549                                                                    36917195.417   156208721.770                                  
C03  36966613.254   192494826.890                                                                    36966599.817   156417754.855                                  
C06  39182792.846   204034965.529                                                                    39182796.795   165795172.542                                  
C08  39504110.168   205708240.801                                                                    39504110.311   167154825.839                                  
C09  37489866.403   195219583.373    37489869.441   150956133.643                                    37489866.225   158631863.385                                  
C10                                  37219318.549   149866775.696                                                                                                  
C12  21540365.263   112166332.804                                                                    21540361.528    91144349.967                                  
C19  22162674.430   115406878.019                                    22162673.251    86971078.212    22162668.944    93777496.172    22162669.766   116465629.341  
C20  22739501.984   118410493.534                                    22739500.250    89234672.361    22739496.212    96218223.486    22739496.248   119496800.630  
C36  23308580.564   121373938.969                                    23308588.659    91467936.914    23308584.746    98626290.222    23308576.222   122487314.684  
> 2026 06 07 16 04 48.0000000  0 11                     
C01  38585787.841   200926306.197                                                                    38585784.232   163269071.427                                  
C02  36917409.774   192238616.070                                                                    36917391.887   156209553.460                                  
C03  36966768.268   192495634.079                                                                    36966754.866   156418410.759                                  
C06  39187731.057   204060681.239                                                                    39187734.953   165816068.660                                  
C08  39498902.634   205681124.325                                                                    39498903.170   167132791.507                                  
C09  37494484.224   195243628.513    37494487.154   150974726.843                                    37494484.063   158651402.024                                  
C10                                  37220098.890   149869918.205                                    37220097.728   157490419.352                                  
C12  21543224.968   112181222.150                                                                    21543221.287    91156448.750                                  
C19  22160468.785   115395392.386                                    22160467.713    86962422.579    22160463.299    93768163.170    22160463.853   116454038.332  
C20  22745435.697   118441391.675                                    22745433.892    89257957.270    22745429.782    96243330.726    22745430.121   119527982.241  
C36  23304024.213   121350212.111                                    23304031.808    91450056.342    23304029.217    98607010.265    23304018.781   122463370.175  
> 2026 06 07 16 05 03.0000000  0 11                     
C01  38585777.763   200926253.593                                                                    38585774.118   163269028.672                                  
C02  36917609.388   192239655.014                                                                    36917591.269   156210397.683                                  
C03  36966926.194   192496456.420                                                                    36966912.739   156419078.986                                  
C06  39192674.630   204086421.362                                                                    39192677.650   165836984.617                                  
C08  39493697.406   205654019.590                                                                    39493697.620   167110766.722                                  
C09  37499110.514   195267718.523    37499113.551   150993354.771                                    37499110.674   158670977.132                                  
C10                                  37220879.123   149873060.782                                                                                                  
C12  21546109.546   112196242.567                                                                    21546106.384    91168654.074                                  
C19  22158288.139   115384036.624                                    22158287.120    86953864.817    22158282.796    93758935.682    22158283.296   116442578.380  
C20  22751390.852   118472401.286                                    22751389.226    89281326.197    22751385.259    96268528.528    22751385.152   119559276.346  
C36  23299482.533   121326562.856                                    23299490.467    91432234.234    23299487.715    98587793.346    23299477.280   122439503.983  
> 2026 06 07 16 05 18.0000000  0 11                     
C01  38585767.685   200926201.049                                                                    38585764.058   163268985.960                                  
C02  36917809.093   192240694.516                                                                    36917790.902   156211242.356                                  
C03  36967084.210   192497279.069                                                                    36967070.737   156419747.460                                  
C06  39197620.043   204112170.910                                                                    39197622.276   165857908.248                                  
C08  39488491.480   205626911.863                                                                    39488491.373   167088739.462                                  
C09  37503742.522   195291838.517    37503745.756   151012005.872                                    37503743.344   158690576.587                                  
C10                                  37221656.532   149876191.932                                                                                                  
C12  21549016.533   112211379.211                                                                    21549013.745    91180953.822                                  
C19  22156129.489   115372796.005                                    22156128.721    86945393.837    22156124.182    93749801.756    22156124.843   116431234.633  
C20  22757364.306   118503507.324                                    22757363.037    89304767.781    22757358.391    96293804.687    22757359.195   119590667.775  
C36  23294952.539   121302976.315                                    23294961.331    91414459.360    23294958.686    98568627.368    23294948.144   122415700.988  
> 2026 06 07 16 05 33.0000000  0 11                     
C01  38585756.785   200926144.458                                                                    38585753.229   163268940.003                                  
C02  36918008.064   192241730.427                                                                    36917989.838   156212084.124                                  
C03  36967241.475   192498097.915                                                                    36967228.109   156420412.835                                  
C06  39202566.439   204137925.683                                                                    39202567.868   165878836.098                                  
C08  39483284.072   205599797.090                                                                    39483283.893   167066706.502                                  
C09  37508379.640   195315984.347    37508382.839   151030676.928                                    37508380.677   158710197.019                                  
C10                                  37222430.475   149879308.563                                                                                                  
C12  21551944.729   112226627.844                                                                    21551941.710    91193344.612                                  
C19  22153992.140   115361666.570                                    22153991.622    86937006.650    22153986.958    93740758.169    22153987.726   116420003.094  
C20  22763354.896   118534705.475                                    22763354.520    89328278.827    22763349.338    96319155.742    22763350.965   119622152.182  
C36  23290433.821   121279448.325                                    23290443.327    91396728.623    23290440.361    98549508.963    23290429.300   122391957.139  
> 2026 06 07 16 05 48.0000000  0 11                     
C01  38585746.475   200926091.072                                                                    38585742.937   163268896.615                                  
C02  36918207.786   192242770.054                                                                    36918189.488   156212928.896                                  
C03  36967399.384   192498920.224                                                                    36967386.018   156421081.029                                  
C06  39207515.336   204163692.869                                                                    39207515.604   165899774.088                                  
C08  39478076.806   205572682.614                                                                    39478076.538   167044673.798                                  
C09  37513022.924   195340163.251    37513026.140   151049373.570                                    37513023.889   158729844.339                                  
C10                                  37223202.113   149882416.181                                                                                                  
C12  21554895.977   112241995.740                                                                    21554892.403    91205832.270                                  
C19  22151877.609   115350655.735                                    22151877.430    86928708.856    22151872.463    93731810.968    22151873.499   116408891.259  
C20  22769365.481   118566002.966                                    22769364.087    89351864.715    22769360.263    96344587.477    22769361.139   119653736.807  
C36  23285928.022   121255986.063                                    23285937.832    91379047.433    23285933.472    98530444.017    23285923.751   122368279.662  
> 2026 06 07 16 06 03.0000000  0 11                     
C01  38585735.235   200926032.765                                                                    38585731.840   163268849.243                                  
C02  36918406.651   192243805.221                                                                    36918388.174   156213770.045                                  
C03  36967556.381   192499737.822                                                                    36967543.069   156421745.406                                  
C06  39212465.037   204189464.280                                                                    39212464.376   165920715.508                                  
C08  39472868.254   205545560.325                                                                    39472867.790   167022634.732                                  
C09  37517670.317   195364366.899    37517674.106   151068089.346                                    37517671.515   158749511.774                                  
C10                                  37223970.106   149885508.479                                                                                                  
C12  21557868.561   112257474.640                                                                    21557864.987    91218410.116                                  
C19  22149784.289   115339755.502                                    22149784.324    86920494.410    22149778.428    93722953.631    22149780.089   116397891.027  
C20  22775393.560   118597391.422                                    22775392.059    89375519.129    22775388.450    96370093.152    22775388.557   119685413.203  
C36  23281433.319   121232581.412                                    23281443.004    91361409.661    23281437.929    98511425.880    23281430.049   122344660.263  
> 2026 06 07 16 06 18.0000000  0 12                     
C01  38585722.959   200925968.736                                                                    38585719.421   163268797.219                                  
C02  36918604.496   192244835.151                                                                    36918585.859   156214606.935                                  
C03  36967712.270   192500549.972                                                                    36967699.119   156422405.327                                  
C06  39217415.346   204215239.009                                                                    39217414.096   165941659.544                                  
C07                                                                                                  37097918.284   156973433.783                                  
C08  39467658.094   205518429.603                                                                    39467657.522   167000588.806                                  
C09  37522322.285   195388594.443    37522326.609   151086823.649                                    37522323.804   158769198.658                                  
C10                                  37224734.382   149888584.798                                                                                                  
C12  21560862.390   112273063.809                                                                    21560858.852    91231077.599                                  
C19  22147712.197   115328965.236                                    22147712.268    86912362.829    22147706.103    93714185.649    22147707.640   116387001.770  
C20  22781438.776   118628869.907                                    22781437.382    89399241.405    22781433.397    96395671.955    22781432.361   119717180.456  
C36  23276949.499   121209233.564                                    23276959.452    91343814.684    23276954.306    98492453.894    23276946.104   122321098.212  
> 2026 06 07 16 06 33.0000000  0 12                     
C01  38585710.897   200925906.268                                                                    38585707.341   163268746.440                                  
C02  36918802.700   192245867.113                                                                    36918784.098   156215445.484                                  
C03  36967868.481   192501363.854                                                                    36967855.419   156423066.678                                  
C06  39222367.621   204241024.244                                                                    39222365.709   165962612.179                                  
C07                                                                                                  37098616.659   156976390.368                                  
C08  39462447.505   205491297.747                                                                    39462447.129   166978541.993                                  
C09  37526980.668   195412853.110    37526985.135   151105581.969                                    37526982.491   158788910.821                                  
C10                                  37225496.103   149891650.814                                                                                                  
C12  21563878.592   112288770.361                                                                    21563874.715    91243840.436                                  
C19  22145662.709   115318292.356                                    22145662.495    86904319.702    22145656.526    93705513.052    22145657.741   116376230.962  
C20  22787502.414   118660445.495                                    22787501.217    89423036.863    22787497.554    96421329.679    22787495.839   119749045.714  
C36  23272477.972   121185949.752                                    23272488.408    91326267.945    23272482.332    98473533.917    23272474.649   122297600.739  
> 2026 06 07 16 06 48.0000000  0 12                     
C01  38585698.210   200925840.183                                                                    38585694.637   163268692.745                                  
C02  36919000.313   192246895.967                                                                    36918981.783   156216281.505                                  
C03  36968024.138   192502174.395                                                                    36968011.112   156423725.309                                  
C06  39227321.111   204266814.826                                                                    39227318.502   165983569.154                                  
C07                                                                                                  37099313.193   156979331.310                                  
C08  39457235.754   205464159.704                                                                    39457235.486   166956490.143                                  
C09  37531644.483   195437137.757    37531648.718   151124360.387                                    37531646.020   158808644.067                                  
C10                                  37226254.303   149894702.577                                                                                                  
C12  21566916.022   112304589.083                                                                    21566913.038    91256694.451                                  
C19  22143634.772   115307731.861                                    22143634.218    86896361.267    22143628.714    93696931.798    22143629.697   116365573.594  
C20  22793583.779   118692112.916                                    22793584.279    89446901.514    22793579.133    96447062.031    22793577.918   119781003.688  
C36  23268018.007   121162724.761                                    23268028.550    91308765.584    23268022.528    98454661.792    23268014.201   122274162.710  
> 2026 06 07 16 07 03.0000000  0 12                     
C01  38585686.220   200925777.887                                                                    38585682.682   163268642.106                                  
C02  36919198.713   192247929.052                                                                    36919180.058   156217120.955                                  
C03  36968180.546   192502988.941                                                                    36968167.412   156424387.194                                  
C06  39232277.120   204292617.941                                                                    39232273.725   166004536.326                                  
C07                                                                                                  37100005.725   156982267.0551                                 
C08  39452024.432   205437022.943                                                                    39452024.164   166934439.313                                  
C09  37536314.641   195461455.669    37536318.662   151143164.503                                    37536315.785   158828404.334                                  
C10                                  37227010.002   149897745.520                                                                                                  
C12  21569976.771   112320527.379                                                                    21569974.574    91269645.605                                  
C19  22141629.867   115297291.301                                    22141628.902    86888493.201    22141623.381    93688447.980    22141624.828   116355037.240  
C20  22799684.335   118723879.339                                    22799684.549    89470840.805    22799679.403    96472874.830    22799678.867   119813061.569  
C36  23263570.657   121139565.968                                    23263580.539    91291313.059    23263576.626    98435843.404    23263566.655   122250791.451  
> 2026 06 07 16 07 18.0000000  0 11                     
C01  38585673.015   200925709.272                                                                    38585669.513   163268586.360                                  
C02  36919396.005   192248956.263                                                                    36919377.385   156217955.655                                  
C03  36968335.756   192503797.351                                                                    36968322.694   156425044.091                                  
C06  39237233.576   204318423.559                                                                    39237229.359   166025505.455                                  
C07                                                                                                  37100694.576   156985180.041                                  
C08  39446811.663   205409877.365                                                                    39446811.591   166912381.355                                  
C09  37540989.249   195485796.570    37540993.002   151161986.416                                    37540989.750   158848183.277                                  
C12  21573058.338   112336574.975                                                                    21573055.926    91282685.608                                  
C19  22139646.048   115286960.643                                    22139644.833    86880707.954    22139639.544    93680053.467    22139640.938   116344611.802  
C20  22805801.902   118755734.529                                    22805800.901    89494846.951    22805795.898    96498759.744    22805796.059   119845208.965  
C36  23259133.868   121116463.202                                    23259143.178    91273902.777    23259140.569    98417070.540    23259129.884   122227476.719  
> 2026 06 07 16 07 33.0000000  0 11                     
C01  38585658.577   200925634.162                                                                    38585655.092   163268525.329                                  
C02  36919592.135   192249977.481                                                                    36919573.498   156218785.455                                  
C03  36968489.787   192504599.526                                                                    36968476.654   156425695.920                                  
C06  39242189.550   204344231.233                                                                                                                                  
C07                                                                                                  37101379.084   156988074.330                                  
C08  39441597.267   205382722.936                                                                    39441596.856   166890316.202                                  
C09  37545668.378   195510160.271    37545671.720   151180825.955                                    37545668.485   158867980.787                                  
C12  21576160.865   112352731.723                                                                    21576158.471    91295814.292                                  
C19  22137683.172   115276739.945                                    22137682.189    86873005.587    22137677.078    93671748.303    22137678.043   116334297.325  
C20  22811936.320   118787678.171                                    22811935.266    89518919.770    22811930.119    96524716.529    22811931.370   119877445.688  
C36  23254708.176   121093416.326                                    23254718.201    91256534.623    23254714.216    98398343.113    23254703.816   122204218.418  
> 2026 06 07 16 07 48.0000000  0 10                     
C01  38585644.818   200925562.802                                                                    38585641.512   163268467.358                                  
C02  36919789.052   192251002.924                                                                    36919770.468   156219618.711                                  
C03  36968644.497   192505405.680                                                                    36968631.507   156426351.002                                  
C07                                                                                                  37102061.306   156990958.801                                  
C08  39436382.944   205355569.996                                                                    39436382.282   166868252.229                                  
C09  37550353.725   195534556.902    37550356.799   151199690.924                                    37550353.725   158887804.991                                  
C12  21579286.604   112369007.795                                                                    21579283.584    91309039.914                                  
C19  22135743.311   115266639.535                                    22135742.542    86865393.894    22135737.539    93663540.900    22135738.289   116324104.272  
C20  22818089.607   118819720.267                                    22818088.642    89543066.815    22818083.925    96550753.346    22818085.068   119909781.778  
C36  23250295.171   121070435.460                                    23250304.856    91239216.218    23250300.013    98379669.343    23250289.989   122181026.751  
> 2026 06 07 16 08 03.0000000  0 10                     
C01  38585631.219   200925492.268                                                                    38585627.967   163268410.034                                  
C02  36919986.290   192252029.652                                                                    36919967.510   156220452.998                                  
C03  36968799.422   192506212.901                                                                    36968786.467   156427006.926                                  
C08  39431168.155   205328415.696                                                                    39431167.583   166846187.196                                  
C09  37555044.380   195558983.571    37555047.596   151218579.151                                    37555045.094   158907653.622                                  
C10                                  37229999.061   149909764.3611                                                                                                 
C12  21582434.804   112385400.206                                                                    21582431.087    91322360.069                                  
C19  22133826.125   115256656.690                                    22133825.589    86857870.799    22133820.425    93655429.032    22133821.122   116314029.829  
C20  22824261.746   118851857.811                                    22824260.085    89567285.752    22824255.814    96576867.702    22824257.708   119942214.180  
C36  23245894.245   121047517.744                                    23245902.018    91221945.402    23245899.051    98361046.874    23245888.920   122157898.787  
> 2026 06 07 16 08 18.0000000  0 10                     
C01  38585618.961   200925428.824                                                                    38585615.763   163268358.480                                  
C02  36920184.958   192253063.941                                                                    36920166.088   156221293.426                                  
C03  36968955.758   192507027.399                                                                    36968943.071   156427668.773                                  
C08  39425954.403   205301266.405                                                                    39425954.099   166824126.223                                  
C09  37559741.985   195583446.371    37559745.291   151237495.324                                    37559743.736   158927531.659                                  
C10                                  37230741.483   149912748.247                                                                                                  
C12  21585606.520   112401915.148                                                                    21585603.661    91335779.794                                  
C19  22131932.867   115246797.757                                    22131932.384    86850441.068    22131926.988    93647417.841    22131927.899   116304080.452  
C20  22830453.345   118884096.924                                    22830451.790    89591581.226    22830447.180    96603064.565    22830448.824   119974749.028  
C36  23241506.453   121024669.327                                    23241513.582    91204726.809    23241512.063    98342480.705    23241501.235   122134840.748  
> 2026 06 07 16 08 33.0000000  0 10                     
C01  38585611.403   200925389.482                                                                    38585608.204   163268326.509                                  
C02  36920388.307   192254122.785                                                                    36920369.491   156222153.802                                  
C03  36969116.776   192507866.236                                                                    36969104.214   156428350.401                                  
C08  39420744.832   205274139.161                                                                    39420744.707   166802083.127                                  
C09  37564449.740   195607962.308    37564453.153   151256452.607                                    37564452.509   158947452.857                                  
C10                                  37231484.352   149915739.043                                                                                                  
C12  21588804.771   112418569.552                                                                    21588802.270    91349312.854                                  
C19  22130066.751   115237079.929                                    22130066.251    86843117.672    22130060.586    93639521.317    22130061.801   116294273.476  
C20  22836666.940   118916454.313                                    22836667.012    89615965.868    22836661.955    96629357.582    22836661.526   120007403.262  
C36  23237134.599   121001907.276                                    23237143.194    91187573.265    23237139.639    98323984.682    23237130.168   122111869.839  
> 2026 06 07 16 08 48.0000000  0 10                     
C01  38585601.700   200925338.392                                                                    38585598.430   163268285.001                                  
C02  36920589.459   192255170.371                                                                    36920570.786   156223005.033                                  
C03  36969275.649   192508693.570                                                                    36969262.873   156429022.670                                  
C08  39415532.510   205246998.198                                                                    39415532.635   166780028.912                                  
C09  37569160.979   195632495.433    37569164.338   151275423.117                                    37569163.802   158967387.995                                  
C10                                  37232221.824   149918709.166                                                                                                  
C12  21592022.911   112435327.532                                                                    21592020.695    91362930.099                                  
C19  22128220.899   115227467.531                                    22128220.255    86835873.746    22128214.555    93631710.452    22128215.806   116284572.882  
C20  22842896.439   118948894.067                                    22842896.439    89640412.579    22842891.168    96655717.518    22842890.989   120040140.653  
C36  23232772.682   120979195.684                                    23232782.242    91170457.766    23232777.095    98305529.698    23232768.858   122088949.857  
> 2026 06 07 16 09 03.0000000  0 10                     
C01  38585588.387   200925269.065                                                                    38585585.082   163268228.665                                  
C02  36920787.215   192256200.164                                                                    36920768.489   156223841.810                                  
C03  36969431.038   192509502.876                                                                    36969418.333   156429680.297                                  
C08  39410316.345   205219837.110                                                                    39410316.488   166757958.325                                  
C09  37573874.166   195657039.250    37573877.740   151294401.924                                    37573876.650   158987331.847                                  
C10                                  37232952.918   149921653.174                                                                                                  
C12  21595259.902   112452182.529                                                                    21595257.401    91376626.156                                  
C19  22126393.952   115217954.151                                    22126392.826    86828704.423    22126387.859    93623980.054    22126388.877   116274972.221  
C20  22849140.859   118981409.514                                    22849140.376    89664916.316    22849135.123    96682138.954    22849135.069   120072954.403  
C36  23228419.430   120956527.921                                    23228429.026    91153375.295    23228424.326    98287110.328    23228415.320   122066074.156  
> 2026 06 07 16 09 18.0000000  0 10                     
C01  38585575.683   200925202.928                                                                    38585572.287   163268174.935                                  
C02  36920985.633   192257233.598                                                                    36920967.067   156224681.538                                  
C03  36969587.035   192510315.604                                                                    36969574.562   156430340.696                                  
C08  39405100.449   205192677.436                                                                    39405100.914   166735888.907                                  
C09  37578593.661   195681615.038    37578597.324   151313405.479                                    37578595.537   159007301.659                                  
C10                                  37233681.366   149924588.041                                                                                                  
C12  21598519.552   112469155.869                                                                    21598516.514    91390418.376                                  
C19  22124590.038   115208561.336                                    22124588.484    86821625.961    22124584.285    93616347.646    22124584.999   116265493.239  
C20  22855403.862   119014021.902                                    22855403.201    89689493.094    22855398.501    96708639.158    22855397.894   120105865.974  
C36  23224078.955   120933925.480                                    23224088.783    91136342.067    23224083.601    98268744.051    23224074.363   122043264.360  
> 2026 06 07 16 09 33.0000000  0 10                     
C01  38585562.942   200925136.639                                                                    38585559.743   163268121.061                                  
C02  36921184.033   192258267.343                                                                    36921165.574   156225521.507                                  
C03  36969742.978   192511128.387                                                                    36969730.612   156431001.151                                  
C08  39399884.303   205165515.889                                                                    39399884.535   166713817.951                                  
C09  37583318.874   195706219.430    37583322.519   151332431.102                                    37583320.447   159027294.719                                  
C10                                  37234406.741   149927511.092                                                                                                  
C12  21601801.323   112486244.142                                                                    21601797.892    91404303.983                                  
C19  22122808.729   115199285.905                                    22122807.353    86814635.968    22122803.100    93608810.613    22122803.636   116256132.710  
C20  22861684.573   119046727.686                                    22861683.412    89714140.273    22861678.962    96735215.258    22861678.051   120138871.793  
C36  23219749.916   120911384.952                                    23219759.780    91119355.459    23219754.348    98250428.054    23219745.628   122020517.017  
> 2026 06 07 16 09 48.0000000  0 10                     
C01  38585548.128   200925059.499                                                                    38585544.841   163268058.378                                  
C02  36921380.521   192259290.692                                                                    36921362.205   156226353.051                                  
C03  36969896.937   192511930.530                                                                    36969884.697   156431652.966                                  
C08  39394666.030   205138341.847                                                                    39394665.887   166691736.854                                  
C09  37588047.429   195730841.713    37588051.199   151351470.606                                    37588049.376   159047302.313                                  
C10                                  37235127.488   149930413.797                                                                                                  
C12  21605102.911   112503436.606                                                                    21605098.979    91418274.252                                  
C19  22121047.969   115190117.344                                    22121047.022    86807726.504    22121042.591    93601360.422    22121042.519   116246880.027  
C20  22867981.349   119079516.024                                    22867979.651    89738849.667    22867976.185    96761858.433    22867974.505   120171960.947  
C36  23215430.956   120888895.627                                    23215440.498    91102407.477    23215436.727    98232153.670    23215427.275   121997821.368  
> 2026 06 07 16 10 03.0000000  0 10                     
C01  38585532.118   200924975.912                                                                    38585528.866   163267990.461                                  
C02  36921575.847   192260308.063                                                                    36921557.585   156227179.720                                  
C03  36970049.699   192512726.466                                                                    36970037.566   156432299.722                                  
C08  39389446.274   205111159.783                                                                    39389445.487   166669649.274                                  
C09  37592780.254   195755486.101    37592784.185   151370527.199                                    37592782.970   159067327.890                                  
C10                                  37235844.590   149933299.760                                    37235841.374   157557032.7201                                 
C12  21608425.387   112520737.606                                                                    21608421.617    91432332.703                                  
C19  22119308.688   115181060.179                                    22119307.848    86800901.011    22119303.238    93594000.746    22119303.113   116237739.778  
C20  22874294.564   119112391.185                                    22874293.045    89763624.495    22874290.150    96788572.175    22874288.131   120205137.721  
C36  23211122.698   120866461.846                                    23211132.580    91085501.330    23211129.310    98213924.416    23211118.910   121975181.785  
> 2026 06 07 16 10 18.0000000  0 10                     
C01  38585521.647   200924921.197                                                                    38585518.430   163267946.017                                  
C02  36921776.802   192261354.771                                                                    36921758.701   156228030.220                                  
C03  36970208.073   192513551.468                                                                    36970195.957   156432970.108                                  
C08  39384231.557   205084005.154                                                                    39384230.538   166647583.953                                  
C09  37597524.193   195780187.853    37597527.964   151389628.159                                    37597527.231   159087400.089                                  
C10                                  37236564.622   149936196.260                                                                                                  
C12  21611775.257   112538182.317                                                                    21611772.309    91446507.967                                  
C19  22117597.604   115172149.825                                    22117596.675    86794186.143    22117591.921    93586760.372    22117592.154   116228747.680  
C20  22880630.848   119145388.240                                    22880629.812    89788491.190    22880625.738    96815384.983    22880624.898   120238437.510  
C36  23206831.917   120844118.907                                    23206841.566    91068663.650    23206838.547    98195768.981    23206828.915   121952633.856  
> 2026 06 07 16 10 33.0000000  0  9                     
C01  38585508.566   200924852.745                                                                    38585505.136   163267890.378                                  
C02  36921975.184   192262388.167                                                                    36921957.297   156228869.925                                  
C03  36970363.855   192514362.940                                                                    36970351.811   156433629.488                                  
C08  39379013.355   205056835.415                                                                    39379012.641   166625506.294                                  
C09  37602270.903   195804904.401    37602274.334   151408740.505                                    37602274.173   159107484.254                                  
C12  21615144.873   112555728.145                                                                    21615142.174    91460765.370                                  
C19  22115906.569   115163343.845                                    22115905.282    86787549.931    22115900.350    93579604.782    22115901.101   116219860.885  
C20  22886982.678   119178464.439                                    22886982.768    89813417.526    22886977.139    96842262.085    22886977.585   120271817.192  
C36  23202550.481   120821824.141                                    23202559.881    91051862.258    23202557.450    98177652.667    23202547.640   121930134.501  
> 2026 06 07 16 10 48.0000000  0  9                     
C01  38585496.701   200924790.713                                                                    38585493.414   163267839.967                                  
C02  36922174.852   192263428.460                                                                    36922157.090   156229715.215                                  
C03  36970520.923   192515181.047                                                                    36970508.773   156434294.265                                  
C08  39373795.815   205029670.754                                                                    39373795.958   166603432.805                                  
C09  37607023.866   195829655.591    37607027.351   151427879.677                                    37607027.440   159127596.636                                  
C12  21618537.771   112573395.120                                                                    21618535.681    91475121.225                                  
C19  22114239.371   115154662.486                                    22114237.834    86781007.653    22114232.974    93572550.467    22114234.064   116211099.887  
C20  22893353.843   119211639.799                                    22893353.771    89838418.566    22893349.018    96869219.744    22893347.821   120305296.881  
C36  23198282.394   120799597.656                                    23198291.632    91035112.351    23198288.130    98159591.879    23198278.820   121907704.120  
> 2026 06 07 16 11 03.0000000  0 10                     
C01  38585487.606   200924743.160                                                                    38585484.104   163267801.343                                  
C02  36922377.451   192264483.684                                                                    36922359.779   156230572.643                                  
C03  36970680.815   192516013.891                                                                    36970668.807   156434971.024                                  
C07                                                                                                  37110663.864   157027365.9391                                 
C08  39368580.884   205002519.352                                                                    39368581.866   166581370.147                                  
C09  37611785.175   195854449.622    37611788.820   151447051.979                                    37611788.427   159147743.795                                  
C12  21621955.401   112591191.258                                                                    21621952.684    91489582.045                                  
C19  22112597.762   115146113.972                                    22112595.975    86774565.484    22112591.901    93565604.113    22112592.222   116202472.949  
C20  22899745.521   119244922.152                                    22899744.877    89863500.259    22899740.285    96896264.350    22899739.392   120338884.592  
C36  23194028.995   120777447.522                                    23194037.786    91018419.990    23194031.657    98141593.171    23194024.581   121885350.792  
> 2026 06 07 16 11 18.0000000  0  9                     
C01  38585468.218   200924642.149                                                                    38585464.662   163267719.247                                  
C02  36922569.883   192265485.924                                                                    36922552.407   156231387.021                                  
C03  36970830.451   192516793.482                                                                    36970818.568   156435604.505                                  
C08  39363355.713   204975313.360                                                                    39363357.179   166559263.074                                  
C09  37616542.123   195879218.378    37616545.465   151466204.734                                    37616544.321   159167870.434                                  
C12  21625384.520   112609048.511                                                                    21625380.624    91504092.508                                  
C19  22110968.679   115137630.499                                    22110966.731    86768172.320    22110962.853    93558710.606    22110962.710   116193911.640  
C20  22906144.722   119278243.450                                    22906144.382    89888611.291    22906139.146    96923340.615    22906138.539   120372511.593  
C36  23189776.828   120755305.737                                    23189785.477    91001733.922    23189781.796    98123601.215    23189771.610   121863005.891  
> 2026 06 07 16 11 33.0000000  0  9                     
C01  38585453.709   200924566.472                                                                    38585450.206   163267657.741                                  
C02  36922767.300   192266513.946                                                                    36922749.842   156232222.331                                  
C03  36970985.018   192517598.594                                                                    36970973.045   156436258.730                                  
C08  39358135.493   204948131.616                                                                    39358137.101   166537175.718                                  
C09  37621309.418   195904040.736    37621312.491   151485398.914                                    37621310.615   159188040.615                                  
C12  21628840.442   112627045.559                                                                    21628837.637    91518716.581                                  
C19  22109367.167   115129290.972                                    22109365.256    86761887.631    22109361.592    93551934.076    22109361.056   116185495.589  
C20  22912566.330   119311682.228                                    22912566.223    89913810.866    22912560.558    96950512.335    22912560.451   120406257.154  
C36  23185541.119   120733251.060                                    23185550.018    90985113.436    23185547.177    98105679.986    23185536.598   121840748.869  
> 2026 06 07 16 11 48.0000000  0  9                     
C01  38585443.738   200924514.527                                                                    38585440.343   163267615.525                                  
C02  36922969.309   192267566.088                                                                    36922951.994   156233077.270                                  
C03  36971144.141   192518427.647                                                                    36971132.205   156436932.400                                  
C08  39352919.757   204920972.581                                                                    39352921.490   166515106.801                                  
C09  37626086.254   195928915.010    37626089.596   151504633.277                                    37626087.451   159208252.978                                  
C12  21632323.365   112645180.807                                                                    21632320.667    91533452.939                                  
C19  22107792.942   115121093.891                                    22107791.459    86755710.294    22107787.671    93545273.288    22107786.724   116177223.308  
C20  22919010.239   119345236.717                                    22919009.882    89939097.617    22919005.129    96977778.064    22919004.307   120440119.486  
C36  23181322.207   120711281.824                                    23181330.606    90968557.394    23181328.176    98087828.202    23181318.222   121818578.028  
> 2026 06 07 16 12 03.0000000  0  9                     
C01  38585427.727   200924431.089                                                                    38585424.332   163267547.741                                  
C02  36923165.386   192268587.248                                                                    36923148.071   156233907.016                                  
C03  36971297.261   192519225.449                                                                    36971285.467   156437580.680                                  
C08  39347698.161   204893781.157                                                                    39347699.465   166493011.588                                  
C09  37630862.090   195953785.776    37630866.021   151523864.972                                    37630863.984   159228462.530                                  
C12  21635822.120   112663398.912                                                                    21635818.403    91548256.620                                  
C19  22106235.300   115112984.171                                    22106234.299    86749598.806    22106229.957    93538683.519    22106229.242   116169039.211  
C20  22925465.585   119378851.540                                    22925464.816    89964429.851    22925460.474    97005092.846    22925458.920   120474042.692  
C36  23177109.103   120689342.798                                    23177117.894    90952024.139    23177115.929    98070000.998    23177104.224   121796437.791  
> 2026 06 07 16 12 18.0000000  0  9                     
C01  38585415.326   200924366.621                                                                    38585411.913   163267495.324                                  
C02  36923365.197   192269627.817                                                                    36923347.972   156234752.524                                  
C03  36971454.044   192520042.411                                                                    36971442.322   156438244.538                                  
C08  39342480.281   204866607.874                                                                    39342481.335   166470931.144                                  
C09  37635647.003   195978703.294    37635651.310   151543132.758                                    37635649.362   159248710.028                                  
C12  21639346.338   112681750.260                                                                    21639342.532    91563168.572                                  
C19  22104704.335   115105012.414                                    22104703.460    86743591.284    22104698.313    93532205.823    22104698.367   116160994.318  
C20  22931942.176   119412577.012                                    22931941.319    89989845.482    22931936.851    97032497.527    22931935.458   120508077.572  
C36  23172911.598   120667484.384                                    23172921.068    90935551.608    23172916.798    98052239.302    23172906.987   121774378.835  
> 2026 06 07 16 12 33.0000000  0  9                     
C01  38585404.962   200924312.492                                                                    38585401.567   163267451.364                                  
C02  36923567.081   192270679.183                                                                    36923549.909   156235606.826                                  
C03  36971612.846   192520869.936                                                                    36971601.213   156438916.961                                  
C08  39337264.188   204839444.178                                                                    39337264.795   166448858.461                                  
C09  37640439.690   196003659.073    37640443.782   151562430.131                                    37640441.727   159268988.652                                  
C12  21642894.393   112700226.136                                                                    21642890.927    91578181.721                                  
C19  22103198.370   115097170.133                                    22103197.333    86737681.324    22103191.812    93525833.328    22103192.455   116153080.069  
C20  22938438.281   119446404.259                                    22938437.459    90015337.796    22938433.421    97059984.915    22938431.920   120542215.176  
C36  23168727.762   120645697.925                                    23168737.179    90919133.311    23168731.765    98034536.089    23168723.367   121752392.495  
> 2026 06 07 16 12 48.0000000  0  9                     
C01  38585392.025   200924245.308                                                                    38585388.612   163267396.767                                  
C02  36923766.536   192271717.915                                                                    36923749.435   156236450.856                                  
C03  36971769.182   192521684.572                                                                    36971757.674   156439578.938                                  
C08  39332045.200   204812266.766                                                                    39332045.290   166426774.637                                  
C09  37645235.307   196028629.628    37645239.059   151581738.908                                    37645236.790   159289279.259                                  
C12  21646461.836   112718803.005                                                                    21646458.942    91593276.946                                  
C19  22101712.793   115089434.004                                    22101711.488    86731851.360    22101706.306    93519547.091    22101707.003   116145272.957  
C20  22944949.610   119480309.731                                    22944948.949    90040889.054    22944944.053    97087535.855    22944943.785   120576431.710  
C36  23164553.255   120623959.928                                    23164562.493    90902751.537    23164557.579    98016872.237    23164549.324   121730455.098  
> 2026 06 07 16 13 03.0000000  0  9                     
C01  38585378.373   200924174.397                                                                    38585375.031   163267339.169                                  
C02  36923965.328   192272753.384                                                                    36923948.335   156237292.224                                  
C03  36971924.857   192522495.671                                                                    36971913.439   156440238.025                                  
C08  39326825.051   204785085.022                                                                    39326824.729   166404687.248                                  
C09  37650035.516   196053624.080    37650039.090   151601066.205                                    37650036.427   159309589.289                                  
C12  21650050.508   112737490.154                                                                    21650047.667    91608461.776                                  
C19  22100249.284   115081813.479                                    22100248.015    86726108.527    22100243.084    93513354.809    22100243.745   116137582.549  
C20  22951477.504   119514302.555                                    22951477.539    90066506.153    22951471.625    97115157.783    22951471.893   120610736.375  
C36  23160389.630   120602279.731                                    23160398.457    90886413.303    23160394.526    97999255.346    23160385.466   121708575.956  
> 2026 06 07 16 13 18.0000000  0  9                     
C01  38585364.703   200924103.357                                                                    38585361.379   163267281.432                                  
C02  36924164.139   192273789.153                                                                    36924147.289   156238133.876                                  
C03  36972080.532   192523306.873                                                                    36972069.239   156440897.200                                  
C08  39321604.759   204757902.626                                                                    39321603.919   166382599.362                                  
C09  37654840.907   196078646.103    37654844.445   151620414.787                                    37654841.497   159329921.709                                  
C12  21653660.819   112756291.096                                                                    21653657.370    91623739.081                                  
C19  22098808.826   115074312.333                                    22098807.343    86720455.631    22098802.840    93507259.518    22098803.573   116130012.581  
C20  22958022.819   119548386.172                                    22958022.712    90092191.690    22958017.137    97142853.497    22958017.495   120645132.711  
C36  23156237.744   120580660.908                                    23156246.429    90870121.313    23156242.551    97981688.313    23156233.206   121686758.808  
> 2026 06 07 16 13 33.0000000  0  9                     
C01  38585351.676   200924035.417                                                                    38585348.335   163267226.237                                  
C02  36924363.665   192274828.498                                                                    36924346.975   156238978.408                                  
C03  36972236.850   192524121.366                                                                    36972225.593   156441559.049                                  
C08  39316385.039   204730722.897                                                                    39316383.788   166360513.630                                  
C09  37659652.088   196103698.798    37659655.680   151639787.111                                    37659652.660   159350279.064                                  
C12  21657293.824   112775209.006                                                                    21657290.518    91639111.404                                  
C19  22097392.027   115066933.903                                    22097390.223    86714895.196    22097386.059    93501263.932    22097386.702   116122566.454  
C20  22964586.540   119582563.663                                    22964585.629    90117947.951    22964580.947    97170625.468    22964580.125   120679623.708  
C36  23152097.921   120559106.615                                    23152106.748    90853877.945    23152103.674    97964173.707    23152093.686   121665006.736  
> 2026 06 07 16 13 48.0000000  0 10                     
C01  38585337.274   200923960.576                                                                    38585333.968   163267165.406                                  
C02  36924561.975   192275861.394                                                                    36924545.339   156239817.708                                  
C03  36972391.917   192524929.191                                                                    36972380.696   156442215.488                                  
C08  39311164.103   204703535.950                                                                    39311162.656   166338422.051                                  
C09  37664467.075   196128772.091    37664470.827   151659175.367                                    37664468.147   159370653.130                                  
C10                                  37246282.208   149975342.5581                                                                                                 
C12  21660947.521   112794233.797                                                                    21660944.197    91654570.575                                  
C19  22095996.760   115059668.280                                    22095995.152    86709419.794    22095990.596    93495360.021    22095991.239   116115234.159  
C20  22971165.986   119616824.770                                    22971165.218    90143767.217    22971160.375    97198465.386    22971160.000   120714199.157  
C36  23147968.854   120537606.796                                    23147976.895    90837675.659    23147975.519    97946703.358    23147965.119   121643309.645  
> 2026 06 07 16 14 03.0000000  0 10                     
C01  38585324.766   200923895.489                                                                    38585321.460   163267112.520                                  
C02  36924762.233   192276904.498                                                                    36924745.651   156240665.309                                  
C03  36972548.915   192525746.956                                                                    36972537.711   156442880.000                                  
C08  39305945.116   204676358.451                                                                    39305943.865   166316338.145                                  
C09  37669289.227   196153882.542    37669292.908   151678592.352                                    37669290.996   159391057.417                                  
C10                                  37246955.173   149978050.829                                                                                                  
C12  21664624.698   112813382.011                                                                    21664621.856    91670130.057                                  
C19  22094626.242   115052532.277                                    22094624.848    86704042.075    22094619.684    93489561.434    22094620.506   116108032.680  
C20  22977764.623   119651185.994                                    22977764.695    90169661.914    22977760.174    97226386.648    22977758.673   120748875.599  
C36  23143854.154   120516178.020                                    23143862.999    90821526.915    23143859.729    97929290.785    23143850.312   121621684.304  
> 2026 06 07 16 14 18.0000000  0 11                     
C01  38585311.310   200923825.455                                                                    38585308.076   163267055.614                                  
C02  36924961.634   192277943.096                                                                    36924945.105   156241509.270                                  
C03  36972705.001   192526560.021                                                                    36972693.850   156443540.680                                  
C07                                                                                                  37118720.060   157061451.274                                  
C08  39300725.199   204649175.858                                                                    39300724.359   166294250.106                                  
C09  37674115.793   196179015.459    37674119.189   151698026.672                                    37674117.634   159411479.971                                  
C10                                  37247623.886   149980743.119                                                                                                  
C12  21668322.674   112832638.824                                                                    21668320.047    91685777.793                                  
C19  22093277.774   115045511.285                                    22093276.756    86698751.063    22093271.252    93483856.322    22093272.288   116100947.295  
C20  22984379.235   119685632.402                                    22984379.503    90195620.871    22984375.107    97254377.183    22984373.464   120783638.043  
C36  23139749.907   120494805.651                                    23139758.663    90805420.637    23139754.857    97911924.002    23139745.708   121600115.820  
> 2026 06 07 16 14 33.0000000  0 11                     
C01  38585296.408   200923747.972                                                                    38585293.155   163266992.662                                  
C02  36925159.658   192278974.698                                                                    36925143.237   156242347.542                                  
C03  36972859.711   192527365.802                                                                    36972848.578   156444195.474                                  
C07                                                                                                  37119318.315   157063987.6931                                 
C08  39295503.942   204621985.704                                                                    39295503.406   166272155.921                                  
C09  37678946.076   196204168.213    37678949.293   151717476.361                                    37678947.363   159431918.629                                  
C10                                  37248288.059   149983417.469                                                                                                  
C12  21672041.039   112852001.675                                                                    21672038.216    91701511.694                                  
C19  22091951.231   115038602.940                                    22091949.784    86693544.916    22091944.942    93478242.726    22091945.817   116093975.568  
C20  22991010.233   119720161.390                                    22991009.876    90221641.987    22991005.212    97282434.777    22991004.533   120818483.823  
C36  23135656.204   120473487.036                                    23135664.173    90789354.918    23135660.867    97894600.946    23135651.915   121578601.630  
> 2026 06 07 16 14 48.0000000  0 11                     
C01  38585280.040   200923662.809                                                                    38585276.769   163266923.439                                  
C02  36925356.289   192279999.030                                                                    36925339.939   156243179.894                                  
C03  36973012.991   192528164.090                                                                    36973001.876   156444844.139                                  
C07                                                                                                  37119910.905   157066493.516                                  
C08  39290281.059   204594787.839                                                                    39290280.987   166250055.452                                  
C09  37683779.897   196229340.411    37683783.149   151736941.086                                    37683780.612   159452373.090                                  
C10                                  37248947.909   149986073.722                                                                                                  
C12  21675779.935   112871470.221                                                                    21675776.844    91717331.465                                  
C19  22090646.257   115031807.077                                    22090644.577    86688423.543    22090640.342    93472720.542    22090640.968   116087117.369  
C20  22997656.920   119754772.497                                    22997657.081    90247725.025    22997652.095    97310559.105    22997650.934   120853412.474  
C36  23131572.685   120452221.967                                    23131580.905    90773329.510    23131577.278    97877321.369    23131567.861   121557141.472  
> 2026 06 07 16 15 03.0000000  0 11                     
C01  38585267.906   200923599.643                                                                    38585264.690   163266872.135                                  
C02  36925557.190   192281045.785                                                                    36925541.019   156244030.463                                  
C03  36973170.524   192528984.570                                                                    36973159.374   156445510.858                                  
C07                                                                                                  37120503.907   157068999.011                                  
C08  39285062.518   204567611.968                                                                    39285062.625   166227972.883                                  
C09  37688623.171   196254561.741    37688626.548   151756443.801                                    37688623.635   159472867.490                                  
C10                                  37249609.045   149988734.680                                                                                                  
C12  21679544.939   112891074.048                                                                    21679541.329    91733261.140                                  
C19  22089368.443   115025153.508                                    22089366.495    86683409.376    22089362.796    93467314.000    22089363.386   116080402.770  
C20  23004325.085   119789495.213                                    23004326.032    90273892.187    23004320.082    97338774.132    23004319.403   120888453.750  
C36  23127504.874   120431040.037                                    23127513.558    90757366.781    23127508.287    97860109.377    23127498.798   121535765.241  
> 2026 06 07 16 15 18.0000000  0 11                     
C01  38585254.487   200923529.790                                                                    38585251.253   163266815.383                                  
C02  36925756.912   192282086.290                                                                    36925740.866   156244875.951                                  
C03  36973326.825   192529798.540                                                                    36973315.692   156446172.298                                  
C07                                                                                                  37121092.959   157071490.721                                  
C08  39279842.601   204540429.616                                                                    39279842.637   166205885.014                                  
C09  37693470.554   196279803.444    37693473.931   151775962.297                                    37693471.483   159493378.396                                  
C10                                  37250260.978   149991363.2401                                                                                                 
C12  21683330.062   112910784.393                                                                    21683326.542    91749277.398                                  
C19  22088112.519   115018613.674                                    22088110.660    86678480.921    22088106.568    93461999.859    22088107.623   116073802.931  
C20  23011009.261   119824300.646                                    23011009.690    90300121.688    23011004.490    97367056.383    23011004.222   120923578.520  
C36  23123447.319   120409912.555                                    23123456.182    90741445.052    23123450.339    97842941.603    23123441.690   121514443.891  
> 2026 06 07 16 15 33.0000000  0 10                     
C01  38585239.816   200923453.188                                                                    38585236.546   163266753.133                                  
C02  36925955.419   192283120.474                                                                    36925939.462   156245716.310                                  
C03  36973481.821   192530605.987                                                                    36973470.724   156446828.430                                  
C07                                                                                                  37121675.721   157073961.9481                                 
C08  39274621.129   204513240.701                                                                    39274621.147   166183791.815                                  
C09  37698321.958   196305065.404    37698325.228   151795496.412                                    37698323.656   159513905.832                                  
C12  21687135.771   112930601.118                                                                    21687132.590    91765380.092                                  
C19  22086878.484   115012187.647                                    22086877.251    86673638.245    22086871.872    93456778.193    22086873.820   116067317.953  
C20  23017709.323   119859188.584                                    23017709.538    90326413.328    23017704.356    97395405.639    23017704.356   120958786.522  
C36  23119400.485   120388839.387                                    23119409.080    90725564.284    23119404.792    97825817.964    23119394.928   121493177.421  
> 2026 06 07 16 15 48.0000000  0  9                     
C01  38585225.718   200923379.697                                                                    38585222.430   163266693.434                                  
C02  36926154.605   192284158.191                                                                    36926138.791   156246559.540                                  
C03  36973637.478   192531416.747                                                                    36973626.399   156447487.238                                  
C08  39269400.194   204486055.226                                                                    39269400.373   166161701.415                                  
C09  37703179.438   196330357.347    37703182.368   151815053.731                                    37703181.332   159534457.584                                  
C12  21690963.745   112950533.968                                                                    21690960.314    91781577.165                                  
C19  22085668.161   115005885.369                                    22085667.000    86668888.826    22085661.657    93451657.071    22085663.480   116060957.853  
C20  23024426.593   119894168.704                                    23024427.236    90352774.460    23024422.018    97423829.833    23024422.733   120994087.593  
C36  23115366.035   120367830.330                                    23115373.755    90709731.836    23115370.628    97808746.438    23115360.085   121471975.662  
> 2026 06 07 16 16 03.0000000  0  9                     
C01  38585212.888   200923312.824                                                                    38585209.528   163266639.082                                  
C02  36926355.149   192285202.933                                                                    36926339.460   156247408.469                                  
C03  36973794.439   192532234.290                                                                    36973783.342   156448151.592                                  
C08  39264180.724   204458876.721                                                                    39264180.903   166139616.689                                  
C09  37708043.332   196355682.695    37708045.959   151834636.874                                    37708045.047   159555036.484                                  
C12  21694814.787   112970586.362                                                                    21694811.428    91797871.345                                  
C19  22084482.409   114999710.468                                    22084480.765    86664235.397    22084476.119    93446639.444    22084476.887   116054726.276  
C20  23031162.196   119929244.237                                    23031162.571    90379207.516    23031157.371    97452331.582    23031158.443   121029484.935  
C36  23111344.344   120346888.891                                    23111351.170    90693950.337    23111349.025    97791729.834    23111338.429   121450842.078  
> 2026 06 07 16 16 18.0000000  0  9                     
C01  38585198.450   200923237.466                                                                    38585195.108   163266577.855                                  
C02  36926554.157   192286239.603                                                                    36926538.593   156248250.837                                  
C03  36973949.792   192533043.534                                                                    36973938.678   156448809.186                                  
C08  39258959.860   204431690.153                                                                    39258959.860   166117525.434                                  
C09  37712910.604   196381026.352    37712912.927   151854234.152                                    37712912.033   159575630.239                                  
C12  21698685.664   112990743.047                                                                    21698682.555    91814250.298                                  
C19  22083318.099   114993647.898                                    22083316.080    86659666.615    22083312.149    93441713.105    22083312.274   116048608.092  
C20  23037913.845   119964399.961                                    23037913.827    90405700.975    23037908.574    97480898.449    23037909.432   121064963.202  
C36  23107332.444   120325999.884                                    23107340.324    90678208.335    23107337.948    97774755.826    23107327.655   121429761.385  
> 2026 06 07 16 16 33.0000000  0 10                     
C01  38585183.440   200923159.378                                                                    38585180.116   163266514.390                                  
C02  36926752.753   192287273.981                                                                    36926737.278   156249091.350                                  
C03  36974104.699   192533850.287                                                                    36974093.549   156449464.738                                  
C07                                                                                                  37123986.007   157083734.223                                  
C08  39253738.442   204404501.461                                                                    39253738.424   166095432.426                                  
C09  37717782.039   196406393.941    37717784.469   151873849.965                                    37717783.397   159596243.464                                  
C12  21702577.484   113011009.732                                                                    21702574.500    91830718.637                                  
C19  22082176.393   114987703.599                                    22082175.214    86655186.977    22082170.765    93436882.868    22082171.051   116042609.281  
C20  23044682.167   119999641.475                                    23044682.095    90432259.075    23044677.199    97509535.022    23044676.448   121100527.972  
C36  23103331.927   120305169.024                                    23103340.326    90662510.142    23103337.610    97757829.072    23103327.782   121408739.407  
> 2026 06 07 16 16 48.0000000  0  9                     
C01  38585169.948   200923089.117                                                                    38585166.661   163266457.293                                  
C02  36926952.922   192288316.618                                                                    36926937.554   156249938.551                                  
C03  36974261.124   192534665.013                                                                    36974250.010   156450126.775                                  
C08  39248518.382   204377321.215                                                                    39248518.579   166073346.266                                  
C09  37722659.800   196431795.914    37722662.552   151893492.337                                    37722661.122   159616884.622                                  
C12  21706492.783   113031396.881                                                                    21706489.192    91847284.837                                  
C19  22081059.490   114981888.207                                    22081058.472    86650804.469    22081054.022    93432157.376    22081054.540   116036740.534  
C20  23051468.714   120034979.066                                    23051468.357    90458889.577    23051463.497    97538249.680    23051461.602   121136189.737  
C36  23099344.759   120284406.805                                    23099350.959    90646863.710    23099350.084    97740958.101    23099340.399   121387786.718  
> 2026 06 07 16 17 03.0000000  0  9                     
C01  38585154.921   200923010.837                                                                    38585151.633   163266393.701                                  
C02  36927151.643   192289351.645                                                                    36927136.347   156250779.591                                  
C03  36974416.031   192535471.922                                                                    36974404.952   156450782.476                                  
C08  39243296.893   204350133.637                                                                    39243297.393   166051254.153                                  
C09  37727541.313   196457216.372    37727544.279   151913149.034                                    37727542.117   159637540.814                                  
C12  21710427.900   113051888.509                                                                    21710424.165    91863935.940                                  
C19  22079964.441   114976185.980                                    22079962.886    86646507.231    22079958.848    93427523.849    22079959.437   116030985.987  
C20  23058270.397   120070396.721                                    23058269.414    90485580.418    23058264.858    97567029.381    23058263.821   121171932.334  
C36  23095367.811   120263697.321                                    23095374.262    90631257.066    23095373.261    97724130.008    23095363.522   121366887.277  
> 2026 06 07 16 17 18.0000000  0 10                     
C01  38585140.608   200922936.148                                                                    38585137.212   163266333.007                                  
C02  36927351.133   192290390.691                                                                    36927335.909   156251623.896                                  
C03  36974571.652   192536282.591                                                                    36974560.627   156451441.223                                  
C08  39238076.261   204322950.439                                                                    39238077.155   166029165.602                                  
C09  37732428.938   196482666.870    37732431.725   151932828.931                                    37732429.134   159658221.384                                  
C10                                                                                                  37255399.198   157639783.417                                  
C12  21714385.138   113072496.096                                                                    21714381.778    91880681.283                                  
C19  22078893.443   114970608.638                                    22078891.960    86642304.099    22078887.886    93422991.809    22078887.850   116025357.465  
C20  23065089.556   120105905.815                                    23065088.537    90512340.180    23065083.909    97595883.410    23065082.819   121207767.202  
C36  23091403.318   120243052.189                                    23091412.128    90615698.867    23091408.071    97707354.192    23091398.815   121346052.728  
> 2026 06 07 16 17 33.0000000  0 10                     
C01  38585126.348   200922861.951                                                                    38585122.899   163266272.732                                  
C02  36927550.784   192291430.612                                                                    36927535.631   156252468.905                                  
C03  36974727.417   192537093.932                                                                    36974716.409   156452100.520                                  
C08  39232856.094   204295768.535                                                                    39232857.238   166007078.137                                  
C09  37737321.690   196508144.253    37737324.192   151952529.635                                    37737322.101   159678923.804                                  
C10                                                                                                  37256027.509   157642441.400                                  
C12  21718363.997   113093216.516                                                                    21718361.460    91897518.300                                  
C19  22077845.818   114965153.150                                    22077844.960    86638192.820    22077840.296    93418558.785    22077840.153   116019851.912  
C20  23071925.654   120141503.095                                    23071925.797    90539166.407    23071919.900    97624809.083    23071918.721   121243691.051  
C36  23087450.333   120222468.213                                    23087459.428    90600186.725    23087454.604    97690628.062    23087445.723   121325279.909  
> 2026 06 07 16 17 48.0000000  0 10                     
C01  38585112.982   200922792.679                                                                    38585109.658   163266216.465                                  
C02  36927751.506   192292475.918                                                                    36927736.443   156253318.290                                  
C03  36974884.146   192537910.403                                                                    36974873.174   156452763.979                                  
C08  39227637.250   204268592.550                                                                    39227638.340   165984995.457                                  
C09  37742220.322   196533652.926    37742222.663   151972254.528                                    37742221.770   159699651.672                                  
C10                                                                                                  37256653.943   157645090.257                                  
C12  21722365.390   113114054.061                                                                    21722363.388    91914450.498                                  
C19  22076822.387   114959824.100                                    22076821.869    86634176.830    22076816.705    93414228.503    22076816.723   116014473.986  
C20  23078779.550   120177192.845                                    23078779.979    90566062.316    23078773.779    97653809.883    23078772.849   121279708.224  
C36  23083509.981   120201949.816                                    23083518.808    90584723.999    23083515.074    97673955.205    23083505.817   121304573.241  
> 2026 06 07 16 18 03.0000000  0 10                     
C01  38585099.276   200922721.607                                                                    38585096.042   163266158.706                                  
C02  36927951.961   192293519.817                                                                    36927936.933   156254166.520                                  
C03  36975040.571   192538725.265                                                                    36975029.600   156453426.135                                  
C08  39222418.423   204241415.810                                                                    39222419.066   165962912.144                                  
C09  37747123.654   196559185.985    37747125.834   151991998.252                                    37747126.280   159720399.336                                  
C10                                                                                                  37257276.982   157647724.787                                  
C12  21726387.635   113135001.877                                                                    21726385.991    91931472.326                                  
C19  22075822.008   114954614.850                                    22075821.115    86630251.118    22075815.665    93409995.554    22075816.326   116009216.945  
C20  23085649.457   120212968.058                                    23085648.814    90593022.622    23085644.740    97682880.155    23085643.667   121315811.670  
C36  23079581.101   120181490.142                                    23079589.357    90569305.549    23079585.747    97657330.079    23079577.277   121283925.857  
> 2026 06 07 16 18 18.0000000  0 10                     
C01  38585085.035   200922647.732                                                                    38585081.854   163266098.693                                  
C02  36928151.951   192294561.328                                                                    36928136.959   156255012.840                                  
C03  36975196.478   192539537.504                                                                    36975185.543   156454086.156                                  
C08  39217199.381   204214237.326                                                                    39217199.292   165940827.455                                  
C09  37752031.202   196584742.436    37752033.793   152011760.083                                    37752034.669   159741166.027                                  
C10                                                                                                  37257895.822   157650343.833                                  
C12  21730431.467   113156058.898                                                                    21730428.357    91948582.840                                  
C19  22074844.519   114949524.502                                    22074843.232    86626414.997    22074838.032    93405859.210    22074839.105   116004079.891  
C20  23092535.356   120248827.538                                    23092534.999    90620046.470    23092530.157    97712018.906    23092530.925   121352000.192  
C36  23075663.318   120161088.210                                    23075670.733    90553930.620    23075666.695    97640751.864    23075658.725   121263336.769  
> 2026 06 07 16 18 33.0000000  0 10                     
C01  38585071.722   200922578.824                                                                    38585068.613   163266042.678                                  
C02  36928352.996   192295608.196                                                                    36928338.057   156255863.484                                  
C03  36975353.368   192540354.859                                                                    36975342.486   156454750.345                                  
C08  39211981.359   204187064.979                                                                    39211980.626   165918747.736                                  
C09  37756944.790   196610329.820    37756947.935   152031545.901                                    37756948.400   159761957.877                                  
C10                                                                                                  37258512.786   157652953.849                                  
C12  21734497.777   113177232.721                                                                    21734495.168    91965788.292                                  
C19  22073891.278   114944560.884                                    22073890.224    86622674.391    22073885.292    93401825.861    22073886.239   115999070.726  
C20  23099439.179   120284778.889                                    23099439.250    90647139.508    23099433.550    97741232.305    23099435.301   121388281.360  
C36  23071758.221   120140751.663                                    23071764.726    90538604.972    23071760.455    97624226.815    23071752.968   121242813.657  
> 2026 06 07 16 18 48.0000000  0 10                     
C01  38585057.517   200922504.972                                                                    38585054.407   163265982.686                                  
C02  36928553.146   192296650.562                                                                    36928538.279   156256710.471                                  
C03  36975509.329   192541167.482                                                                    36975498.447   156455410.679                                  
C08  39206762.192   204159888.986                                                                    39206761.406   165896665.027                                  
C09  37761862.667   196635938.332    37761866.044   152051348.022                                    37761865.598   159782766.903                                  
C10                                                                                                  37259125.265   157655552.5981                                 
C12  21738584.869   113198513.416                                                                    21738582.350    91983080.590                                  
C19  22072960.481   114939714.245                                    22072959.802    86619021.946    22072954.494    93397887.561    22072955.352   115994179.617  
C20  23106359.154   120320812.036                                    23106358.833    90674294.193    23106353.490    97770512.143    23106354.669   121424645.072  
C36  23067863.525   120120470.616                                    23067870.029    90523321.149    23067866.187    97607746.852    23067857.878   121222346.577  
> 2026 06 07 16 19 03.0000000  0  9                     
C01  38585040.988   200922418.870                                                                    38585037.861   163265912.740                                  
C02  36928751.028   192297681.065                                                                    36928736.286   156257547.823                                  
C03  36975662.967   192541968.009                                                                    36975652.121   156456061.197                                  
C08  39201540.846   204132702.069                                                                    39201540.363   165874573.477                                  
C09  37766783.349   196661560.534    37766786.601   152071160.700                                    37766785.100   159803587.012                                  
C12  21742690.885   113219893.464                                                                    21742687.812    92000453.617                                  
C19  22072050.733   114934977.296                                    22072050.072    86615452.183    22072044.532    93394038.404    22072045.604   115989399.227  
C20  23113293.425   120356919.406                                    23113292.943    90701504.799    23113288.011    97799852.304    23113288.833   121461083.690  
C36  23063977.852   120100237.678                                    23063984.249    90508073.573    23063981.819    97591305.954    23063972.724   121201927.996  
> 2026 06 07 16 19 18.0000000  0  9                     
C01  38585027.514   200922348.656                                                                    38585024.352   163265855.695                                  
C02  36928952.055   192298727.868                                                                    36928937.384   156258398.424                                  
C03  36975819.732   192542784.628                                                                    36975808.903   156456724.769                                  
C08  39196323.163   204105532.415                                                                    39196322.841   165852495.955                                  
C09  37771712.126   196687224.419    37771715.039   152091005.639                                    37771712.680   159824441.028                                  
C12  21746821.345   113241400.965                                                                    21746818.897    92017930.207                                  
C19  22071167.574   114930378.341                                    22071166.717    86611986.383    22071161.535    93390301.369    22071162.857   115984758.098  
C20  23120247.459   120393128.979                                    23120246.923    90728792.426    23120242.349    97829275.495    23120242.903   121497625.467  
C36  23060106.761   120080080.973                                    23060113.354    90492883.417    23060110.692    97574926.999    23060102.508   121181586.320  
> 2026 06 07 16 19 33.0000000  0  9                     
C01  38585012.844   200922272.234                                                                    38585009.699   163265793.591                                  
C02  36929151.937   192299768.850                                                                    36929137.321   156259244.308                                  
C03  36975975.335   192543595.163                                                                    36975964.560   156457383.409                                  
C08  39191104.389   204078358.109                                                                    39191104.461   165830414.629                                  
C09  37776644.673   196712907.931    37776647.139   152110865.717                                    37776644.387   159845310.950                                  
C12  21750971.998   113263013.676                                                                    21750968.960    92035492.288                                  
C19  22070306.573   114925895.337                                    22070305.394    86608607.976    22070300.712    93386658.573    22070302.231   115980233.968  
C20  23127216.450   120429418.384                                    23127216.164    90756140.239    23127211.929    97858763.575    23127212.125   121534247.800  
C36  23056246.158   120059978.286                                    23056253.931    90477733.990    23056249.964    97558591.945    23056241.620   121161299.201  
> 2026 06 07 16 19 48.0000000  0  9                     
C01  38584998.710   200922198.592                                                                    38584995.547   163265733.772                                  
C02  36929352.499   192300813.040                                                                    36929337.900   156260092.785                                  
C03  36976131.529   192544408.673                                                                    36976120.736   156458044.477                                  
C08  39185886.260   204051188.161                                                                    39185886.867   165808336.849                                  
C09  37781582.349   196738619.866    37781584.690   152130747.779                                    37781581.956   159866203.980                                  
C12  21755144.433   113284740.481                                                                    21755141.967    92053147.087                                  
C19  22069469.624   114921537.401                                    22069468.695    86605323.813    22069463.888    93383117.386    22069465.067   115975836.048  
C20  23134202.469   120465796.497                                    23134202.094    90783554.876    23134198.645    97888323.736    23134197.716   121570959.660  
C36  23052397.975   120039938.570                                    23052404.890    90462632.010    23052401.406    97542308.084    23052393.150   121141075.643  
> 2026 06 07 16 20 03.0000000  0  9                     
C01  38584984.021   200922122.190                                                                    38584980.894   163265671.704                                  
C02  36929552.632   192301854.892                                                                    36929537.962   156260939.366                                  
C03  36976287.221   192545219.598                                                                    36976276.429   156458703.439                                  
C08  39180667.897   204024017.123                                                                    39180668.737   165786258.169                                  
C09  37786524.295   196764354.613    37786526.708   152150647.470                                    37786524.385   159887115.542                                  
C12  21759337.792   113306575.729                                                                    21759335.040    92070890.006                                  
C19  22068655.761   114917299.074                                    22068654.832    86602129.790    22068650.061    93379673.389    22068650.722   115971558.825  
C20  23141204.482   120502257.540                                    23141203.821    90811032.032    23141200.604    97917951.310    23141199.639   121607755.214  
C36  23048560.424   120019956.261                                    23048566.445    90447573.316    23048564.051    97526070.862    23048555.599   121120910.023  
> 2026 06 07 16 20 18.0000000  0  9                     
C01  38584968.154   200922039.560                                                                    38584965.044   163265604.579                                  
C02  36929751.658   192302890.931                                                                    36929736.916   156261781.230                                  
C03  36976441.753   192546024.478                                                                    36976430.960   156459357.484                                  
C08  39175449.053   203996841.593                                                                    39175449.732   165764175.884                                  
C09  37791469.941   196790108.686    37791472.692   152170562.121                                    37791470.905   159908042.802                                  
C12  21763551.308   113328515.834                                                                    21763547.644    92088718.119                                  
C19  22067864.217   114913176.982                                    22067863.306    86599023.353    22067858.732    93376323.844    22067859.214   115967398.910  
C20  23148221.844   120538797.907                                    23148221.290    90838568.957    23148216.912    97947643.304    23148217.126   121644630.810  
C36  23044733.254   120000027.834                                    23044739.490    90432555.229    23044737.221    97509877.420    23044728.805   121100798.739  
> 2026 06 07 16 20 33.0000000  0  9                     
C01  38584954.180   200921966.717                                                                    38584951.053   163265545.410                                  
C02  36929952.630   192303937.188                                                                    36929937.871   156262631.414                                  
C03  36976598.196   192546839.329                                                                    36976587.439   156460019.635                                  
C08  39170232.459   203969677.719                                                                    39170232.763   165742103.026                                  
C09  37796422.376   196815898.017    37796425.449   152190504.060                                    37796424.485   159928998.732                                  
C12  21767788.017   113350576.685                                                                    21767784.372    92106644.337                                  
C19  22067098.029   114909187.237                                    22067096.779    86596016.658    22067092.383    93373081.843    22067093.169   115963372.562  
C20  23155257.396   120575433.322                                    23155257.271    90866177.527    23155252.589    97977412.569    23155252.768   121681602.348  
C36  23040919.326   119980169.234                                    23040926.080    90417589.761    23040922.917    97493740.709    23040914.519   121080757.950  
> 2026 06 07 16 20 48.0000000  0  9                     
C01  38584940.707   200921896.521                                                                    38584937.526   163265488.365                                  
C02  36930154.211   192304986.495                                                                    36930139.344   156263484.069                                  
C03  36976755.211   192547656.983                                                                    36976744.383   156460684.065                                  
C08  39165016.849   203942518.374                                                                    39165016.760   165720033.904                                  
C09  37801380.315   196841715.456    37801383.603   152210467.745                                    37801383.281   159949977.502                                  
C12  21772046.205   113372751.057                                                                    21772042.917    92124662.819                                  
C19  22066355.786   114905322.754                                    22066354.589    86593104.374    22066350.461    93369941.638    22066350.908   115959472.628  
C20  23162309.710   120612156.474                                    23162309.746    90893852.205    23162304.403    98007253.098    23162304.671   121718662.404  
C36  23037117.798   119960373.261                                    23037123.999    90402671.497    23037120.443    97477654.907    23037113.742   121060780.363  
> 2026 06 07 16 21 03.0000000  0  9                     
C01  38584924.232   200921810.686                                                                    38584921.051   163265418.650                                  
C02  36930352.861   192306020.557                                                                    36930337.922   156264324.326                                  
C03  36976909.224   192548459.187                                                                    36976898.396   156461335.924                                  
C08  39159798.898   203915345.399                                                                    39159798.111   165697953.664                                  
C09  37806340.345   196867542.466    37806343.490   152230438.770                                    37806343.508   159970964.028                                  
C12  21776322.602   113395020.511                                                                    21776319.064    92142758.553                                  
C19  22065634.181   114901565.354                                    22065633.252    86590272.786    22065629.142    93366888.457    22065629.267   115955680.748  
C20  23169375.282   120648948.863                                    23169375.407    90921579.084    23169369.010    98037149.904    23169369.743   121755792.326  
C36  23033324.866   119940621.548                                    23033330.209    90387786.593    23033328.279    97461605.088    23033320.077   121040847.468  
> 2026 06 07 16 21 18.0000000  0  9                     
C01  38584908.132   200921726.867                                                                    38584904.969   163265350.514                                  
C02  36930551.957   192307057.040                                                                    36930536.983   156265166.571                                  
C03  36977063.666   192549263.567                                                                    36977052.820   156461989.570                                  
C08  39154581.715   203888176.510                                                                    39154580.392   165675876.754                                  
C09  37811305.539   196893396.685    37811308.612   152250430.851                                    37811308.112   159991972.668                                  
C12  21780620.585   113417402.598                                                                    21780617.529    92160945.820                                  
C19  22064936.610   114897932.789                                    22064935.753    86587535.261    22064931.214    93363936.705    22064931.303   115952014.853  
C20  23176457.491   120685827.933                                    23176457.616    90949371.250    23176451.969    98067117.136    23176451.808   121793009.748  
C36  23029543.727   119920931.695                                    23029549.570    90372948.325    23029547.962    97445605.517    23029538.205   121020977.000  
> 2026 06 07 16 21 33.0000000  0  9                     
C01  38584893.693   200921651.739                                                                    38584890.566   163265289.495                                  
C02  36930752.787   192308102.617                                                                    36930737.760   156266016.180                                  
C03  36977219.806   192550076.801                                                                    36977208.923   156462650.413                                  
C08  39149366.658   203861018.444                                                                    39149364.979   165653808.665                                  
C09  37816277.183   196919284.675    37816280.293   152270449.062                                    37816278.756   160013008.780                                  
C12  21784941.600   113439903.880                                                                    21784939.581    92179229.922                                  
C19  22064264.199   114894431.803                                    22064263.037    86584896.907    22064258.499    93361091.867    22064258.981   115948481.766  
C20  23183557.604   120722800.171                                    23183557.479    90977233.664    23183552.994    98097160.081    23183552.065   121830321.180  
C36  23025775.525   119901310.383                                    23025782.387    90358161.648    23025779.921    97429661.615    23025769.950   121001175.639  
> 2026 06 07 16 21 48.0000000  0  9                     
C01  38584880.667   200921583.883                                                                    38584877.504   163265234.354                                  
C02  36930955.083   192309155.876                                                                    36930940.037   156266872.063                                  
C03  36977377.411   192550897.505                                                                    36977366.493   156463317.314                                  
C08  39144153.550   203833869.862                                                                    39144151.691   165631748.292                                  
C09  37821255.136   196945205.098    37821258.102   152290492.330                                    37821255.636   160034071.192                                  
C12  21789285.006   113462522.781                                                                    21789283.880    92197609.648                                  
C19  22063616.947   114891061.053                                    22063615.696    86582356.696    22063611.068    93358352.857    22063612.051   115945080.106  
C20  23190675.712   120759863.933                                    23190675.015    91005165.014    23190670.458    98127277.387    23190670.154   121867724.974  
C36  23022020.046   119881756.110                                    23022027.212    90343425.495    23022023.566    97413772.191    23022014.614   120981441.951  
> 2026 06 07 16 22 03.0000000  0  9                     
C01  38584865.174   200921503.312                                                                    38584862.012   163265168.904                                  
C02  36931154.983   192310196.800                                                                    36931139.956   156267717.913                                  
C03  36977532.567   192551705.610                                                                    36977521.649   156463973.998                                  
C08  39138937.939   203806710.897                                                                    39138936.492   165609679.462                                  
C09  37826235.376   196971137.832    37826238.217   152310545.138                                    37826235.322   160055143.647                                  
C12  21793647.549   113485239.217                                                                    21793646.209    92216068.616                                  
C19  22062990.924   114887800.653                                    22062989.977    86579899.640    22062984.920    93355703.507    22062985.938   115941789.779  
C20  23197807.435   120796999.027                                    23197806.685    91033150.141    23197802.360    98157452.656    23197801.378   121905200.730  
C36  23018273.627   119862248.781                                    23018280.846    90328724.735    23018277.719    97397920.939    23018267.730   120961755.685  
> 2026 06 07 16 22 18.0000000  0  9                     
C01  38584846.680   200921406.826                                                                    38584843.481   163265090.537                                  
C02  36931351.936   192311222.243                                                                    36931336.890   156268551.203                                  
C03  36977684.722   192552498.036                                                                    36977673.804   156464617.930                                  
C08  39133719.523   203779538.469                                                                    39133718.648   165587599.653                                  
C09  37831217.188   196997079.467    37831220.154   152330604.834                                    37831217.402   160076223.336                                  
C12  21798028.462   113508049.947                                                                    21798025.746    92234604.179                                  
C19  22062385.432   114884647.512                                    22062384.646    86577523.425    22062379.249    93353141.322    22062380.053   115938607.693  
C20  23204951.703   120834202.071                                    23204951.077    91061186.470    23204946.807    98187683.154    23204945.592   121942745.102  
C36  23014535.856   119842785.225                                    23014543.576    90314056.979    23014541.181    97382105.239    23014530.978   120942113.561  
> 2026 06 07 16 22 33.0000000  0  9                     
C01  38584829.311   200921316.633                                                                    38584826.148   163265017.241                                  
C02  36931550.175   192312254.327                                                                    36931535.058   156269389.861                                  
C03  36977838.092   192553296.862                                                                    36977827.192   156465267.051                                  
C08  39128502.859   203752374.704                                                                    39128502.269   165565526.913                                  
C09  37836204.718   197023052.250    37836208.024   152350688.603                                    37836205.844   160097328.317                                  
C12  21802431.657   113530976.898                                                                    21802427.922    92253234.166                                  
C19  22061804.796   114881623.836                                    22061803.903    86575244.777    22061798.989    93350684.345    22061799.257   115935556.283  
C20  23212113.411   120871495.007                                    23212112.696    91089290.539    23212108.229    98217986.688    23212107.192   121980380.172  
C36  23010810.772   119823387.472                                    23010818.510    90299438.821    23010816.633    97366343.004    23010806.484   120922537.838  
> 2026 06 07 16 22 48.0000000  0  9                     
C01  38584814.444   200921239.713                                                                    38584811.335   163264954.747                                  
C02  36931751.023   192313300.108                                                                    36931735.887   156270239.655                                  
C03  36977994.035   192554109.168                                                                    36977983.135   156465927.150                                  
C08  39123289.178   203725226.823                                                                    39123288.803   165543467.067                                  
C09  37841199.610   197049063.076    37841203.148   152370801.805                                    37841201.808   160118464.212                                  
C12  21806858.278   113554027.012                                                                    21806854.883    92271964.266                                  
C19  22061250.481   114878736.788                                    22061249.552    86573069.112    22061244.602    93348338.401    22061245.174   115932642.772  
C20  23219293.542   120908884.670                                    23219293.416    91117467.513    23219288.395    98248368.828    23219287.270   122018112.856  
C36  23007099.716   119804062.567                                    23007106.774    90284875.556    23007105.112    97350639.973    23007095.445   120903035.649  
> 2026 06 07 16 23 03.0000000  0 10                     
C01  38584801.489   200921172.686                                                                    38584798.451   163264900.289                                  
C02  36931953.836   192314356.158                                                                    36931938.683   156271097.803                                  
C03  36978151.943   192554931.515                                                                    36978140.990   156466595.400                                  
C08  39118078.017   203698091.452                                                                    39118077.552   165521417.417                                  
C09  37846200.971   197075108.550    37846204.938   152390941.794                                    37846204.044   160139628.261                                  
C10  37269052.382   194069735.720    37269053.455   150067049.040                                                                                                  
C12  21811307.951   113577196.742                                                                    21811305.378    92290791.566                                  
C19  22060721.915   114875983.015                                    22060720.968    86570993.839    22060715.500    93346100.718    22060716.698   115929863.711  
C20  23226491.381   120946367.376                                    23226492.006    91145714.622    23226485.877    98278826.595    23226485.788   122055939.484  
C36  23003401.489   119784807.021                                    23003408.958    90270364.524    23003405.688    97334993.287    23003397.093   120883603.424  
> 2026 06 07 16 23 18.0000000  0 10                     
C01  38584788.355   200921104.493                                                                    38584785.389   163264844.902                                  
C02  36932156.506   192315411.481                                                                    36932141.336   156271955.373                                  
C03  36978309.673   192555752.867                                                                    36978298.719   156467262.842                                  
C08  39112867.213   203670957.651                                                                    39112866.606   165499369.009                                  
C09  37851207.049   197101177.362    37851211.213   152411099.804                                    37851210.123   160160811.301                                  
C10  37269608.395   194072638.392    37269610.825   150069293.601                                                                                                  
C12  21815778.298   113600474.960                                                                    21815775.636    92309707.030                                  
C19  22060216.633   114873351.531                                    22060215.436    86569010.751    22060210.325    93343962.429    22060211.344   115927208.074  
C20  23233705.552   120983932.002                                    23233705.909    91174023.431    23233700.120    98309350.893    23233700.012   122093848.716  
C36  22999714.967   119765609.695                                    22999722.186    90255897.433    22999717.826    97319393.964    22999710.571   120864229.996  
> 2026 06 07 16 23 33.0000000  0 10                     
C01  38584772.809   200921023.742                                                                    38584769.807   163264779.299                                  
C02  36932356.836   192316454.598                                                                    36932341.629   156272803.012                                  
C03  36978464.991   192556561.821                                                                    36978454.019   156467920.209                                  
C08  39107654.569   203643814.033                                                                    39107653.819   165477312.670                                  
C09  37856215.665   197127258.076    37856219.936   152431267.046                                    37856218.274   160182003.999                                  
C10  37270160.172   194075511.951    37270162.799   150071515.657                                                                                                  
C12  21820266.979   113623850.076                                                                    21820264.084    92328701.217                                  
C19  22059732.490   114870830.999                                    22059731.114    86567111.269    22059726.289    93341914.293    22059726.825   115924664.400  
C20  23240933.036   121021566.825                                    23240933.321    91202385.154    23240927.836    98339932.239    23240927.550   122131828.812  
C36  22996037.307   119746459.157                                    22996044.455    90241465.567    22996040.256    97303832.648    22996032.536   120844903.751  
> 2026 06 07 16 23 48.0000000  0 10                     
C01  38584756.567   200920939.454                                                                    38584753.654   163264710.818                                  
C02  36932556.558   192317494.559                                                                    36932541.298   156273648.085                                  
C03  36978619.683   192557367.387                                                                    36978608.729   156468574.814                                  
C08  39102441.442   203616669.814                                                                    39102441.031   165455255.798                                  
C09  37861228.408   197153359.749    37861232.661   152451450.510                                    37861230.767   160203213.725                                  
C10  37270708.215   194078365.446                                                                                                                                  
C12  21824776.173   113647331.018                                                                    21824773.654    92347781.404                                  
C19  22059271.379   114868430.518                                    22059269.950    86565302.274    22059264.696    93339963.719    22059265.733   115922241.928  
C20  23248175.672   121059280.684                                    23248176.155    91230806.448    23248169.883    98370577.817    23248169.204   122169888.658  
C36  22992369.869   119727364.403                                    22992378.464    90227075.699    22992373.675    97288316.610    22992365.313   120825633.765  
> 2026 06 07 16 24 03.0000000  0 10                     
C01  38584739.984   200920853.247                                                                    38584737.018   163264640.785                                  
C02  36932755.959   192318532.989                                                                    36932740.716   156274491.920                                  
C03  36978774.035   192558171.174                                                                    36978762.992   156469227.980                                  
C08  39097228.280   203589526.603                                                                    39097228.477   165433199.754                                  
C09  37866245.673   197179483.821    37866249.604   152471651.309                                    37866247.835   160224441.677                                  
C10  37271252.899   194081200.447    37271255.383   150075895.4111                                                                                                 
C12  21829306.096   113670919.242                                                                    21829303.630    92366948.768                                  
C19  22058833.749   114866151.842                                    22058831.676    86563585.046    22058827.388    93338112.087    22058828.103   115919942.336  
C20  23255433.783   121097074.986                                    23255433.944    91259288.351    23255427.869    98401288.755    23255427.404   122208029.683  
C36  22988713.956   119708326.867                                    22988722.712    90212728.990    22988718.352    97272847.117    22988709.382   120806421.594  
> 2026 06 07 16 24 18.0000000  0 10                     
C01  38584722.866   200920764.211                                                                    38584719.971   163264568.440                                  
C02  36932954.894   192319568.987                                                                    36932939.634   156275333.774                                  
C03  36978927.870   192558972.308                                                                    36978916.827   156469878.994                                  
C08  39092015.171   203562383.611                                                                    39092016.208   165411143.878                                  
C09  37871266.940   197205629.427    37871270.442   152491868.728                                    37871269.102   160245687.077                                  
C10  37271794.098   194084015.996                                                                                                                                  
C12  21833856.567   113694613.775                                                                    21833853.869    92386202.495                                  
C19  22058419.295   114863994.087                                    22058417.061    86561958.941    22058413.363    93336358.739    22058413.917   115917764.769  
C20  23262706.654   121134948.610                                    23262706.690    91287830.040    23262701.419    98432064.148    23262701.294   122246250.791  
C36  22985069.015   119689345.670                                    22985077.342    90198424.743    22985074.019    97257423.384    22985063.440   120787266.292  
> 2026 06 07 16 24 33.0000000  0 10                     
C01  38584706.623   200920679.802                                                                    38584703.746   163264499.884                                  
C02  36933154.777   192320609.969                                                                    36933139.499   156276179.688                                  
C03  36979082.616   192559778.209                                                                    36979071.555   156470533.880                                  
C08  39086803.599   203535248.332                                                                    39086805.368   165389094.293                                  
C09  37876293.478   197231803.821    37876296.784   152512108.407                                    37876295.711   160266955.925                                  
C10  37272332.635   194086819.719                                                                                                                                  
C12  21838428.714   113718421.891                                                                    21838425.587    92405548.530                                  
C19  22058029.482   114861964.738                                    22058028.142    86560429.633    22058023.353    93334709.749    22058024.533   115915716.838  
C20  23269996.305   121172908.748                                    23269996.358    91316436.953    23269991.444    98462909.868    23269991.051   122284559.206  
C36  22981436.064   119670428.219                                    22981444.087    90184168.526    22981441.068    97242051.439    22981430.221   120768175.281  
> 2026 06 07 16 24 48.0000000  0  9                     
C01  38584691.541   200920601.330                                                                    38584688.682   163264436.123                                  
C02  36933355.893   192321657.299                                                                    36933340.633   156277030.765                                  
C03  36979238.541   192560590.219                                                                    36979227.462   156471193.731                                  
C08  39081594.047   203508122.202                                                                    39081596.066   165367052.124                                  
C09  37881325.645   197258008.359    37881328.968   152532371.377                                    37881327.843   160288249.233                                  
C12  21843022.626   113742344.767                                                                    21843019.874    92424987.820                                  
C19  22057664.758   114860065.266                                    22057663.954    86558998.191    22057658.861    93333166.274    22057660.130   115913799.948  
C20  23277303.216   121210956.567                                    23277303.252    91345109.916    23277298.231    98493826.831    23277298.213   122322956.117  
C36  22977815.729   119651575.743                                    22977822.698    90169961.302    22977820.124    97226732.302    22977809.707   120749149.835  
> 2026 06 07 16 25 03.0000000  0  9                     
C01  38584677.782   200920529.673                                                                    38584674.923   163264377.923                                  
C02  36933558.367   192322711.785                                                                    36933543.089   156277887.650                                  
C03  36979395.806   192561409.178                                                                    36979384.656   156471859.228                                  
C08  39076386.602   203481006.159                                                                    39076388.425   165345018.146                                  
C09  37886363.548   197284243.612    37886367.211   152552658.108                                    37886365.639   160309567.516                                  
C12  21847638.981   113766383.094                                                                    21847636.443    92444520.932                                  
C19  22057325.121   114858296.561                                    22057324.103    86557665.293    22057319.385    93331729.068    22057320.636   115912014.996  
C20  23284627.246   121249092.719                                    23284626.442    91373849.436    23284622.207    98524815.542    23284622.832   122361442.145  
C36  22974208.098   119632789.023                                    22974214.388    90155803.623    22974211.565    97211466.603    22974202.559   120730190.765  
> 2026 06 07 16 25 18.0000000  0  9                     
C01  38584661.932   200920446.988                                                                    38584659.037   163264310.737                                  
C02  36933758.822   192323755.631                                                                    36933743.526   156278735.889                                  
C03  36979550.981   192562217.265                                                                    36979539.812   156472515.884                                  
C08  39071177.961   203453882.407                                                                    39071179.462   165322977.918                                  
C09  37891403.720   197310491.863    37891408.027   152572954.918                                    37891406.043   160330896.349                                  
C12  21852274.473   113790518.983                                                                    21852271.132    92464133.281                                  
C19  22057006.945   114856640.835                                    22057005.623    86556417.539    22057000.477    93330383.667    22057002.335   115910344.083  
C20  23291964.428   121287299.096                                    23291963.141    91402641.896    23291959.442    98555861.335    23291958.656   122399999.013  
C36  22970609.134   119614050.209                                    22970616.496    90141682.000    22970612.886    97196239.805    22970604.202   120711280.009  
> 2026 06 07 16 25 33.0000000  0  9                     
C01  38584645.511   200920361.348                                                                    38584642.562   163264241.159                                  
C02  36933958.776   192324796.925                                                                    36933943.462   156279582.051                                  
C03  36979705.601   192563022.578                                                                    36979694.433   156473170.288                                  
C08  39065969.659   203426759.190                                                                    39065970.731   165300938.144                                  
C09  37896447.949   197336761.122    37896452.881   152593267.969                                    37896450.879   160352242.288                                  
C12  21856929.925   113814760.374                                                                    21856925.976    92483831.373                                  
C19  22056712.142   114855106.300                                    22056710.677    86555261.094    22056705.888    93329136.708    22056707.675   115908795.472  
C20  23299316.548   121325583.652                                    23299315.672    91431493.267    23299310.812    98586970.637    23299310.937   122438634.829  
C36  22967021.248   119595367.311                                    22967029.290    90127602.527    22967024.733    97181058.432    22967016.656   120692425.667  
> 2026 06 07 16 25 48.0000000  0  9                     
C01  38584629.035   200920275.523                                                                    38584626.069   163264171.428                                  
C02  36934158.730   192325838.366                                                                    36934143.452   156280428.341                                  
C03  36979860.240   192563827.819                                                                    36979849.036   156473824.631                                  
C08  39060762.125   203399639.256                                                                    39060762.840   165278901.047                                  
C09  37901496.984   197363053.911    37901502.309   152613599.226                                    37901500.487   160373607.333                                  
C12  21861605.838   113839109.783                                                                    21861602.067    92503617.272                                  
C19  22056441.194   114853695.705                                    22056440.372    86554198.068    22056435.923    93327990.481    22056437.031   115907371.965  
C20  23306683.946   121363948.820                                    23306683.982    91460405.405    23306678.246    98618145.485    23306677.281   122477351.950  
C36  22963444.728   119576742.935                                    22963452.000    90113567.157    22963447.962    97165924.658    22963439.313   120673630.475  
> 2026 06 07 16 26 03.0000000  0  9                     
C01  38584613.489   200920194.518                                                                    38584610.541   163264105.617                                  
C02  36934359.703   192326885.048                                                                    36934344.390   156281278.872                                  
C03  36980015.861   192564638.055                                                                    36980004.604   156474483.050                                  
C08  39055556.164   203372527.769                                                                    39055556.503   165256870.774                                  
C09  37906551.666   197389375.316    37906557.063   152633952.628                                    37906555.383   160394995.644                                  
C12  21866303.604   113863572.212                                                                    21866300.155    92523494.985                                  
C19  22056195.191   114852414.212                                    22056194.638    86553232.332    22056190.135    93326949.159    22056191.135   115906078.707  
C20  23314068.052   121402399.497                                    23314068.391    91489381.961    23314062.673    98649389.772    23314060.618   122516155.356  
C36  22959880.287   119558182.132                                    22959886.630    90099579.732    22959883.771    97150842.511    22959874.497   120654899.398  
> 2026 06 07 16 26 18.0000000  0  9                     
C01  38584597.479   200920111.271                                                                    38584594.477   163264037.975                                  
C02  36934560.319   192327929.828                                                                    36934545.023   156282127.862                                  
C03  36980171.089   192565446.192                                                                    36980159.760   156475139.746                                  
C08  39050350.203   203345417.716                                                                    39050350.453   165234841.685                                  
C09  37911610.583   197415718.087    37911615.783   152654322.509                                    37911613.746   160416401.280                                  
C12  21871021.616   113888140.407                                                                    21871018.578    92543458.647                                  
C19  22055972.633   114851254.738                                    22055972.204    86552358.560    22055967.397    93326007.017    22055968.148   115904908.581  
C20  23321467.310   121440928.314                                    23321467.704    91518417.405    23321461.360    98680697.561    23321460.288   122555037.649  
C36  22956326.728   119539677.742                                    22956334.358    90085634.803    22956330.677    97135806.223    22956320.581   120636225.275  
> 2026 06 07 16 26 33.0000000  0  9                     
C01  38584582.040   200920030.889                                                                    38584579.073   163263972.653                                  
C02  36934761.596   192328977.847                                                                    36934746.335   156282979.501                                  
C03  36980326.907   192566257.346                                                                    36980315.453   156475798.873                                  
C08  39045145.385   203318314.261                                                                    39045145.689   165212817.959                                  
C09  37916674.468   197442087.339    37916679.471   152674712.834                                    37916677.094   160437828.438                                  
C12  21875760.802   113912819.322                                                                    21875758.122    92563512.275                                  
C19  22055774.519   114850222.511                                    22055773.929    86551580.674    22055769.033    93325168.244    22055769.998   115903866.884  
C20  23328882.294   121479540.197                                    23328882.723    91547515.460    23328875.986    98712072.853    23328875.772   122594003.784  
C36  22952784.676   119521234.860                                    22952793.182    90071736.194    22952788.929    97120819.890    22952779.405   120617613.155  
> 2026 06 07 16 26 48.0000000  0 10                     
C01  38584564.135   200919937.546                                                                    38584561.204   163263896.811                                  
C02  36934960.460   192330013.298                                                                    36934945.110   156283820.912                                  
C03  36980480.241   192567055.669                                                                    36980468.751   156476447.602                                  
C08  39039938.906   203291201.712                                                                    39039939.478   165190786.826                                  
C09  37921740.318   197468466.989    37921745.178   152695111.259                                    37921742.945   160459264.072                                  
C10                                  37277035.761   150099171.6511                                                                                                 
C12  21880517.983   113937592.987                                                                    21880514.534    92583642.897                                  
C19  22055597.794   114849301.751                                    22055596.740    86550886.781    22055591.701    93324420.055    22055593.130   115902937.673  
C20  23336309.946   121518219.070                                    23336309.196    91576663.983    23336304.014    98743502.587    23336303.460   122633037.533  
C36  22949251.631   119502837.500                                    22949258.957    90057871.903    22949256.295    97105870.549    22949247.092   120599046.976  
> 2026 06 07 16 27 03.0000000  0 10                     
C01  38584547.946   200919853.398                                                                    38584545.033   163263828.456                                  
C02  36935161.129   192331058.290                                                                    36935145.708   156284670.082                                  
C03  36980635.380   192567863.349                                                                    36980623.801   156477103.929                                  
C08  39034734.875   203264102.270                                                                    39034735.572   165168766.356                                  
C09  37926812.494   197494879.320    37926817.443   152715534.947                                    37926815.514   160480726.259                                  
C10                                  37277541.955   150101217.933                                                                                                  
C12  21885297.589   113962483.433                                                                    21885294.962    92603868.405                                  
C19  22055446.587   114848514.649                                    22055445.282    86550293.618    22055440.332    93323780.477    22055441.548   115902143.324  
C20  23343754.807   121556986.929                                    23343753.395    91605879.583    23343749.893    98775004.620    23343748.624   122672161.046  
C36  22945731.487   119484507.803                                    22945738.581    90044058.587    22945736.008    97090976.169    22945726.519   120580549.096  
> 2026 06 07 16 27 18.0000000  0 10                     
C01  38584534.812   200919785.165                                                                    38584531.971   163263773.003                                  
C02  36935364.943   192332119.575                                                                    36935349.468   156285532.488                                  
C03  36980793.592   192568687.092                                                                    36980781.960   156477773.304                                  
C08  39029534.453   203237022.725                                                                    39029535.221   165146762.038                                  
C09  37931892.460   197521330.847    37931897.285   152735988.954                                    37931895.623   160502220.268                                  
C10                                  37278049.650   150103283.4481                                                                                                 
C12  21890101.283   113987497.193                                                                    21890099.871    92624194.145                                  
C19  22055322.290   114847867.975                                    22055321.253    86549806.275    22055316.018    93323254.995    22055317.179   115901490.715  
C20  23351218.054   121595850.204                                    23351218.358    91635167.073    23351214.070    98806584.205    23351211.961   122711380.861  
C36  22942225.942   119466252.371                                    22942234.037    90030301.271    22942229.444    97076142.187    22942220.760   120562126.227  
> 2026 06 07 16 27 33.0000000  0 10                     
C01  38584518.122   200919698.342                                                                    38584515.281   163263702.459                                  
C02  36935565.255   192333162.639                                                                    36935549.709   156286380.096                                  
C03  36980948.285   192569492.373                                                                    36980936.598   156478427.701                                  
C08  39024331.154   203209928.655                                                                    39024331.851   165124745.916                                  
C09  37936973.410   197547787.035    37936978.127   152756446.564                                    37936976.358   160523718.100                                  
C10                                  37278548.142   150105294.530                                                                                                  
C12  21894922.184   114012599.656                                                                    21894920.112    92644591.941                                  
C19  22055218.328   114847327.292                                    22055217.381    86549398.808    22055212.127    93322815.641    22055213.682   115900945.083  
C20  23358692.935   121634774.214                                    23358694.346    91664500.352    23358688.861    98838213.132    23358687.574   122750661.963  
C36  22938728.134   119448036.650                                    22938735.943    90016573.858    22938731.351    97061340.459    22938722.774   120543743.410  
> 2026 06 07 16 27 48.0000000  0 10                     
C01  38584501.182   200919610.326                                                                    38584498.359   163263630.942                                  
C02  36935765.424   192334204.883                                                                    36935749.860   156287227.038                                  
C03  36981102.762   192570296.645                                                                    36981091.004   156479081.255                                  
C08  39019128.624   203182837.538                                                                    39019129.071   165102732.237                                  
C09  37942058.398   197574265.239    37942063.204   152776921.164                                    37942061.096   160545233.792                                  
C10                                  37279044.240   150107291.698                                                                                                  
C12  21899763.224   114037808.074                                                                    21899760.937    92665075.841                                  
C19  22055138.149   114846910.071                                    22055136.845    86549084.386    22055132.253    93322476.610    22055133.486   115900524.054  
C20  23366182.682   121673776.079                                    23366183.468    91693892.312    23366178.608    98869905.351    23366177.911   122790021.693  
C36  22935240.869   119429878.061                                    22935247.052    90002889.492    22935244.300    97046585.130    22935235.991   120525418.211  
> 2026 06 07 16 28 03.0000000  0 10                     
C01  38584483.885   200919520.467                                                                    38584481.080   163263557.917                                  
C02  36935965.307   192335245.650                                                                    36935949.689   156288072.775                                  
C03  36981256.918   192571099.205                                                                    36981245.107   156479733.438                                  
C08  39013926.683   203155748.819                                                                    39013927.041   165080720.478                                  
C09  37947147.335   197600764.680    37947152.427   152797412.233                                    37947150.051   160566766.762                                  
C10                                  37279536.656   150109274.407                                                                                                  
C12  21904624.617   114063121.674                                                                    21904621.633    92685645.195                                  
C19  22055081.719   114846615.737                                    22055080.343    86548862.562    22055075.858    93322237.421    22055077.055   115900227.015  
C20  23373687.475   121712855.003                                    23373688.011    91723342.329    23373683.651    98901660.159    23373682.793   122829459.143  
C36  22931764.076   119411775.813                                    22931770.598    89989247.592    22931768.346    97031875.576    22931760.145   120507149.864  
> 2026 06 07 16 28 18.0000000  0 10                     
C01  38584466.713   200919431.254                                                                    38584463.997   163263485.426                                  
C02  36936165.368   192336287.420                                                                    36936149.679   156288919.320                                  
C03  36981411.217   192571902.567                                                                    36981399.334   156480386.245                                  
C08  39008725.332   203128665.130                                                                    39008726.083   165058712.747                                  
C09  37952240.917   197627287.753    37952246.064   152817921.585                                    37952243.705   160588318.934                                  
C10                                  37280025.857   150111244.636                                                                                                  
C12  21909506.416   114088542.736                                                                    21909502.968    92706301.870                                  
C19  22055049.340   114846446.787                                    22055048.286    86548735.220    22055043.426    93322100.116    22055044.623   115900056.482  
C20  23381207.528   121752013.187                                    23381208.440    91752852.068    23381203.240    98933479.372    23381202.400   122868976.567  
C36  22928299.308   119393732.273                                    22928307.099    89975649.938    22928303.239    97017213.747    22928295.073   120488940.808  
> 2026 06 07 16 28 33.0000000  0 10                     
C01  38584449.791   200919343.160                                                                    38584447.039   163263413.840                                  
C02  36936365.698   192337330.653                                                                    36936349.991   156289767.061                                  
C03  36981565.784   192572707.156                                                                    36981553.830   156481040.063                                  
C08  39003525.107   203101586.873                                                                    39003525.911   165036709.494                                  
C09  37957339.432   197653834.865    37957344.060   152838449.460                                    37957341.934   160609890.608                                  
C10                                  37280512.126   150113202.582                                                                                                  
C12  21914408.926   114114071.569                                                                    21914405.352    92727046.133                                  
C19  22055040.996   114846403.720                                    22055039.941    86548702.780    22055034.956    93322065.132    22055036.117   115900013.055  
C20  23388742.985   121791250.910                                    23388743.699    91782421.754    23388737.552    98965363.220    23388737.213   122908574.269  
C36  22924845.869   119375747.898                                    22924853.410    89962096.848    22924849.264    97002599.993    22924841.473   120470791.473  
> 2026 06 07 16 28 48.0000000  0 10                     
C01  38584433.012   200919255.665                                                                    38584430.314   163263342.748                                  
C02  36936566.206   192338374.866                                                                    36936550.463   156290615.590                                  
C03  36981720.477   192573512.507                                                                    36981708.469   156481694.508                                  
C08  38998326.169   203074513.696                                                                    38998326.276   165014710.398                                  
C09  37962442.182   197680405.457    37962446.381   152858995.504                                    37962444.791   160631481.376                                  
C10                                  37280995.430   150115148.060                                                                                                  
C12  21919331.859   114139707.598                                                                    21919328.840    92747877.487                                  
C19  22055056.720   114846486.147                                    22055055.827    86548764.897    22055050.484    93322132.106    22055052.056   115900096.247  
C20  23396293.576   121830567.471                                    23396293.147    91812050.849    23396287.804    98997311.107    23396287.554   122948251.492  
C36  22921403.366   119357822.189                                    22921409.442    89948587.988    22921406.761    96988033.896    22921399.560   120452701.294  
> 2026 06 07 16 29 03.0000000  0 10                     
C01  38584418.342   200919179.258                                                                    38584415.626   163263280.654                                  
C02  36936768.948   192339430.498                                                                    36936753.116   156291473.403                                  
C03  36981877.295   192574329.076                                                                    36981865.233   156482358.060                                  
C08  38993130.071   203047456.154                                                                    38993129.374   164992723.972                                  
C09  37967551.204   197707009.819    37967555.260   152879567.660                                    37967554.384   160653099.610                                  
C10                                  37281477.590   150117088.918                                                                                                  
C12  21924277.505   114165461.047                                                                    21924275.718    92768804.284                                  
C19  22055098.712   114846704.552                                    22055097.765    86548929.478    22055092.887    93322309.578    22055093.977   115900316.668  
C20  23403860.804   121869973.040                                    23403860.678    91841747.025    23403855.586    99029331.347    23403854.049   122988018.574  
C36  22917973.943   119339965.445                                    22917980.859    89935131.098    22917977.285    96973523.845    22917970.602   120434680.723  
> 2026 06 07 16 29 18.0000000  0 10                     
C01  38584404.029   200919104.735                                                                    38584401.348   163263220.095                                  
C02  36936972.101   192340488.374                                                                    36936956.233   156292333.041                                  
C03  36982034.542   192575147.666                                                                    36982022.392   156483023.270                                  
C08  38987934.849   203020405.245                                                                    38987933.813   164970742.888                                  
C09  37972664.996   197733638.788    37972669.017   152900158.854                                    37972668.552   160674737.799                                  
C10                                  37281956.730   150119018.288                                                                                                  
C12  21929244.307   114191322.698                                                                    21929242.341    92789818.973                                  
C19  22055165.114   114847049.821                                    22055164.345    86549189.658    22055159.181    93322590.128    22055160.361   115900665.110  
C20  23411443.309   121909458.223                                    23411444.256    91871503.205    23411438.306    99061416.284    23411436.447   123027866.007  
C36  22914555.992   119322168.434                                    22914564.516    89921719.199    22914558.959    96959062.342    22914552.651   120416720.449  
> 2026 06 07 16 29 33.0000000  0 10                     
C01  38584386.588   200919013.907                                                                    38584383.908   163263146.262                                  
C02  36937172.198   192341530.330                                                                    36937156.259   156293179.737                                  
C03  36982188.699   192575950.133                                                                    36982176.440   156483675.349                                  
C08  38982736.750   202993342.708                                                                    38982736.375   164948752.390                                  
C09  37977780.022   197760274.098    37977784.042   152920754.970                                    37977783.471   160696381.178                                  
C10                                  37282429.258   150120922.012                                                                                                  
C12  21934227.977   114217274.092                                                                    21934225.083    92810906.594                                  
C19  22055252.583   114847503.852                                    22055252.011    86549531.805    22055246.865    93322959.037    22055247.508   115901123.278  
C20  23419037.751   121949004.624                                    23419038.591    91901305.518    23419032.033    99093550.959    23419031.014   123067775.239  
C36  22911145.743   119304412.985                                    22911154.588    89908338.615    22911149.227    96944634.594    22911142.902   120398802.061  
> 2026 06 07 16 29 48.0000000  0 11                     
C01  38584367.772   200918915.776                                                                    38584365.110   163263066.539                                  
C02  36937370.955   192342565.317                                                                    36937354.980   156294020.772                                  
C03  36982341.443   192576745.402                                                                    36982329.131   156484321.601                                  
C07  37149771.633   193448609.661                                                                                                                                  
C08  38977538.401   202966277.652                                                                    38977538.652   164926759.846                                  
C09  37982898.157   197786924.558    37982901.856   152941362.780                                    37982900.891   160718036.845                                  
C10                                  37282898.195   150122775.8851                                                                                                 
C12  21939230.375   114243324.111                                                                    21939227.283    92832074.368                                  
C19  22055362.406   114848075.599                                    22055361.459    86549962.664    22055356.795    93323423.623    22055356.920   115901700.264  
C20  23426645.791   121988620.997                                    23426646.363    91931160.548    23426640.341    99125742.472    23426639.341   123107755.068  
C36  22907745.178   119286707.918                                    22907754.452    89894996.020    22907750.075    96930247.784    22907742.230   120380934.540  
> 2026 06 07 16 30 03.0000000  0 10                     
C01  38584350.690   200918826.557                                                                    38584347.991   163262994.027                                  
C02  36937571.464   192343609.527                                                                    36937555.453   156294869.297                                  
C03  36982495.939   192577549.680                                                                    36982483.537   156484975.162                                  
C07  37150171.399   193450690.137                                                                                                                                  
C08  38972343.215   202939226.327                                                                    38972343.340   164904778.485                                  
C09  37988022.331   197813606.348    37988025.655   152961994.836                                    37988024.494   160739718.000                                  
C12  21944254.983   114269488.816                                                                    21944252.606    92853335.318                                  
C19  22055497.710   114848781.286                                    22055496.155    86550494.482    22055491.956    93323997.061    22055492.349   115902412.437  
C20  23434270.378   122028323.309                                    23434270.896    91961080.353    23434264.535    99158003.844    23434264.178   123147821.639  
C36  22904357.998   119269069.344                                    22904366.718    89881703.549    22904363.555    96915915.007    22904354.871   120363134.164  
> 2026 06 07 16 30 18.0000000  0 10                     
C01  38584334.393   200918741.429                                                                    38584331.623   163262924.868                                  
C02  36937772.848   192344658.200                                                                    36937756.801   156295721.439                                  
C03  36982651.256   192578358.207                                                                    36982638.748   156485632.168                                  
C07  37150568.305   193452758.440                                                                    37150561.229   157196180.456                                  
C08  38967150.120   202912184.048                                                                    38967149.852   164882804.475                                  
C09  37993151.259   197840314.635    37993154.601   152982647.359                                    37993153.475   160761420.640                                  
C12  21949300.873   114295763.231                                                                    21949298.711    92874685.427                                  
C19  22055658.049   114849616.255                                    22055655.940    86551123.699    22055652.348    93324675.538    22055652.706   115903255.049  
C20  23441910.476   122068106.565                                    23441911.512    91991061.121    23441904.186    99190330.944    23441904.472   123187969.847  
C36  22900982.807   119251492.449                                    22900989.991    89868457.554    22900987.775    96901632.331    22900979.037   120345396.016  
> 2026 06 07 16 30 33.0000000  0 10                     
C01  38584319.955   200918666.039                                                                    38584317.131   163262863.593                                  
C02  36937976.179   192345716.937                                                                    36937960.043   156296581.771                                  
C03  36982808.486   192579176.552                                                                    36982795.924   156486297.171                                  
C07  37150963.872   193454819.972                                                                    37150956.778   157197855.654                                  
C08  38961959.991   202885156.544                                                                    38961959.419   164860842.421                                  
C09  37998285.977   197867054.840    37998289.818   153003324.596                                    37998288.889   160783149.254                                  
C12  21954369.029   114322152.840                                                                    21954366.527    92896129.128                                  
C19  22055844.262   114850586.108                                    22055842.278    86551854.557    22055838.651    93325463.627    22055839.401   115904233.813  
C20  23449566.762   122107976.104                                    23449568.710    92021106.976    23449561.705    99222728.200    23449561.723   123228205.202  
C36  22897620.536   119233982.787                                    22897628.542    89855262.213    22897623.914    96887404.320    22897616.301   120327725.715  
> 2026 06 07 16 30 48.0000000  0 10                     
C01  38584303.551   200918580.510                                                                    38584300.674   163262794.077                                  
C02  36938177.634   192346765.884                                                                    36938161.445   156297434.159                                  
C03  36982963.767   192579984.927                                                                    36982951.152   156486954.064                                  
C07  37151354.167   193456855.023                                                                    37151346.734   157199509.283                                  
C08  38956768.718   202858124.052                                                                    38956768.182   164838876.331                                  
C09  38003423.106   197893807.080    38003427.270   153024011.125                                    38003426.323   160804887.643                                  
C12  21959454.874   114348637.618                                                                    21959452.194    92917650.181                                  
C19  22056052.489   114851671.050                                    22056051.256    86552672.176    22056046.718    93326345.229    22056047.736   115905328.715  
C20  23457236.040   122147911.896                                    23457237.469    92051202.704    23457231.465    99255179.262    23457231.233   123268507.357  
C36  22894267.414   119216520.409                                    22894276.331    89842102.507    22894270.238    96873214.745    22894262.840   120310103.176  
> 2026 06 07 16 31 03.0000000  0 11                     
C01  38584285.164   200918484.498                                                                    38584282.287   163262716.060                                  
C02  36938377.124   192347804.705                                                                    36938360.917   156298278.296                                  
C03  36983117.066   192580782.957                                                                    36983104.397   156487602.542                                  
C07  37151739.405   193458863.045                                                                                                                                  
C08  38951576.462   202831086.278                                                                    38951575.980   164816905.941                                  
C09  38008562.952   197920570.955    38008566.990   153044706.641                                    38008565.668   160826635.488                                  
C10                                                                                                  37285198.957   157765881.337                                  
C12  21964559.000   114375217.064                                                                    21964556.319    92939248.149                                  
C19  22056283.000   114852870.802                                    22056282.142    86553576.315    22056277.103    93327320.097    22056278.229   115906539.468  
C20  23464918.022   122187913.360                                    23464918.272    92081347.920    23464913.823    99287683.681    23464912.518   123308875.777  
C36  22890923.048   119199104.936                                    22890930.892    89828978.140    22890926.336    96859063.261    22890918.420   120292527.934  
> 2026 06 07 16 31 18.0000000  0 10                     
C01  38584269.189   200918401.153                                                                    38584266.312   163262648.325                                  
C02  36938579.116   192348856.554                                                                    36938562.909   156299133.026                                  
C03  36983272.794   192581593.798                                                                    36983260.107   156488261.438                                  
C07  37152124.090   193460867.494                                                                    37152116.370   157202761.9051                                 
C08  38946387.763   202804066.418                                                                    38946387.191   164794950.153                                  
C09  38013709.570   197947369.493    38013713.484   153065428.926                                    38013711.518   160848411.462                                  
C12  21969686.016   114401914.193                                                                    21969683.389    92960941.739                                  
C19  22056539.921   114854208.534                                    22056539.152    86554584.442    22056535.007    93328407.107    22056535.114   115907889.467  
C20  23472616.640   122228003.388                                    23472616.426    92111559.886    23472613.120    99320260.078    23472611.834   123349333.616  
C36  22887591.780   119181759.468                                    22887598.909    89815906.542    22887595.496    96844968.645    22887587.902   120275023.294  
> 2026 06 07 16 31 33.0000000  0  9                     
C01  38584252.338   200918313.140                                                                    38584249.354   163262576.806                                  
C02  36938780.267   192349904.070                                                                    36938764.042   156299984.237                                  
C03  36983427.665   192582400.073                                                                    36983414.871   156488916.629                                  
C08  38941199.134   202777047.258                                                                    38941198.813   164772994.906                                  
C09  38018859.208   197974185.393    38018863.264   153086164.685                                    38018860.906   160870201.563                                  
C12  21974832.401   114428711.446                                                                    21974829.167    92982716.695                                  
C19  22056820.035   114855666.909                                    22056818.749    86555683.490    22056814.979    93329592.176    22056814.979   115909361.213  
C20  23480328.821   122268164.390                                    23480329.179    92141825.374    23480325.748    99352894.186    23480324.569   123389863.100  
C36  22884270.822   119164466.514                                    22884278.952    89802874.543    22884274.020    96830916.731    22884266.658   120257571.687  
> 2026 06 07 16 31 48.0000000  0 10                     
C01  38584235.202   200918223.648                                                                    38584232.146   163262504.081                                  
C02  36938981.240   192350950.461                                                                    36938964.926   156300834.530                                  
C03  36983582.250   192583205.008                                                                    36983569.420   156489570.721                                  
C08  38936011.007   202750032.086                                                                    38936011.668   164751042.886                                  
C09  38024012.795   198001021.551    38024016.834   153106916.078                                    38024014.475   160892008.131                                  
C10                                                                                                  37286542.385   157771562.609                                  
C12  21979998.407   114455611.919                                                                    21979995.459    93004575.516                                  
C19  22057124.041   114857249.211                                    22057122.522    86556875.895    22057118.341    93330877.914    22057118.752   115910958.026  
C20  23488055.834   122308399.366                                    23488056.816    92172146.552    23488052.028    99385588.373    23488051.098   123430467.195  
C36  22880960.514   119147229.232                                    22880968.412    89789884.484    22880963.587    96816910.037    22880955.921   120240176.291  
> 2026 06 07 16 32 03.0000000  0 10                     
C01  38584216.851   200918127.828                                                                    38584213.741   163262426.208                                  
C02  36939181.052   192351990.853                                                                    36939164.701   156301679.947                                  
C03  36983735.673   192584003.721                                                                    36983722.772   156490219.766                                  
C08  38930822.861   202723016.064                                                                    38930824.523   164729090.184                                  
C09  38029169.313   198027873.121    38029173.262   153127679.380                                    38029171.421   160913827.212                                  
C10                                                                                                  37286980.051   157773415.7191                                 
C12  21985182.979   114482610.523                                                                    21985180.371    93026514.117                                  
C19  22057450.740   114858950.574                                    22057449.043    86558158.061    22057445.094    93332260.425    22057445.719   115912675.024  
C20  23495795.962   122348703.206                                    23495797.105    92202519.678    23495790.869    99418338.500    23495790.762   123471140.792  
C36  22877659.355   119130042.749                                    22877667.324    89776932.685    22877663.983    96802944.584    22877655.513   120222832.090  
> 2026 06 07 16 32 18.0000000  0 10                     
C01  38584198.124   200918030.191                                                                    38584194.979   163262346.855                                  
C02  36939380.577   192353029.785                                                                    36939364.173   156302524.191                                  
C03  36983888.775   192584800.790                                                                    36983875.820   156490867.481                                  
C08  38925635.823   202696003.813                                                                    38925638.021   164707140.553                                  
C09  38034329.583   198054744.682    38034333.746   153148458.161                                    38034332.353   160935662.540                                  
C10                                                                                                  37287415.162   157775259.466                                  
C12  21990387.958   114509711.722                                                                    21990385.277    93048536.033                                  
C19  22057801.295   114860775.605                                    22057799.687    86559533.399    22057795.362    93333743.417    22057796.488   115914516.796  
C20  23503550.260   122389080.249                                    23503550.385    92232947.937    23503544.864    99451148.136    23503544.649   123511888.279  
C36  22874369.257   119112911.432                                    22874378.012    89764022.452    22874374.850    96789023.983    22874366.022   120205543.593  
> 2026 06 07 16 32 33.0000000  0  9                     
C01  38584181.970   200917945.737                                                                    38584178.825   163262278.244                                  
C02  36939582.676   192354082.148                                                                    36939566.183   156303379.351                                  
C03  36984044.414   192585611.079                                                                    36984031.459   156491525.940                                  
C08  38920452.484   202669010.341                                                                    38920454.610   164685206.184                                  
C09  38039496.393   198081650.982    38039501.003   153169263.817                                    38039499.949   160957526.117                                  
C12  21995615.469   114536930.168                                                                    21995611.949    93070653.238                                  
C19  22058178.403   114862739.197                                    22058177.134    86561013.161    22058172.435    93335338.994    22058173.346   115916498.379  
C20  23511321.427   122429545.122                                    23511320.551    92263442.404    23511316.513    99484029.117    23511315.977   123552724.389  
C36  22871093.203   119095850.105                                    22871101.727    89751164.989    22871097.224    96775160.303    22871089.898   120188325.785  
> 2026 06 07 16 32 48.0000000  0  9                     
C01  38584165.566   200917860.083                                                                    38584162.332   163262208.622                                  
C02  36939784.578   192355133.712                                                                    36939768.067   156304233.839                                  
C03  36984199.857   192586420.338                                                                    36984186.884   156492183.555                                  
C08  38915269.717   202642021.496                                                                    38915271.486   164663275.559                                  
C09  38044667.384   198108577.537    38044672.173   153190085.165                                    38044671.298   160979406.194                                  
C12  22000862.332   114564251.454                                                                    22000858.616    93092854.000                                  
C19  22058579.455   114864827.143                                    22058578.329    86562586.650    22058573.237    93337035.630    22058574.577   115918605.492  
C20  23519106.763   122470083.375                                    23519105.405    92293992.153    23519102.010    99516969.740    23519101.278   123593634.546  
C36  22867827.693   119078844.497                                    22867835.234    89738349.503    22867830.713    96761341.879    22867824.173   120171164.159  
> 2026 06 07 16 33 03.0000000  0  9                     
C01  38584146.321   200917759.783                                                                    38584143.051   163262127.131                                  
C02  36939983.692   192356170.934                                                                    36939967.235   156305076.698                                  
C03  36984352.476   192587215.070                                                                    36984339.450   156492829.364                                  
C08  38910085.127   202615023.802                                                                    38910086.199   164641337.745                                  
C09  38049840.163   198135511.013    38049844.594   153210911.817                                    38049843.683   161001291.809                                  
C12  22006126.171   114591661.906                                                                    22006122.705    93115127.237                                  
C19  22059001.647   114867025.974                                    22059000.896    86564243.694    22058994.767    93338822.336    22058996.804   115920824.495  
C20  23526903.215   122510681.243                                    23526902.214    92324586.802    23526898.229    99549958.791    23526897.514   123634604.857  
C36  22864570.188   119061881.026                                    22864577.872    89725565.768    22864574.530    96747557.674    22864566.579   120154045.042  
> 2026 06 07 16 33 18.0000000  0  9                     
C01  38584126.898   200917658.685                                                                    38584123.592   163262044.981                                  
C02  36940182.789   192357207.692                                                                    36940166.296   156305919.165                                  
C03  36984504.935   192588009.098                                                                    36984491.891   156493474.610                                  
C08  38904901.770   202588031.196                                                                    38904901.556   164619404.066                                  
C09  38055017.069   198162464.975    38055020.893   153231754.304                                    38055019.588   161023194.094                                  
C12  22011409.684   114619175.267                                                                    22011406.057    93137484.073                                  
C19  22059447.657   114869349.545                                    22059446.925    86565994.749    22059441.189    93340710.414    22059442.600   115923169.395  
C20  23534713.389   122551352.300                                    23534713.300    92355236.646    23534707.761    99583007.333    23534707.921   123675649.049  
C36  22861323.315   119044973.462                                    22861331.446    89712824.175    22861328.408    96733818.903    22861319.706   120136982.383  
> 2026 06 07 16 33 33.0000000  0  9                     
C01  38584111.370   200917577.762                                                                    38584108.135   163261979.232                                  
C02  36940385.817   192358264.972                                                                    36940369.252   156306778.306                                  
C03  36984661.325   192588823.448                                                                    36984648.227   156494136.372                                  
C08  38899723.542   202561064.778                                                                    38899721.844   164597491.680                                  
C09  38060201.623   198189460.435    38060205.018   153252628.860                                    38060203.517   161045130.058                                  
C12  22016717.070   114646812.325                                                                    22016714.228    93159941.428                                  
C19  22059921.955   114871818.953                                    22059920.597    86567855.688    22059916.147    93342716.994    22059916.469   115925661.440  
C20  23542541.773   122592117.388                                    23542542.005    92385957.364    23542535.215    99616132.280    23542536.733   123716788.141  
C36  22858091.077   119028142.765                                    22858099.154    89700140.511    22858095.383    96720142.588    22858087.950   120119997.265  
> 2026 06 07 16 33 48.0000000  0  9                     
C01  38584097.217   200917503.835                                                                    38584093.930   163261919.160                                  
C02  36940590.239   192359329.548                                                                    36940573.728   156307643.371                                  
C03  36984819.072   192589644.868                                                                    36984805.939   156494803.868                                  
C08  38894547.618   202534111.413                                                                    38894545.010   164575589.884                                  
C09  38065391.145   198216484.067    38065394.629   153273525.210                                    38065392.824   161067088.970                                  
C12  22022045.451   114674559.657                                                                    22022043.271    93182488.408                                  
C19  22060421.537   114874420.908                                    22060420.054    86569816.525    22060416.087    93344831.312    22060416.248   115928287.285  
C20  23550385.559   122632962.996                                    23550386.452    92416738.743    23550379.430    99649322.649    23550380.591   123758008.499  
C36  22854871.061   119011375.569                                    22854878.870    89687504.712    22854874.492    96706517.895    22854867.684   120103076.243  
> 2026 06 07 16 34 03.0000000  0  9                     
C01  38584079.134   200917409.701                                                                    38584075.882   163261842.666                                  
C02  36940790.836   192360374.203                                                                    36940774.272   156308492.257                                  
C03  36984972.925   192590446.194                                                                    36984959.862   156495455.028                                  
C08  38889368.693   202507143.989                                                                    38889366.048   164553676.643                                  
C09  38070580.613   198243508.574    38070584.419   153294422.280                                    38070582.400   161089048.572                                  
C12  22027389.790   114702389.942                                                                    22027386.788    93205102.790                                  
C19  22060941.508   114877128.293                                    22060940.632    86571856.818    22060935.772    93347031.294    22060936.308   115931019.517  
C20  23558239.602   122673861.682                                    23558240.495    92447560.112    23558234.724    99682556.156    23558234.295   123799282.391  
C36  22851658.068   118994644.637                                    22851665.984    89674896.229    22851661.999    96692922.657    22851654.869   120086191.803  
> 2026 06 07 16 34 18.0000000  0  9                     
C01  38584059.764   200917308.744                                                                    38584056.476   163261760.644                                  
C02  36940990.165   192361412.370                                                                    36940973.618   156309335.863                                  
C03  36985125.508   192591240.778                                                                    36985112.410   156496100.728                                  
C08  38884189.535   202480175.966                                                                    38884187.481   164531762.941                                  
C09  38075773.065   198270547.180    38075776.960   153315330.250                                    38075774.995   161111019.664                                  
C12  22032752.820   114730316.425                                                                    22032749.282    93227795.316                                  
C19  22061484.440   114879954.534                                    22061483.922    86573986.687    22061478.025    93349327.839    22061479.169   115933871.681  
C20  23566106.350   122714826.639                                    23566106.207    92478431.447    23566102.097    99715843.506    23566101.400   123840623.170  
C36  22848454.652   118977963.275                                    22848462.211    89662325.124    22848458.566    96679367.722    22848451.382   120069357.394  
> 2026 06 07 16 34 33.0000000  0  9                     
C01  38584042.663   200917219.850                                                                    38584039.483   163261688.444                                  
C02  36941191.889   192362462.930                                                                    36941175.360   156310189.541                                  
C03  36985280.433   192592047.594                                                                    36985267.335   156496756.361                                  
C08  38879013.987   202453226.325                                                                    38879012.665   164509864.179                                  
C09  38080972.307   198297618.918    38080975.774   153336263.787                                    38080974.076   161133017.628                                  
C12  22038137.686   114758357.785                                                                    22038134.523    93250581.214                                  
C19  22062053.783   114882918.556                                    22062053.372    86576220.389    22062047.136    93351736.343    22062048.244   115936862.887  
C20  23573989.502   122755876.523                                    23573989.091    92509366.757    23573985.195    99749199.880    23573984.927   123882049.697  
C36  22845264.138   118961350.364                                    22845271.089    89649805.594    22845267.587    96665868.374    22845261.083   120052592.045  
> 2026 06 07 16 34 48.0000000  0  9                     
C01  38584024.401   200917125.167                                                                    38584021.256   163261611.523                                  
C02  36941392.576   192363508.036                                                                    36941375.957   156311038.789                                  
C03  36985434.249   192592848.732                                                                    36985421.169   156497407.379                                  
C08  38873838.654   202426277.313                                                                    38873837.868   164487965.930                                  
C09  38086174.462   198324705.691    38086177.464   153357208.972                                    38086176.017   161155027.812                                  
C12  22043541.296   114786496.033                                                                    22043538.330    93273445.844                                  
C19  22062646.016   114886002.504                                    22062645.426    86578544.469    22062640.012    93354242.291    22062640.494   115939975.119  
C20  23581885.626   122796993.248                                    23581885.877    92540352.463    23581880.230    99782610.554    23581880.748   123923543.646  
C36  22842083.649   118944787.878                                    22842090.743    89637324.069    22842087.169    96652410.025    22842080.325   120035877.615  
> 2026 06 07 16 35 03.0000000  0  9                     
C01  38584005.853   200917028.966                                                                    38584002.798   163261533.342                                  
C02  36941593.030   192364551.935                                                                    36941576.430   156311887.047                                  
C03  36985587.798   192593648.468                                                                    36985574.735   156498057.254                                  
C08  38868663.928   202399333.262                                                                    38868663.892   164466071.712                                  
C09  38091379.655   198351811.732    38091382.675   153378169.062                                    38091381.621   161177053.676                                  
C12  22048964.402   114814735.238                                                                    22048961.346    93296392.486                                  
C19  22063262.140   114889210.675                                    22063260.692    86580962.147    22063256.136    93356849.185    22063256.458   115943212.726  
C20  23589795.403   122838180.830                                    23589795.814    92571391.551    23589790.453    99816078.801    23589789.113   123965109.069  
C36  22838913.630   118928280.071                                    22838921.332    89624883.732    22838917.437    96638996.085    22838909.824   120019218.376  
> 2026 06 07 16 35 18.0000000  0  9                     
C01  38583986.626   200916929.259                                                                    38583983.624   163261452.320                                  
C02  36941792.877   192365592.641                                                                    36941776.313   156312732.708                                  
C03  36985740.703   192594444.776                                                                    36985727.659   156498704.369                                  
C08  38863489.684   202372392.243                                                                    38863490.417   164444179.949                                  
C09  38096587.814   198378934.841    38096591.048   153399142.341                                    38096590.316   161199093.420                                  
C12  22054406.413   114843073.234                                                                    22054403.000    93319419.415                                  
C19  22063901.619   114892541.074                                    22063900.135    86583471.923    22063895.758    93359555.403    22063896.311   115946573.687  
C20  23597718.349   122879437.029                                    23597718.242    92602482.352    23597714.221    99849602.809    23597710.612   124006743.748  
C36  22835753.744   118911824.835                                    22835761.249    89612483.026    22835757.997    96625624.885    22835749.706   120002612.194  
> 2026 06 07 16 35 33.0000000  0  9                     
C01  38583969.650   200916841.028                                                                    38583966.666   163261380.646                                  
C02  36941994.976   192366645.126                                                                    36941978.394   156313587.941                                  
C03  36985895.842   192595252.703                                                                    36985882.797   156499360.897                                  
C08  38858319.282   202345469.308                                                                    38858320.194   164422302.868                                  
C09  38101802.424   198406090.165    38101805.605   153420140.538                                    38101804.979   161221159.326                                  
C12  22059870.367   114871524.837                                                                    22059867.115    93342538.659                                  
C19  22064567.436   114896008.716                                    22064566.310    86586085.160    22064562.272    93362373.151    22064562.415   115950073.158  
C20  23605657.342   122920776.615                                    23605657.592    92633635.996    23605653.482    99883194.573    23605649.336   124048462.581  
C36  22832606.294   118895437.146                                    22832613.603    89600133.186    22832610.297    96612308.524    22832602.381   119986074.145  
> 2026 06 07 16 35 48.0000000  0  9                     
C01  38583955.856   200916769.317                                                                    38583952.925   163261322.375                                  
C02  36942200.309   192367714.459                                                                    36942183.709   156314456.866                                  
C03  36986054.143   192596077.228                                                                    36986041.099   156500030.926                                  
C08  38853153.526   202318569.605                                                                    38853154.241   164400444.678                                  
C09  38107024.271   198433282.445    38107027.433   153441167.299                                    38107026.665   161243255.283                                  
C12  22065357.051   114900094.920                                                                    22065354.227    93365754.173                                  
C19  22065260.629   114899618.674                                    22065260.022    86588805.646    22065255.143    93365306.547    22065255.840   115953716.255  
C20  23613613.167   122962204.384                                    23613613.935    92664856.086    23613609.772    99916858.013    23613606.055   124090270.439  
C36  22829472.943   118879121.875                                    22829480.395    89587837.962    22829474.855    96599051.080    22829469.673   119969609.192  
> 2026 06 07 16 36 03.0000000  0  9                     
C01  38583938.898   200916681.156                                                                    38583935.985   163261250.730                                  
C02  36942402.551   192368767.663                                                                    36942385.897   156315312.681                                  
C03  36986209.318   192596885.440                                                                    36986196.292   156500687.679                                  
C08  38847986.073   202291660.206                                                                    38847986.323   164378578.638                                  
C09  38112247.279   198460478.751    38112250.156   153462197.175                                    38112248.941   161265354.472                                  
C12  22070859.923   114928750.318                                                                    22070857.297    93389039.033                                  
C19  22065974.979   114903338.019                                    22065974.193    86591608.562    22065969.190    93368328.808    22065970.101   115957469.705  
C20  23621579.249   123003687.093                                    23621580.392    92696117.619    23621575.228    99950566.107    23621573.012   124132133.732  
C36  22826347.186   118862846.039                                    22826354.834    89575572.439    22826349.885    96585825.661    22826344.113   119953184.052  
> 2026 06 07 16 36 18.0000000  0  9                     
C01  38583919.010   200916577.855                                                                    38583916.133   163261166.803                                  
C02  36942601.933   192369806.040                                                                    36942585.315   156316156.452                                  
C03  36986361.598   192597678.610                                                                    36986348.553   156501332.223                                  
C08  38842817.190   202264742.574                                                                    38842817.101   164356705.895                                  
C09  38117471.448   198487680.286    38117474.075   153483231.114                                    38117472.270   161287457.954                                  
C12  22076379.146   114957492.198                                                                    22076376.609    93412394.150                                  
C19  22066710.540   114907168.055                                    22066709.217    86594494.884    22066704.839    93371441.013    22066705.322   115961334.864  
C20  23629556.356   123045225.858                                    23629557.374    92727421.375    23629551.120    99984319.730    23629550.638   124174053.590  
C36  22823229.274   118846610.900                                    22823236.976    89563337.573    22823233.402    96572633.278    22823226.379   119936799.914  
> 2026 06 07 16 36 33.0000000  0  9                     
C01  38583900.980   200916484.036                                                                    38583898.085   163261090.556                                  
C02  36942803.174   192370854.157                                                                    36942786.592   156317008.119                                  
C03  36986515.718   192598481.324                                                                    36986502.692   156501984.525                                  
C08  38837651.130   202237841.317                                                                    38837651.452   164334846.420                                  
C09  38122701.479   198514911.590    38122703.731   153504288.052                                    38122701.497   161309585.572                                  
C12  22081919.616   114986344.887                                                                    22081916.757    93435839.331                                  
C19  22067472.046   114911133.351                                    22067470.080    86597483.130    22067466.292    93374663.144    22067466.649   115965336.518  
C20  23637549.009   123086845.003                                    23637549.581    92758785.693    23637542.880   100018138.654    23637543.612   124216054.555  
C36  22820124.228   118830440.884                                    22820131.215    89551151.827    22820127.659    96559493.834    22820120.797   119920481.581  
> 2026 06 07 16 36 48.0000000  0  9                     
C01  38583882.057   200916385.651                                                                    38583879.197   163261010.639                                  
C02  36943003.611   192371898.071                                                                    36942987.011   156317856.389                                  
C03  36986668.981   192599279.589                                                                    36986656.008   156502633.215                                  
C08  38832485.464   202210942.562                                                                    38832486.322   164312988.979                                  
C09  38127934.458   198542158.489    38127936.352   153525357.049                                    38127934.244   161331725.869                                  
C12  22087479.419   115015294.330                                                                    22087476.453    93459363.099                                  
C19  22068256.764   114915219.953                                    22068254.602    86600562.794    22068250.617    93377983.841    22068251.493   115969460.598  
C20  23645554.403   123128530.287                                    23645554.421    92790199.844    23645548.131   100052011.318    23645549.221   124258122.277  
C36  22817028.884   118814321.981                                    22817035.353    89539004.582    22817032.637    96546395.910    22817025.114   119904214.801  
> 2026 06 07 16 37 03.0000000  0  9                     
C01  38583862.990   200916286.420                                                                    38583860.113   163260930.015                                  
C02  36943203.923   192372941.382                                                                    36943187.340   156318704.165                                  
C03  36986822.083   192600077.086                                                                    36986809.128   156503281.280                                  
C08  38827321.245   202184049.984                                                                    38827322.245   164291136.594                                  
C09  38133171.065   198569424.634    38133172.691   153546440.964                                    38133170.904   161353881.841                                  
C12  22093058.253   115044343.928                                                                    22093055.680    93482968.265                                  
C19  22069065.427   114919431.514                                    22069064.372    86603736.644    22069058.994    93381406.081    22069060.656   115973710.824  
C20  23653573.073   123170285.135                                    23653572.287    92821666.426    23653567.534   100085940.497    23653567.444   124300260.193  
C36  22813944.190   118798257.732                                    22813951.463    89526898.525    22813948.229    96533342.406    22813940.063   119888003.194  
> 2026 06 07 16 37 18.0000000  0  9                     
C01  38583845.443   200916195.134                                                                    38583842.566   163260855.849                                  
C02  36943405.860   192373992.978                                                                    36943389.296   156319558.661                                  
C03  36986976.739   192600882.655                                                                    36986963.802   156503935.890                                  
C08  38822160.028   202157172.544                                                                    38822160.349   164269296.519                                  
C09  38138412.925   198596718.747    38138414.122   153567546.461                                    38138412.889   161376060.513                                  
C12  22098658.030   115073502.370                                                                    22098655.206    93506661.857                                  
C19  22069899.892   114923776.903                                    22069899.481    86607011.362    22069894.085    93384937.065    22069895.389   115978096.087  
C20  23661606.486   123212118.094                                    23661605.824    92853191.882    23661601.804   100119933.186    23661600.374   124342476.932  
C36  22810871.255   118782256.945                                    22810879.063    89514840.237    22810874.971    96520340.447    22810867.073   119871855.588  
> 2026 06 07 16 37 33.0000000  0  9                     
C01  38583828.021   200916104.502                                                                    38583825.072   163260782.226                                  
C02  36943607.977   192375045.527                                                                    36943591.412   156320413.938                                  
C03  36987131.574   192601688.971                                                                    36987118.601   156504591.128                                  
C08  38817000.008   202130303.074                                                                    38816999.311   164247462.883                                  
C09  38143658.555   198624033.437    38143659.592   153588667.842                                    38143658.466   161398255.927                                  
C12  22104276.980   115102762.136                                                                    22104274.335    93530437.799                                  
C19  22070758.660   114928248.811                                    22070757.909    86610381.413    22070753.370    93388570.848    22070754.496   115982609.013  
C20  23669653.639   123254021.688                                    23669653.389    92884770.545    23669649.422   100153983.258    23669648.010   124384764.957  
C36  22807808.861   118766312.214                                    22807816.277    89502824.214    22807812.614    96507384.054    22807805.323   119855764.549  
> 2026 06 07 16 37 48.0000000  0  9                     
C01  38583810.706   200916014.343                                                                    38583807.721   163260708.991                                  
C02  36943810.272   192376098.847                                                                    36943793.672   156321269.854                                  
C03  36987286.516   192602495.883                                                                    36987273.526   156505246.818                                  
C08  38811841.239   202103441.405                                                                    38811839.899   164225635.603                                  
C09  38148907.742   198651368.465    38148909.153   153609804.975                                    38148907.688   161420467.840                                  
C12  22109915.103   115132122.874                                                                    22109913.084    93554295.799                                  
C19  22071641.765   114932847.089                                    22071640.389    86613846.690    22071636.064    93392307.325    22071637.530   115987249.474  
C20  23677714.445   123295995.456                                    23677714.284    92916402.124    23677709.799   100188090.376    23677709.513   124427123.846  
C36  22804757.440   118750423.237                                    22804764.141    89490850.236    22804761.228    96494472.972    22804753.795   119839729.807  
> 2026 06 07 16 38 03.0000000  0  9                     
C01  38583792.318   200915918.605                                                                    38583789.334   163260631.201                                  
C02  36944011.513   192377146.866                                                                    36943994.931   156322121.449                                  
C03  36987440.387   192603297.230                                                                    36987427.431   156505898.011                                  
C08  38806683.024   202076581.505                                                                    38806681.272   164203809.776                                  
C09  38154159.537   198678717.560    38154161.610   153630953.044                                    38154159.555   161442691.202                                  
C12  22115571.810   115161578.333                                                                    22115569.702    93578230.763                                  
C19  22072547.867   114937565.602                                    22072546.545    86617402.577    22072541.952    93396141.487    22072543.435   115992011.274  
C20  23685787.705   123338033.113                                    23685787.687    92948081.833    23685782.327   100222249.368    23685782.434   124469547.149  
C36  22801715.471   118734583.916                                    22801722.261    89478913.655    22801719.581    96481602.222    22801711.611   119823745.171  
> 2026 06 07 16 38 18.0000000  0  9                     
C01  38583774.092   200915823.791                                                                    38583771.090   163260554.185                                  
C02  36944212.986   192378196.132                                                                    36944196.422   156322974.054                                  
C03  36987594.471   192604099.627                                                                    36987581.516   156506550.050                                  
C08  38801526.524   202049730.054                                                                    38801524.773   164181990.785                                  
C09  38159415.495   198706087.397    38159418.051   153652117.106                                    38159415.513   161464931.417                                  
C12  22121248.031   115191134.884                                                                    22121245.743    93602247.860                                  
C19  22073478.271   114942410.950                                    22073477.306    86621054.045    22073473.000    93400078.736    22073473.554   115996901.092  
C20  23693873.920   123380140.926                                    23693874.135    92979814.420    23693868.935   100256465.378    23693868.846   124512041.290  
C36  22798684.384   118718800.697                                    22798691.836    89467019.368    22798688.834    96468777.052    22798680.596   119807817.178  
> 2026 06 07 16 38 33.0000000  0  9                     
C01  38583755.740   200915728.457                                                                    38583752.774   163260476.759                                  
C02  36944414.442   192379245.181                                                                    36944397.895   156323826.492                                  
C03  36987748.448   192604901.622                                                                    36987735.458   156507201.753                                  
C08  38796371.096   202022885.681                                                                    38796369.595   164160177.580                                  
C09  38164675.064   198733476.239    38164677.958   153673295.869                                    38164675.278   161487187.037                                  
C12  22126943.639   115220790.912                                                                    22126940.816    93626345.784                                  
C19  22074432.799   114947381.719                                    22074432.120    86624800.024    22074427.795    93404117.898    22074428.153   116001917.446  
C20  23701973.287   123422317.182                                    23701973.430    93011598.593    23701968.445   100290737.029    23701967.820   124554604.479  
C36  22795663.840   118703072.055                                    22795672.042    89455166.197    22795668.272    96455996.242    22795660.695   119791944.219  
> 2026 06 07 16 38 48.0000000  0  9                     
C01  38583737.443   200915633.195                                                                    38583734.441   163260399.360                                  
C02  36944615.969   192380294.631                                                                    36944599.404   156324679.227                                  
C03  36987902.462   192605703.778                                                                    36987889.453   156507853.606                                  
C08  38791217.080   201996049.066                                                                    38791215.651   164138370.609                                  
C09  38169937.902   198760884.626    38169941.547   153694489.755                                    38169938.974   161509458.579                                  
C12  22132658.063   115250546.773                                                                    22132655.329    93650524.842                                  
C19  22075411.485   114952478.417                                    22075410.878    86628640.928    22075406.464    93408259.388    22075406.982   116007060.915  
C20  23710086.056   123464562.253                                    23710085.949    93043434.594    23710081.285   100325064.572    23710080.821   124597237.125  
C36  22792654.143   118687398.456                                    22792661.827    89443354.528    22792658.467    96443260.180    22792650.676   119776126.846  
> 2026 06 07 16 39 03.0000000  0  9                     
C01  38583719.305   200915538.719                                                                    38583716.286   163260322.595                                  
C02  36944817.728   192381345.115                                                                    36944801.145   156325532.842                                  
C03  36988056.671   192606506.797                                                                    36988043.609   156508506.160                                  
C08  38786064.869   201969220.898                                                                    38786063.350   164116570.574                                  
C09  38175204.618   198788313.145    38175208.888   153715699.211                                    38175206.708   161531746.532                                  
C12  22138391.518   115280402.946                                                                    22138389.195    93674785.416                                  
C19  22076414.634   114957701.784                                    22076413.991    86632577.280    22076409.488    93412503.806    22076410.185   116012332.215  
C20  23718212.209   123506876.585                                    23718212.173    93075322.808    23718208.135   100359448.407    23718206.241   124639939.653  
C36  22789655.274   118671780.568                                    22789661.689    89431584.843    22789659.152    96430569.383    22789651.611   119760365.671  
> 2026 06 07 16 39 18.0000000  0  9                     
C01  38583701.597   200915446.470                                                                    38583698.542   163260247.659                                  
C02  36945019.951   192382398.147                                                                    36945003.369   156326388.502                                  
C03  36988211.346   192607312.136                                                                    36988198.194   156509160.599                                  
C08  38780914.856   201942402.817                                                                    38780913.319   164094778.696                                  
C09  38180475.962   198815763.250    38180480.322   153736925.363                                    38180478.571   161554051.956                                  
C12  22144144.628   115310360.766                                                                    22144141.841    93699128.575                                  
C19  22077442.550   114963053.291                                    22077441.460    86636610.189    22077437.314    93416852.336    22077438.243   116017732.829  
C20  23726351.781   123549261.389                                    23726352.567    93107264.133    23726347.260   100393889.480    23726345.295   124682713.285  
C36  22786667.127   118656219.767                                    22786673.256    89419858.183    22786669.825    96417924.984    22786663.124   119744662.109  
> 2026 06 07 16 39 33.0000000  0  9                     
C01  38583682.084   200915345.239                                                                    38583679.064   163260165.429                                  
C02  36945220.531   192383442.485                                                                    36945203.877   156327237.122                                  
C03  36988364.304   192608108.607                                                                    36988351.117   156509807.809                                  
C08  38775764.700   201915583.628                                                                    38775763.324   164072985.944                                  
C09  38185749.378   198843223.803    38185753.721   153758159.589                                    38185752.237   161576365.893                                  
C12  22149915.179   115340408.794                                                                    22149911.945    93723545.048                                  
C19  22078492.784   114968521.710                                    22078491.801    86640731.201    22078487.387    93421295.858    22078488.245   116023251.391  
C20  23734502.468   123591705.204                                    23734504.130    93139249.941    23734497.214   100428378.544    23734496.535   124725546.508  
C36  22783687.592   118640704.768                                    22783693.632    89408166.045    22783689.897    96405317.811    22783683.357   119729004.769  
> 2026 06 07 16 39 48.0000000  0  9                     
C01  38583661.874   200915240.350                                                                    38583658.980   163260080.221                                  
C02  36945420.432   192384483.456                                                                    36945403.778   156328082.984                                  
C03  36988516.602   192608901.489                                                                    36988503.415   156510452.129                                  
C08  38770615.276   201888768.748                                                                    38770614.151   164051196.683                                  
C09  38191026.101   198870699.774    38191030.086   153779405.718                                    38191028.728   161598692.355                                  
C12  22155704.224   115370552.188                                                                    22155701.079    93748038.980                                  
C19  22079566.372   114974112.317                                    22079565.497    86644944.315    22079560.226    93425838.693    22079562.245   116028893.299  
C20  23742665.591   123634213.071                                    23742667.664    93171284.031    23742661.071   100462919.659    23742660.302   124768444.361  
C36  22780717.832   118625240.764                                    22780724.372    89396512.322    22780721.746    96392752.044    22780713.186   119713398.903  
> 2026 06 07 16 40 03.0000000  0  9                     
C01  38583641.575   200915134.891                                                                    38583638.663   163259994.529                                  
C02  36945620.261   192385524.153                                                                    36945603.589   156328928.631                                  
C03  36988668.757   192609693.866                                                                    36988655.552   156511096.021                                  
C08  38765467.229   201861961.374                                                                    38765466.121   164029413.517                                  
C09  38196306.522   198898194.162    38196310.078   153800666.098                                    38196308.720   161621033.776                                  
C12  22161511.568   115400793.784                                                                    22161508.941    93772612.753                                  
C19  22080664.174   114979828.275                                    22080662.780    86649251.871    22080657.866    93430483.359    22080659.992   116034661.686  
C20  23750841.581   123676787.890                                    23750843.671    93203368.551    23750837.203   100497515.146    23750836.828   124811409.768  
C36  22777758.561   118609830.729                                    22777765.602    89384899.292    22777763.314    96380230.152    22777753.933   119697847.524  
> 2026 06 07 16 40 18.0000000  0 11                     
C01  38583623.706   200915042.188                                                                    38583620.829   163259919.227                                  
C02  36945822.610   192386577.898                                                                    36945805.956   156329784.882                                  
C03  36988823.377   192610499.109                                                                    36988810.190   156511750.368                                  
C07  37163818.222   193521751.4981                                                                                                                                 
C08  38760323.166   201835174.871                                                                    38760321.969   164007647.346                                  
C09  38201592.983   198925720.372    38201596.128   153821951.095                                    38201594.770   161643401.049                                  
C10                                  37299632.463   150190171.6151                                                                                                 
C12  22167340.729   115431146.799                                                                    22167338.692    93797277.043                                  
C19  22081788.546   114985682.840                                    22081786.884    86653663.879    22081782.596    93435240.663    22081784.186   116040569.969  
C20  23759032.687   123719442.660                                    23759034.081    93235513.347    23759027.613   100532175.627    23759028.363   124854455.894  
C36  22774811.906   118594488.020                                    22774819.035    89373336.936    22774816.284    96367762.918    22774807.564   119682364.012  
> 2026 06 07 16 40 33.0000000  0 10                     
C01  38583606.713   200914954.018                                                                    38583603.800   163259847.606                                  
C02  36946025.924   192387636.478                                                                    36946009.252   156330645.044                                  
C03  36988978.820   192611308.947                                                                    36988965.740   156512408.465                                  
C07  37164087.633   193523146.792                                                                                                                                  
C08  38755181.551   201808401.093                                                                    38755180.264   163985891.484                                  
C09  38206883.536   198953270.019    38206886.789   153843254.191                                    38206885.180   161665787.392                                  
C12  22173189.063   115461602.758                                                                    22173187.008    93822024.998                                  
C19  22082937.846   114991667.816                                    22082936.917    86658174.182    22082932.503    93440103.947    22082933.665   116046609.867  
C20  23767238.071   123762168.988                                    23767238.643    93267712.050    23767232.621   100566894.257    23767233.693   124897574.221  
C36  22771876.865   118579204.220                                    22771883.905    89361819.038    22771880.850    96355343.600    22771872.416   119666939.994  
> 2026 06 07 16 40 48.0000000  0 10                     
C01  38583586.932   200914851.025                                                                    38583584.073   163259763.951                                  
C02  36946226.468   192388680.519                                                                    36946209.725   156331493.425                                  
C03  36989131.439   192612104.054                                                                    36989118.359   156513054.574                                  
C07  37164349.754   193524511.098                                                                                                                                  
C08  38750038.739   201781620.778                                                                    38750037.631   163964130.329                                  
C09  38212174.643   198980823.601    38212178.217   153864560.335                                    38212176.305   161688176.891                                  
C12  22179053.748   115492142.133                                                                    22179051.104    93846840.715                                  
C19  22084108.482   114997763.826                                    22084107.767    86662768.158    22084103.032    93445057.458    22084104.122   116052761.789  
C20  23775453.658   123804947.290                                    23775453.962    93299949.890    23775448.351   100601655.055    23775449.531   124940744.960  
C36  22768949.508   118563959.972                                    22768957.067    89350330.910    22768953.779    96342956.421    22768944.969   119651555.910  
> 2026 06 07 16 41 03.0000000  0 10                     
C01  38583568.884   200914757.273                                                                    38583566.007   163259687.797                                  
C02  36946428.852   192389734.089                                                                    36946412.056   156332349.532                                  
C03  36989285.899   192612908.483                                                                    36989272.819   156513708.260                                  
C07  37164610.552   193525868.440                                                                                                                                  
C08  38744899.269   201754858.064                                                                    38744898.411   163942383.465                                  
C09  38217471.218   199008405.260    38217475.132   153885888.219                                    38217472.791   161710589.251                                  
C12  22184939.215   115522788.807                                                                    22184936.892    93871743.632                                  
C19  22085304.956   115003994.895                                    22085304.420    86667463.945    22085299.363    93450120.720    22085300.542   116059050.039  
C20  23783683.094   123847801.252                                    23783683.773    93332244.784    23783678.609   100636477.388    23783678.912   124983992.063  
C36  22766034.266   118548779.229                                    22766042.200    89338890.641    22766038.215    96330620.831    22766029.978   119636235.880  
> 2026 06 07 16 41 18.0000000  0 11                     
C01  38583550.390   200914661.043                                                                    38583547.441   163259609.624                                  
C02  36946630.737   192390785.455                                                                    36946613.904   156333203.877                                  
C03  36989439.930   192613710.522                                                                    36989426.814   156514359.999                                  
C07  37164867.115   193527207.179                                                                                                                                  
C08  38739760.709   201728101.354                                                                    38739759.995   163920641.444                                  
C09  38222771.171   199036003.019    38222775.173   153907228.548                                    38222772.475   161733014.669                                  
C10                                  37300914.780   150195330.050                                                                                                  
C12  22190842.979   115553530.841                                                                    22190840.066    93896724.041                                  
C19  22086525.303   115010349.339                                    22086524.481    86672252.667    22086519.870    93455284.214    22086520.907   116065462.780  
C20  23791924.555   123890718.940                                    23791926.342    93364587.741    23791920.660   100671351.538    23791921.142   125027303.536  
C36  22763128.996   118533650.204                                    22763135.804    89327489.353    22763132.748    96318327.258    22763124.600   119620968.039  
> 2026 06 07 16 41 33.0000000  0 10                     
C01  38583529.608   200914552.761                                                                    38583526.624   163259521.674                                  
C02  36946830.405   192391825.082                                                                    36946813.483   156334048.659                                  
C03  36989591.692   192614500.549                                                                    36989578.487   156515001.977                                  
C08  38734621.310   201701341.062                                                                    38734620.435   163898896.553                                  
C09  38228072.517   199063607.292    38228076.430   153928573.904                                    38228073.714   161755445.388                                  
C10                                  37301224.379   150196572.3221                                                                                                 
C12  22196763.129   115584358.481                                                                    22196759.252    93921773.995                                  
C19  22087767.629   115016817.552                                    22087766.038    86677127.104    22087761.446    93460540.153    22087762.411   116071990.299  
C20  23800176.899   123933690.600                                    23800179.079    93396971.315    23800173.164   100706269.500    23800173.504   125070669.425  
C36  22760231.587   118518563.201                                    22760237.984    89316119.751    22760235.393    96306067.843    22760227.138   119605742.632  
> 2026 06 07 16 41 48.0000000  0 10                     
C01  38583510.220   200914451.872                                                                    38583507.218   163259439.698                                  
C02  36947031.557   192392872.368                                                                    36947014.599   156334899.674                                  
C03  36989744.883   192615298.081                                                                    36989731.624   156515650.072                                  
C08  38729485.217   201674596.777                                                                    38729483.913   163877164.664                                  
C09  38233378.705   199091237.461    38233382.404   153949939.288                                    38233380.117   161777897.138                                  
C10                                  37301535.693   150197813.673                                                                                                  
C12  22202703.543   115615290.962                                                                    22202700.059    93946909.151                                  
C19  22089035.543   115023418.970                                    22089033.792    86682101.925    22089028.967    93465904.319    22089030.075   116078652.254  
C20  23808443.288   123976735.395                                    23808444.753    93429410.008    23808439.928   100741246.897    23808438.374   125114109.107  
C36  22757345.972   118503537.614                                    22757352.905    89304796.419    22757349.939    96293858.337    22757341.505   119590579.190  
> 2026 06 07 16 42 03.0000000  0 11                     
C01  38583491.440   200914354.325                                                                    38583488.456   163259360.490                                  
C02  36947233.441   192393923.304                                                                    36947216.376   156335753.655                                  
C03  36989898.699   192616099.044                                                                    36989885.494   156516300.949                                  
C07                                                                                                  37165612.557   157259866.360                                  
C08  38724351.572   201647864.534                                                                    38724350.035   163855442.583                                  
C09  38238689.004   199118889.369    38238692.381   153971321.500                                    38238690.898   161800366.592                                  
C10                                  37301841.039   150199044.137                                                                                                  
C12  22208663.202   115646324.077                                                                    22208660.343    93972126.077                                  
C19  22090327.831   115030149.525                                    22090326.651    86687174.104    22090321.809    93471373.444    22090322.470   116085444.575  
C20  23816722.864   124019849.041                                    23816723.561    93461900.589    23816719.683   100776280.230    23816717.985   125157618.273  
C36  22754471.436   118488569.305                                    22754477.958    89293516.262    22754475.796    96281695.390    22754467.165   119575473.559  
> 2026 06 07 16 42 18.0000000  0 11                     
C01  38583472.749   200914257.264                                                                    38583469.800   163259281.653                                  
C02  36947435.468   192394974.984                                                                    36947418.260   156336608.252                                  
C03  36990052.623   192616900.577                                                                    36990039.400   156516952.267                                  
C07  37165856.219   193532365.1231                                                                   37165857.131   157260900.769                                  
C08  38719219.856   201621141.476                                                                    38719218.445   163833727.966                                  
C09  38244002.733   199146560.026    38244005.860   153992718.133                                    38244005.324   161822851.256                                  
C10                                  37302143.133   150200261.222                                                                                                  
C12  22214641.587   115677454.720                                                                    22214638.496    93997422.237                                  
C19  22091644.563   115037006.300                                    22091643.473    86692341.414    22091639.042    93476945.150    22091639.363   116092364.283  
C20  23825014.680   124063028.342                                    23825015.806    93494440.669    23825011.589   100811366.930    23825009.891   125201193.723  
C36  22751607.228   118473655.312                                    22751613.518    89282277.019    22751611.392    96269576.539    22751602.993   119560422.718  
> 2026 06 07 16 42 33.0000000  0 11                     
C01  38583454.772   200914163.622                                                                    38583451.788   163259205.573                                  
C02  36947638.210   192396030.383                                                                    36947620.966   156337465.850                                  
C03  36990207.208   192617705.588                                                                    36990194.021   156517606.437                                  
C07                                                                                                  37166098.917   157261924.969                                  
C08  38714090.357   201594430.709                                                                    38714089.231   163812023.299                                  
C09  38249320.536   199174252.396    38249323.717   154014131.616                                    38249323.288   161845353.539                                  
C10                                  37302442.403   150201467.379                                                                                                  
C12  22220639.200   115708685.656                                                                    22220636.734    94022799.907                                  
C19  22092986.170   115043992.315                                    22092985.312    86697606.106    22092980.773    93482621.866    22092981.256   116099414.404  
C20  23833319.809   124106276.063                                    23833321.417    93527032.291    23833316.467   100846509.239    23833315.056   125244838.250  
C36  22748754.135   118458798.469                                    22748760.514    89271080.881    22748758.030    96257504.170    22748749.936   119545429.582  
> 2026 06 07 16 42 48.0000000  0 11                     
C01  38583435.438   200914063.130                                                                    38583432.418   163259123.955                                  
C02  36947839.648   192397079.178                                                                    36947822.368   156338318.090                                  
C03  36990360.489   192618503.812                                                                    36990347.283   156518255.076                                  
C07  37166342.078   193534892.867                                                                    37166336.932   157262930.410                                  
C08  38708960.947   201567722.012                                                                    38708960.268   163790320.293                                  
C09  38254640.609   199201955.954    38254644.040   154035553.729                                    38254642.985   161867864.943                                  
C10                                  37302736.581   150202654.726                                                                                                  
C12  22226653.734   115740006.357                                                                    22226652.519    94048250.531                                  
C19  22094350.702   115051097.190                                    22094349.916    86702960.366    22094344.001    93488395.150    22094345.788   116106584.468  
C20  23841636.338   124149581.680                                    23841637.750    93559667.562    23841633.211   100881698.560    23841631.281   125288541.151  
C36  22745910.048   118443988.443                                    22745916.641    89259920.008    22745913.907    96245469.831    22745905.563   119530483.711  
> 2026 06 07 16 43 03.0000000  0 11                     
C01  38583414.460   200913954.033                                                                    38583411.440   163259035.326                                  
C02  36948039.495   192398119.660                                                                    36948022.180   156339163.578                                  
C03  36990512.143   192619293.510                                                                    36990498.938   156518896.788                                  
C07  37166573.393   193536105.477                                                                    37166570.337   157263915.694                                  
C08  38703831.894   201541013.659                                                                    38703830.911   163768617.570                                  
C09  38259962.683   199229669.062    38259966.471   154056983.266                                    38259964.380   161890384.120                                  
C10                                  37303022.825   150203813.8861                                                                                                 
C12  22232685.119   115771414.949                                                                    22232683.654    94073772.584                                  
C19  22095737.874   115058319.217                                    22095736.159    86708402.904    22095731.012    93494263.605    22095732.799   116113872.748  
C20  23849963.589   124192943.141                                    23849965.018    93592344.918    23849960.479   100916933.294    23849959.068   125332300.424  
C36  22743074.520   118429223.431                                    22743081.095    89248793.041    22743078.469    96233472.048    22743070.267   119515583.213  
> 2026 06 07 16 43 18.0000000  0 11                     
C01  38583397.699   200913866.925                                                                    38583394.661   163258964.565                                  
C02  36948243.630   192399182.401                                                                    36948226.244   156340027.145                                  
C03  36990668.050   192620105.264                                                                    36990654.809   156519556.423                                  
C07  37166807.423   193537323.866                                                                    37166802.581   157264908.8151                                 
C08  38698709.149   201514336.346                                                                    38698707.219   163746940.123                                  
C09  38265292.601   199257422.116    38265296.676   154078443.722                                    38265293.727   161912935.717                                  
C10                                  37303314.340   150204970.168                                                                                                  
C12  22238739.448   115802941.756                                                                    22238737.035    94099390.695                                  
C19  22097153.404   115065688.958                                    22097150.724    86713956.731    22097147.651    93500252.112    22097148.240   116121310.099  
C20  23858307.422   124236390.846                                    23858308.976    93625087.234    23858303.151   100952238.066    23858302.222   125376146.709  
C36  22740253.519   118414533.900                                    22740260.345    89237722.987    22740257.540    96221535.614    22740249.284   119500758.914  
> 2026 06 07 16 43 33.0000000  0 11                     
C01  38583379.562   200913772.576                                                                    38583376.506   163258887.927                                  
C02  36948446.462   192400238.178                                                                    36948428.968   156340885.071                                  
C03  36990822.582   192620909.856                                                                    36990809.323   156520210.239                                  
C07  37167037.147   193538519.059                                                                                                                                  
C08  38693586.618   201487660.984                                                                    38693583.902   163725264.237                                  
C09  38270624.789   199285185.784    38270628.738   154099912.338                                    38270625.879   161935495.993                                  
C10                                  37303600.476   150206121.465                                                                                                  
C12  22244811.342   115834557.454                                                                    22244808.876    94125080.995                                  
C19  22098591.468   115073177.144                                    22098589.145    86719599.833    22098585.750    93506336.867    22098585.946   116128866.946  
C20  23866661.994   124279895.233                                    23866663.245    93657872.310    23866656.883   100987588.934    23866656.562   125420050.247  
C36  22737441.310   118399890.549                                    22737448.976    89226687.702    22737445.098    96209636.710    22737436.950   119485981.231  
> 2026 06 07 16 43 48.0000000  0 11                     
C01  38583360.353   200913672.529                                                                    38583357.225   163258806.642                                  
C02  36948648.239   192401288.524                                                                    36948630.673   156341738.570                                  
C03  36990976.023   192621708.816                                                                    36990962.782   156520859.459                                  
C07  37167262.619   193539692.266                                                                                                                                  
C08  38688464.516   201460989.118                                                                    38688461.657   163703591.168                                  
C09  38275959.300   199312961.511    38275962.981   154121390.256                                    38275960.658   161958066.027                                  
C10                                  37303882.074   150207254.509                                                                                                  
C12  22250900.247   115866263.284                                                                    22250897.442    94150844.553                                  
C19  22100052.350   115080785.259                                    22100050.634    86725333.336    22100046.542    93512519.103    22100047.060   116136544.860  
C20  23875027.913   124323457.629                                    23875029.003    93690701.071    23875022.517   101022986.919    23875023.017   125464012.290  
C36  22734638.214   118385294.835                                    22734646.077    89215688.285    22734642.003    96197776.490    22734633.926   119471251.573  
> 2026 06 07 16 44 03.0000000  0 11                     
C01  38583337.695   200913554.525                                                                    38583334.460   163258710.802                                  
C02  36948846.621   192402321.204                                                                    36948828.948   156342577.719                                  
C03  36991126.015   192622489.887                                                                    36991112.775   156521494.165                                  
C07  37167481.407   193540831.505                                                                                                                                  
C08  38683340.770   201434308.635                                                                    38683338.144   163681911.100                                  
C09  38281293.561   199340737.019    38281297.153   154142868.036                                    38281295.026   161980635.862                                  
C10                                  37304156.775   150208360.158                                                                                                  
C12  22257003.537   115898046.792                                                                    22257000.481    94176671.242                                  
C19  22101533.727   115088501.069                                    22101532.691    86731148.016    22101527.420    93518788.828    22101529.081   116144331.493  
C20  23883402.535   124367065.556                                    23883404.000    93723564.143    23883396.924   101058421.894    23883397.192   125508020.310  
C36  22731842.034   118370734.375                                    22731849.217    89204715.492    22731846.823    96185944.942    22731837.835   119456557.572  
> 2026 06 07 16 44 18.0000000  0 11                     
C01  38583317.163   200913447.807                                                                    38583313.929   163258624.118                                  
C02  36949047.182   192403365.443                                                                    36949029.439   156343426.251                                  
C03  36991278.224   192623282.324                                                                    36991264.929   156522138.104                                  
C07  37167699.034   193541966.004                                                                                                                                  
C08  38678221.134   201407648.755                                                                    38678218.615   163660247.786                                  
C09  38286633.308   199368541.472    38286636.685   154164368.194                                    38286634.576   162003229.257                                  
C10                                  37304430.117   150209460.871                                                                                                  
C12  22263127.555   115929937.012                                                                    22263125.107    94202584.656                                  
C19  22103041.498   115096353.774                                    22103040.783    86737065.871    22103035.458    93525169.801    22103037.352   116152256.264  
C20  23891791.326   124410747.953                                    23891793.041    93756483.326    23891786.394   101093917.370    23891786.108   125552103.461  
C36  22729058.255   118356238.375                                    22729065.134    89193791.271    22729063.597    96174165.747    22729053.626   119441928.596  
> 2026 06 07 16 44 33.0000000  0 10                     
C01  38583297.811   200913347.379                                                                    38583294.630   163258542.542                                  
C02  36949249.013   192404416.207                                                                    36949231.216   156344280.097                                  
C03  36991431.594   192624081.078                                                                    36991418.228   156522787.180                                  
C08  38673104.411   201381004.622                                                                    38673101.963   163638597.270                                  
C09  38291977.414   199396369.695    38291980.702   154185886.703                                    38291978.540   162025841.940                                  
C10                                  37304701.298   150210552.782                                    37304699.243   157848389.8211                                 
C12  22269271.425   115961928.775                                                                    22269268.816    94228580.539                                  
C19  22104574.767   115104338.337                                    22104574.392    86743083.058    22104569.210    93531657.912    22104570.282   116160314.057  
C20  23900193.394   124454499.530                                    23900194.627    93789454.689    23900189.177   101129469.089    23900187.426   125596256.407  
C36  22726285.697   118341801.728                                    22726293.881    89182911.780    22726291.218    96162434.787    22726281.623   119427359.491  
