     3.04           OBSERVATION DATA    M: Mixed            RINEX VERSION / TYPE
CONVBIN EX 2.5.0                        20260702 082859 UTC PGM / RUN BY / DATE 
format: RTCM 3                                              COMMENT             
log: C:\Users\Admin\Desktop\540423494727\2026-06-08\0.rtcm3 COMMENT             
0000                                                        MARKER NAME         
                                                            MARKER NUMBER       
                                                            MARKER TYPE         
                                                            OBSERVER / AGENCY   
                    NONE                                    REC # / TYPE / VERS 
NONE                NONE                                    ANT # / TYPE        
  -492860.3329  5551481.2314  3092889.6323                  APPROX POSITION XYZ 
        0.0000        0.0000        0.0000                  ANTENNA: DELTA H/E/N
C   10 C2I L2I C7I L7I C5P L5P C6I L6I C1P L1P              SYS / # / OBS TYPES 
  2026    06    07    16    00   18.0000000     GPS         TIME OF FIRST OBS   
  2026    06    07    17    00   03.0000000     GPS         TIME OF LAST OBS    
C L2I                                                       SYS / PHASE SHIFT   
C L7I                                                       SYS / PHASE SHIFT   
C L5P  0.00000                                              SYS / PHASE SHIFT   
C L6I                                                       SYS / PHASE SHIFT   
C L1P  0.00000                                              SYS / PHASE SHIFT   
  0                                                         GLONASS SLOT / FRQ #
 C1C    0.000 C1P    0.000 C2C    0.000 C2P    0.000        GLONASS COD/PHS/BIS 
                                                            END OF HEADER       
> 2026 06 07 16 00 18.0000000  0 12                     
C01  38586179.798   200928460.432                                                                    38586176.922   163270739.287                                  
C02  36913760.615   192219615.896                                                                    36913753.235   156194176.152                                  
C03  36964011.453   192481272.894                                                                    36964000.213   156406755.585                                  
C06  39099304.750   203600382.451                                                                    39099302.784   165441957.132                                  
C07  37079991.419   193085224.910                                                                    37079989.524   156897568.524                                  
C08  39592758.891   206169850.360                                                                    39592759.963   167529894.677                                  
C09  37412247.889   194815503.861    37412246.584   150643540.557                                    37412243.546   158303437.851                                  
C10  37205312.219   193737833.445    37205308.717   149810644.782                                    37205306.144   157428113.152                                  
C12  21495007.697   111930111.448                                                                    21495003.569    90952399.088                                  
C19  22203169.371   115617771.580                                    22203162.259    87129993.633    22203163.653    93948878.398    22203162.580   116678416.461  
C20  22641479.546   117900223.982                                    22641477.849    88850053.560    22641472.649    95803466.095    22641472.345   118981871.327  
C36  23387611.482   121785184.022                                    23387623.133    91778189.982    23387613.055    98960645.457    23387603.942   122902916.186  
> 2026 06 07 16 00 33.0000000  0 12                     
C01  38586167.522   200928396.373                                                                    38586164.503   163270687.225                                  
C02  36913956.067   192220634.587                                                                    36913948.758   156195003.917                                  
C03  36964166.467   192482079.484                                                                    36964155.102   156407410.973                                  
C06  39104210.815   203625929.871                                                                    39104208.957   165462716.492                                  
C07                                                                                                  37080760.072   156900833.454                                  
C08  39587564.974   206142801.858                                                                    39587565.367   167507915.592                                  
C09  37416765.428   194839033.139    37416765.499   150661734.925                                    37416762.372   158322557.336                                  
C10  37206140.449   193742147.795    37206137.232   149813980.833                                    37206133.837   157431618.899                                  
C12  21497488.060   111943026.237                                                                    21497483.557    90962893.374                                  
C19  22200594.462   115604362.734                                    22200589.298    87119888.686    22200600.377    93938002.5881   22200587.565   116664884.616  
C20  22647095.637   117929465.290                                    22647095.351    88872089.903    22647086.595    95827227.024    22647088.525   119011380.898  
C36  23382849.566   121760388.851                                    23382866.113    91759504.292    23382854.802    98940497.402    23382843.277   122877893.540  
> 2026 06 07 16 00 48.0000000  0 12                     
C01  38586158.302   200928348.125                                                                    38586155.193   163270647.967                                  
C02  36914154.734   192221669.539                                                                    36914147.551   156195844.928                                  
C03  36964324.536   192482902.113                                                                    36964313.153   156408079.440                                  
C06  39109121.670   203651503.859                                                                    39109120.329   165483497.461                                  
C07                                                                                                  37081531.532   156904098.394                                  
C08  39582372.986   206115764.639                                                                    39582372.647   167485945.663                                  
C09  37421291.901   194862609.450    37421293.331   150679965.616                                    37421289.936   158341715.029                                  
C10  37206968.892   193746463.661    37206966.158   149817318.132                                    37206961.870   157435125.870                                  
C12  21499994.208   111956073.740                                                                    21499990.509    90973495.499                                  
C19  22198044.052   115591081.850                                    22198041.658    87109880.196    22198032.366    93927131.203    22198037.173   116651481.887  
C20  22652733.904   117958821.506                                    22652732.724    88894212.808    22652726.470    95851081.303    22652727.864   119041006.399  
C36  23378103.536   121735672.490                                    23378140.132    91740877.906    23378110.416    98920413.329    23378097.407   122852950.500  
> 2026 06 07 16 01 03.0000000  0 12                     
C01  38586150.261   200928306.064                                                                    38586147.152   163270613.846                                  
C02  36914354.599   192222711.297                                                                    36914347.523   156196691.379                                  
C03  36964483.838   192483731.243                                                                    36964472.259   156408753.139                                  
C06  39114035.776   203677094.797                                                                    39114035.025   165504292.235                                  
C07  37082312.444   193097329.2271                                                                   37082302.491   156907355.714                                  
C08  39577181.338   206088729.248                                                                    39577180.105   167463977.151                                  
C09  37425826.398   194886223.077    37425828.185   150698225.165                                    37425824.486   158360903.004                                  
C10  37207795.763   193750771.452    37207793.512   149820649.171                                    37207788.687   157438626.300                                  
C12  21502524.247   111969244.265                                                                    21502519.673    90984197.632                                  
C19  22195516.193   115577919.531                                    22195514.228    87099961.015    22195509.206    93916435.807    22195509.868   116638198.813  
C20  22658391.790   117988282.827                                    22658389.807    88916414.928    22658385.286    95875021.013    22658384.160   119070737.884  
C36  23373371.229   121711025.343                                    23373409.201    91722303.625    23373376.072    98900385.527    23373364.082   122828077.302  
> 2026 06 07 16 01 18.0000000  0 12                     
C01  38586139.361   200928248.920                                                                    38586136.484   163270567.419                                  
C02  36914551.534   192223738.404                                                                    36914544.779   156197525.989                                  
C03  36964640.246   192484545.498                                                                    36964628.667   156409414.792                                  
C06  39118949.185   203702681.291                                                                    39118948.435   165525083.362                                  
C07  37083076.130   193101306.946                                                                    37083068.018   156910587.994                                  
C08  39571985.384   206061674.399                                                                    39571983.918   167441992.848                                  
C09  37430363.861   194909852.635    37430365.934   150716497.079                                    37430362.182   158380103.975                                  
C10  37208617.042   193755049.854    37208615.308   149823957.512                                    37208610.412   157442102.822                                  
C12  21505071.923   111982516.465                                                                    21505068.153    90994982.408                                  
C19  22193006.721   115564854.637                                    22193004.613    87090115.203    22193003.219    93905819.541    22193000.664   116625014.022  
C20  22664064.973   118017827.793                                    22664064.615    88938680.119    22664057.271    95899028.707    22664058.879   119100553.935  
C36  23368647.303   121686426.179                                    23368678.556    91703765.474    23368647.839    98880396.814    23368640.262   122803252.458  
> 2026 06 07 16 01 33.0000000  0 12                     
C01  38586129.068   200928194.882                                                                    38586125.959   163270523.521                                  
C02  36914749.362   192224769.119                                                                    36914742.554   156198363.522                                  
C03  36964797.315   192485363.134                                                                    36964785.718   156410079.203                                  
C06  39123865.365   203728281.449                                                                    39123864.418   165545885.616                                  
C07  37083837.279   193105272.093                                                                                                                                  
C08  39566788.840   206034618.273                                                                    39566787.785   167420007.575                                  
C09  37434907.668   194933516.237    37434910.152   150734795.268                                    37434906.542   158399332.595                                  
C10  37209436.265   193759316.986    37209434.943   149827257.118                                    37209430.100   157445570.228                                  
C12  21507644.384   111995908.545                                                                    21507639.112    91005864.598                                  
C19  22190519.353   115551905.525                                    22190518.102    87080356.650    22190520.926    93895297.341    22190513.581   116611946.066  
C20  22669757.168   118047474.435                                    22669757.900    88961021.981    22669749.270    95923119.055    22669753.469   119130472.702  
C36  23363935.277   121661893.109                                    23363960.276    91685277.245    23363936.474    98860461.716    23363929.184   122778494.279  
> 2026 06 07 16 01 48.0000000  0 12                     
C01  38586115.702   200928125.177                                                                    38586112.432   163270466.797                                  
C02  36914944.402   192225784.638                                                                    36914937.469   156199188.727                                  
C03  36964951.417   192486165.345                                                                    36964939.820   156410731.043                                  
C06  39128781.043   203753876.379                                                                    39128779.310   165566683.635                                  
C07  37084592.477   193109205.840                                                                                                                                  
C08  39561588.722   206007542.346                                                                    39561588.686   167398006.168                                  
C09  37439454.620   194957195.036    37439457.193   150753105.229                                    37439453.976   158418573.561                                  
C10  37210249.895   193763554.057    37210248.769   149830533.479                                                                                                  
C12  21510236.035   112009401.829                                                                    21510229.567    91016828.916                                  
C19  22188050.730   115539053.561                                    22188050.998    87070671.330    22188063.202    93884854.063    22188045.494   116598976.183  
C20  22675465.552   118077203.911                                    22675467.071    88983426.241    22675459.370    95947276.680    22675462.086   119160474.958  
C36  23359232.937   121637407.294                                    23359249.680    91666824.732    23359237.046    98840565.037    23359227.469   122753783.817  
> 2026 06 07 16 02 03.0000000  0 12                     
C01  38586103.587   200928061.959                                                                    38586100.246   163270415.474                                  
C02  36915140.765   192226807.202                                                                    36915133.885   156200019.630                                  
C03  36965106.824   192486974.304                                                                    36965095.102   156411388.401                                  
C06  39133700.421   203779488.293                                                                    39133697.562   165587495.411                                  
C07  37085345.978   193113130.349                                                                                                                                  
C08  39556389.318   205980468.712                                                                    39556390.748   167376006.647                                  
C09  37444009.362   194980911.179    37444011.328   150771444.057                                    37444008.719   158437844.872                                  
C10  37211062.024   193767783.254    37211061.006   149833803.784                                    37211057.664   157452160.6541                                 
C12  21512850.577   112023018.305                                                                    21512845.735    91027893.363                                  
C19  22185605.622   115526321.153                                    22185606.033    87061076.109    22185597.224    93874498.4701   22185600.976   116586126.967  
C20  22681195.558   118107038.276                                    22681196.505    89005909.521    22681189.465    95971519.545    22681190.305   119190583.026  
C36  23354544.230   121612990.957                                    23354557.364    91648424.518    23354549.037    98820724.829    23354539.495   122729143.497  
> 2026 06 07 16 02 18.0000000  0 12                     
C01  38586090.954   200927996.159                                                                    38586087.487   163270361.928                                  
C02  36915336.788   192227827.623                                                                    36915329.694   156200848.810                                  
C03  36965261.730   192487780.900                                                                    36965250.008   156412043.840                                  
C06  39138621.157   203805107.898                                                                    39138617.422   165608313.455                                  
C07  37086095.727   193117036.498                                                                                                                                  
C08  39551189.397   205953388.487                                                                    39551191.970   167354001.731                                  
C09  37448568.018   195004655.574    37448570.859   150789804.604                                    37448569.054   158457139.015                                  
C10  37211870.812   193771995.365    37211869.936   149837060.900                                    37211867.739   157455588.5181                                 
C12  21515487.545   112036748.732                                                                    21515483.560    91039050.508                                  
C19  22183182.011   115513699.267                                    22183182.332    87051564.172    22183175.167    93864242.156    22183176.954   116573389.289  
C20  22686944.363   118136968.237                                    22686944.791    89028464.813    22686936.732    95995840.033    22686937.554   119220787.503  
C36  23349867.496   121588634.880                                    23349878.860    91630069.773    23349873.410    98800933.605    23349862.385   122704564.035  
> 2026 06 07 16 02 33.0000000  0 12                     
C01  38586078.946   200927933.322                                                                    38586075.408   163270310.835                                  
C02  36915533.562   192228851.540                                                                    36915526.253   156201680.800                                  
C03  36965417.298   192488590.714                                                                    36965405.523   156412701.876                                  
C06  39143543.966   203830740.742                                                                    39143540.088   165629142.198                                  
C07  37086842.688   193120929.897                                                                                                                                  
C08  39545989.261   205926307.279                                                                    39545992.370   167331996.045                                  
C09  37453131.695   195028433.274    37453136.788   150808191.201                                    37453135.823   158476460.538                                  
C10  37212677.134   193776196.042    37212676.562   149840309.095                                                                                                  
C12  21518147.027   112050598.728                                                                    21518142.846    91050304.835                                  
C19  22180780.718   115501193.723                                    22180781.111    87042139.927    22180775.035    93854080.356    22180774.910   116560769.025  
C20  22692711.893   118166999.187                                    22692711.643    89051096.243    22692703.817    96020242.603    22692705.085   119251094.006  
C36  23345202.609   121564344.778                                    23345214.634    91611764.676    23345208.202    98781195.933    23345197.105   122680051.059  
> 2026 06 07 16 02 48.0000000  0 12                     
C01  38586071.959   200927896.815                                                                    38586068.617   163270281.220                                  
C02  36915735.392   192229902.278                                                                    36915727.977   156202534.611                                  
C03  36965577.994   192489427.132                                                                    36965566.129   156413381.508                                  
C06  39148473.529   203856410.015                                                                    39148469.991   165650000.590                                  
C07  37087591.489   193124833.766                                                                                                                                  
C08  39540793.092   205899248.484                                                                    39540796.005   167310008.577                                  
C09                                  37457713.527   150826621.803                                    37457713.187   158495828.303                                  
C10  37213485.689   193780408.464    37213485.403   149843566.454                                                                                                  
C12  21520834.832   112064591.652                                                                    21520828.935    91061675.217                                  
C19  22178406.050   115488827.968                                    22178406.639    87032821.033    22178400.957    93844032.163    22178400.492   116548289.863  
C20  22698503.011   118197154.378                                    22698502.011    89073821.260    22698495.471    96044746.130    22698496.579   119281525.855  
C36  23340554.340   121540143.869                                    23340566.062    91593526.798    23340557.574    98761530.759    23340548.353   122655628.129  
> 2026 06 07 16 03 03.0000000  0 12                     
C01  38586059.397   200927831.260                                                                    38586055.805   163270227.927                                  
C02  36915931.737   192230924.415                                                                    36915924.179   156203365.202                                  
C03  36965733.080   192490234.698                                                                    36965721.179   156414037.734                                  
C06  39153399.375   203882060.341                                                                    39153396.051   165670843.545                                  
C07  37088331.571   193128692.868                                                                    37088317.079   156932809.4921                                 
C08  39535590.866   205872156.790                                                                    39535593.439   167287994.401                                  
C09  37462264.142   195075836.6101   37462290.677   150845053.513                                    37462290.159   158515197.281                                  
C10  37214286.096   193784577.287    37214285.846   149846790.088                                                                                                  
C12  21523539.255   112078672.102                                                                    21523532.483    91073116.671                                  
C19  22176047.839   115476546.846                                    22176047.964    87023565.893    22176042.389    93834052.707    22176042.228   116535896.053  
C20  22704307.299   118227378.260                                    22704305.727    89096598.047    22704299.365    96069305.439    22704301.259   119312026.947  
C36  23335913.040   121515976.756                                    23335923.904    91575314.369    23335919.204    98741893.034    23335907.947   122631239.300  
> 2026 06 07 16 03 18.0000000  0 12                     
C01  38586042.582   200927743.811                                                                    38586039.044   163270156.851                                  
C02  36916124.062   192231925.232                                                                    36916116.253   156204178.448                                  
C03  36965884.001   192491020.669                                                                    36965872.172   156414676.387                                  
C06  39158322.898   203907698.803                                                                    39158319.521   165691676.875                                  
C07  37089064.415   193132514.189                                                                    37089053.747   156935914.585                                  
C08  39530384.297   205845039.473                                                                    39530385.423   167265959.412                                  
C09  37466865.022   195099681.567    37466869.793   150863491.915                                    37466868.774   158534573.205                                  
C10  37215080.035   193788709.762    37215079.249   149849985.562                                                                                                  
C12  21526261.636   112092847.190                                                                    21526255.686    91084635.086                                  
C19  22173707.194   115464357.677                                    22173706.211    87014380.018    22173700.886    93824147.978    22173702.065   116523595.045  
C20  22710126.043   118257677.845                                    22710123.630    89119431.889    22710117.322    96093926.298    22710121.164   119342604.592  
C36  23331279.816   121491850.612                                    23331290.949    91557132.804    23331288.108    98722288.589    23331276.850   122606891.770  
> 2026 06 07 16 03 33.0000000  0 12                     
C01  38586031.897   200927688.223                                                                    38586028.323   163270111.663                                  
C02  36916322.729   192232958.363                                                                    36916314.635   156205017.959                                  
C03  36966041.106   192491838.724                                                                    36966029.241   156415341.122                                  
C06  39163254.391   203933379.015                                                                    39163250.925   165712544.134                                  
C07  37089800.386   193136351.639                                                                    37089793.936   156939032.840                                  
C08  39525183.160   205817950.373                                                                    39525182.481   167243947.316                                  
C09  37471456.503   195123588.786    37471460.988   150881978.475                                    37471459.880   158553999.774                                  
C10  37215877.780   193792859.463    37215876.011   149853194.401                                                                                                  
C12  21529012.233   112107170.553                                                                    21529006.747    91096273.977                                  
C19  22171394.263   115452314.324                                    22171392.637    87005304.046    22171386.955    93814361.744    22171389.957   116511441.161  
C20  22715969.570   118288106.718                                    22715967.462    89142363.178    22715961.637    96118652.203    22715966.193   119373312.699  
C36  23326664.677   121467819.121                                    23326676.327    91539022.569    23326672.164    98702761.100    23326660.781   122582639.804  
> 2026 06 07 16 03 48.0000000  0 12                     
C01  38586020.889   200927630.661                                                                    38586017.190   163270064.872                                  
C02  36916521.076   192233990.099                                                                    36916512.802   156205856.291                                  
C03  36966197.889   192492655.049                                                                    36966186.006   156416004.460                                  
C06  39168187.439   203959067.133                                                                    39168183.829   165733417.831                                  
C07  37090532.927   193140171.200                                                                    37090530.890   156942136.471                                  
C08  39519980.576   205790855.743                                                                    39519977.896   167221930.780                                  
C09  37476053.220   195147524.434    37476057.812   150900486.991                                    37476057.133   158573449.434                                  
C10  37216672.844   193796992.564    37216669.681   149856390.456                                                                                                  
C12  21531785.058   112121608.386                                                                    21531779.483    91108005.923                                  
C19  22169102.775   115440383.149                                    22169101.560    86996312.606    22169095.610    93804666.671    22169098.773   116499400.488  
C20  22721831.092   118318630.934                                    22721830.128    89165366.320    22721825.392    96143455.612    22721826.983   119404116.928  
C36  23322060.669   121443848.432                                    23322073.267    91520958.164    23322070.050    98683283.039    23322056.988   122558449.250  
> 2026 06 07 16 04 03.0000000  0 12                     
C01  38586009.507   200927571.226                                                                    38586006.004   163270016.536                                  
C02  36916719.172   192235020.383                                                                    36916710.577   156206693.477                                  
C03  36966354.332   192493469.792                                                                    36966342.431   156416666.508                                  
C06  39173122.202   203984763.148                                                                    39173118.467   165754297.937                                  
C07  37091262.001   193143973.103                                                                    37091263.020   156945225.800                                  
C08  39514776.366   205763755.800                                                                    39514772.668   167199909.878                                  
C09  37480655.244   195171488.450    37480660.176   150919017.502                                    37480660.068   158592922.153                                  
C10  37217464.835   193801109.198    37217460.296   149859573.678                                                                                                  
C12  21534579.809   112136160.730                                                                    21534574.252    91119830.890                                  
C19  22166832.641   115428564.395                                    22166832.426    86987405.935    22166825.583    93795062.977    22166829.442   116487473.317  
C20  22727711.252   118349250.415                                    22727710.698    89188441.268    22727706.249    96168336.437    22727704.801   119435017.289  
C36  23317468.884   121419938.646                                    23317481.446    91502939.655    23317480.106    98663854.382    23317465.775   122534319.915  
> 2026 06 07 16 04 18.0000000  0 12                     
C01  38585998.624   200927514.057                                                                    38585994.783   163269970.129                                  
C02  36916917.839   192236053.419                                                                    36916908.941   156207532.912                                  
C03  36966511.311   192494286.978                                                                    36966499.410   156417330.545                                  
C06  39178059.288   204010471.095                                                                    39178055.768   165775187.754                                  
C07  37091988.252   193147761.325                                                                    37091991.003   156948304.090                                  
C08  39509571.442   205736654.667                                                                    39509567.761   167177888.009                                  
C09  37485263.808   195195485.033    37485268.811   150937573.180                                    37485268.650   158612421.368                                  
C10  37218254.306   193805213.451    37218248.802   149862747.398                                                                                                  
C12  21537396.915   112150831.633                                                                    21537391.536    91131752.236                                  
C19  22164585.147   115416862.310                                    22164584.807    86978587.212    22164578.267    93785554.123    22164582.163   116475663.914  
C20  22733611.049   118379969.129                                    22733609.245    89211590.997    22733605.546    96193297.918    22733604.438   119466017.903  
C36  23312888.678   121396093.944                                    23312899.042    91484970.160    23312901.026    98644478.564    23312889.697   122510255.994  
> 2026 06 07 16 04 33.0000000  0 12                     
C01  38585990.601   200927472.031                                                                    38585986.706   163269935.899                                  
C02  36917119.581   192237102.063                                                                    36917110.235   156208385.028                                  
C03  36966671.257   192495119.554                                                                    36966659.267   156418007.086                                  
C06  39183001.073   204036203.766                                                                    39182997.982   165796097.655                                  
C07  37092714.485   193151548.880                                                                    37092718.362   156951381.782                                  
C08  39504368.911   205709565.332                                                                    39504365.463   167155875.767                                  
C09  37489881.074   195219526.767    37489886.059   150956163.779                                    37489884.666   158631957.233                                  
C10  37219043.491   193809318.041    37219037.470   149865921.236                                    37219035.951   157485916.713                                  
C12  21540239.733   112165633.944                                                                    21540234.730    91143780.291                                  
C19  22162363.116   115405290.039                                    22162362.437    86969866.269    22162355.897    93776150.674    22162360.150   116463985.469  
C20  22739532.468   118410799.819                                    22739530.681    89234825.093    22739524.963    96218350.343    22739523.677   119497131.290  
C36  23308324.126   121372326.843                                    23308333.721    91467059.319    23308329.290    98625166.175    23308331.917   122486270.728  
> 2026 06 07 16 04 48.0000000  0 12                     
C01  38585980.827   200927420.906                                                                    38585976.699   163269894.429                                  
C02  36917319.624   192238142.152                                                                    36917309.993   156209230.186                                  
C03  36966829.416   192495943.276                                                                    36966817.479   156418676.411                                  
C06  39187942.948   204061936.940                                                                    39187940.179   165817007.940                                  
C07  37093436.393   193155311.403                                                                    37093440.646   156954439.161                                  
C08  39499163.844   205682463.665                                                                    39499160.806   167133853.447                                  
C09  37494503.022   195243589.563    37494507.418   150974770.682                                    37494502.611   158651510.271                                  
C10  37219827.906   193813398.970    37219821.830   149869076.916                                    37219819.793   157489232.705                                  
C12  21543103.030   112180543.441                                                                    21543098.527    91155895.467                                  
C19  22160161.259   115393823.422                                    22160160.312    86961224.987    22160154.058    93766833.130    22160158.061   116452413.671  
C20  22745470.452   118441718.131                                    22745469.862    89258125.190    22745460.660    96243473.941    22745462.178   119528333.224  
C36  23303770.581   121348613.448                                    23303781.516    91449188.849    23303769.830    98605897.295    23303777.067   122462339.573  
> 2026 06 07 16 05 03.0000000  0 12                     
C01  38585968.247   200927355.252                                                                    38585964.262   163269841.068                                  
C02  36917516.898   192239168.168                                                                    36917506.910   156210063.925                                  
C03  36966984.822   192496752.681                                                                    36966972.886   156419334.123                                  
C06  39192883.519   204087665.022                                                                    39192881.196   165837914.122                                  
C07  37094152.923   193159043.525                                                                    37094156.872   156957471.816                                  
C08  39493954.952   205655344.292                                                                    39493952.826   167111816.761                                  
C09  37499128.097   195267667.799    37499131.581   150993389.497                                    37499123.165   158671075.732                                  
C10  37220606.513   193817450.476    37220600.544   149872209.791                                    37220598.204   157492524.909                                  
C12  21545985.392   112195554.557                                                                    21545980.139    91168093.220                                  
C19  22157978.504   115382457.219                                    22157977.111    86952659.358    22157971.214    93757597.145    22157974.984   116440943.174  
C20  22751423.588   118472718.396                                    22751422.731    89281487.105    22751413.492    96268664.148    22751416.816   119559617.866  
C36  23299225.880   121324948.228                                    23299238.657    91431354.671    23299224.362    98586667.437    23299230.544   122438457.110  
> 2026 06 07 16 05 18.0000000  0 12                     
C01  38585955.864   200927290.545                                                                    38585951.700   163269788.486                                  
C02  36917714.494   192240195.589                                                                    36917704.237   156210898.765                                  
C03  36967140.444   192497563.254                                                                    36967128.525   156419992.776                                  
C06  39197825.751   204113403.372                                                                    39197824.143   165858828.654                                  
C07  37094867.058   193162760.698                                                                    37094870.364   156960492.345                                  
C08  39488745.614   205628222.817                                                                    39488744.488   167089778.332                                  
C09  37503758.086   195291776.814    37503761.570   151012032.119                                    37503752.296   158690666.229                                  
C10  37221382.332   193821488.156    37221376.632   149875331.958                                    37221373.666   157495805.845                                  
C12  21548890.216   112210682.695                                                                    21548884.677    91180386.102                                  
C19  22155817.728   115371207.033                                    22155815.834    86944181.164    22155810.545    93748455.407    22155813.815   116429589.769  
C20  22757395.398   118503815.876                                    22757394.040    89304922.290    22757386.678    96293933.398    22757390.395   119591000.744  
C36  23294693.617   121301346.471                                    23294706.054    91413568.352    23294693.564    98567489.185    23294696.244   122414638.861  
> 2026 06 07 16 05 33.0000000  0 12                     
C01  38585942.587   200927221.404                                                                    38585938.370   163269732.329                                  
C02  36917911.286   192241219.139                                                                    36917900.689   156211730.469                                  
C03  36967295.297   192498369.649                                                                    36967283.378   156420648.064                                  
C06  39202768.841   204139146.549                                                                    39202768.251   165879747.105                                  
C07  37095577.799   193166457.465                                                                    37095579.622   156963496.317                                  
C08  39483535.489   205601093.930                                                                    39483534.774   167067733.877                                  
C09  37508392.864   195315911.147    37508396.473   151030694.448                                    37508392.006   158710277.517                                  
C10                                  37222149.038   149878439.337                                    37222145.179   157499071.115                                  
C12  21551817.073   112225922.588                                                                    21551812.338    91192769.728                                  
C19  22153678.145   115360067.688                                    22153676.001    86935786.483    22153671.284    93739403.751    22153673.982   116418348.200  
C20  22763384.916   118535005.257                                    22763382.879    89328426.685    22763377.268    96319277.285    22763379.573   119622476.283  
C36  23290171.950   121277803.117                                    23290183.744    91395825.891    23290177.793    98548358.224    23290174.559   122390879.407  
> 2026 06 07 16 05 48.0000000  0 12                     
C01  38585929.793   200927154.990                                                                    38585926.005   163269678.370                                  
C02  36918108.738   192242245.800                                                                    36918097.945   156212564.708                                  
C03  36967450.722   192499179.016                                                                    36967438.821   156421305.729                                  
C06  39207714.844   204164901.639                                                                    39207714.683   165900675.251                                  
C07  37096286.288   193170141.050                                                                    37096285.609   156966489.570                                  
C08  39478325.883   205573964.782                                                                    39478325.472   167045689.271                                  
C09  37513036.451   195340078.187    37513037.666   151049381.957                                    37513037.684   158729915.162                                  
C10                                  37222918.925   149881537.262                                    37222914.226   157502326.580                                  
C12  21554766.409   112241281.202                                                                    21554762.049    91205249.818                                  
C19  22151561.452   115349046.405                                    22151558.968    86927480.822    22151554.090    93730448.046    22151556.896   116407225.769  
C20  22769392.678   118566293.365                                    22769390.587    89352005.502    22769385.852    96344701.419    22769387.353   119654051.468  
C36  23285662.863   121254324.847                                    23285672.798    91378132.634    23285671.226    98529280.235    23285665.919   122367185.846  
> 2026 06 07 16 06 03.0000000  0 12                     
C01  38585917.142   200927089.077                                                                    38585913.085   163269624.788                                  
C02  36918306.370   192243273.474                                                                    36918295.076   156213399.794                                  
C03  36967606.254   192499989.103                                                                    36967594.388   156421963.994                                  
C06  39212663.241   204190666.420                                                                    39212662.865   165921611.263                                  
C07  37096991.614   193173809.262                                                                    37096988.791   156969470.217                                  
C08  39473116.312   205546833.251                                                                    39473115.972   167023642.690                                  
C09  37517685.202   195364275.461    37517684.541   151068092.824                                    37517684.595   158749577.406                                  
C10  37223680.914   193833457.1221   37223685.899   149884624.103                                    37223680.449   157505570.401                                  
C12  21557737.027   112256756.197                                                                    21557733.364    91217824.535                                  
C19  22149467.078   115338141.142                                    22149464.540    86919262.594    22149459.894    93721586.629    22149461.306   116396220.419  
C20  22775419.703   118597677.910                                    22775417.826    89375656.993    22775411.572    96370203.918    22775413.466   119685723.935  
C36  23281166.052   121230909.702                                    23281174.040    91360486.900    23281173.039    98510253.488    23281168.393   122343555.778  
> 2026 06 07 16 06 18.0000000  0 12                     
C01  38585907.778   200927040.401                                                                    38585903.758   163269585.219                                  
C02  36918507.396   192244318.864                                                                    36918495.674   156214249.252                                  
C03  36967765.198   192500816.719                                                                    36967753.262   156422636.499                                  
C06  39217616.855   204216457.456                                                                    39217615.837   165942568.590                                  
C07  37097696.868   193177478.733                                                                    37097692.276   156972452.171                                  
C08  39467909.404   205519716.298                                                                    39467908.796   167001607.920                                  
C09  37522342.173   195388519.699    37522340.386   151086839.951                                    37522340.208   158769277.814                                  
C10  37224448.996   193837451.482    37224453.177   149887712.768                                    37224447.227   157508816.074                                  
C12  21560734.680   112272364.458                                                                    21560732.215    91230507.537                                  
C19  22147398.238   115327368.785                                    22147396.505    86911144.547    22147391.769    93712833.258    22147392.252   116385349.327  
C20  22781468.724   118629175.473                                    22781465.972    89399393.643    22781459.683    96395798.233    22781461.755   119717510.432  
C36  23276684.519   121207574.274                                    23276692.649    91342901.274    23276689.451    98491291.593    23276683.465   122320006.383  
> 2026 06 07 16 06 33.0000000  0 12                     
C01  38585896.646   200926982.298                                                                    38585892.625   163269538.104                                  
C02  36918706.761   192245355.336                                                                    36918694.681   156215091.451                                  
C03  36967922.339   192501635.071                                                                    36967910.402   156423301.494                                  
C06  39222570.470   204242248.041                                                                    39222568.254   165963525.537                                  
C07  37098396.923   193181122.872                                                                    37098391.616   156975413.264                                  
C08  39462699.762   205492587.193                                                                    39462698.296   166979563.366                                  
C09  37527002.379   195412783.983    37527000.145   151105602.634                                    37526999.770   158788994.499                                  
C10  37225212.003   193841421.375    37225215.595   149890782.604                                    37225209.412   157512041.943                                  
C12  21563752.973   112288079.184                                                                    21563750.543    91243276.973                                  
C19  22145350.376   115316702.854                                    22145349.143    86903106.694    22145343.818    93704166.357    22145343.926   116374585.579  
C20  22787533.989   118660759.130                                    22787531.469    89423195.159    22787525.179    96421462.504    22787527.806   119749383.850  
C36  23272213.493   121184291.889                                    23272222.535    91325355.661    23272219.568    98472372.777    23272212.296   122296510.392  
> 2026 06 07 16 06 48.0000000  0 12                     
C01  38585884.084   200926916.853                                                                    38585879.903   163269484.863                                  
C02  36918904.732   192246384.955                                                                    36918892.223   156215928.103                                  
C03  36968078.157   192502446.351                                                                    36968066.149   156423960.699                                  
C06  39227524.031   204268040.158                                                                    39227520.583   165984483.733                                  
C07  37099092.100   193184743.638                                                                    37099086.560   156978355.501                                  
C08  39457487.689   205465448.187                                                                    39457484.723   166957510.689                                  
C09  37531666.265   195437070.515    37531664.264   151124382.480                                    37531663.567   158808729.307                                  
C10  37225970.722   193845369.006    37225973.527   149893835.186                                    37225967.398   157515249.735                                  
C12  21566790.457   112303902.242                                                                    21566788.491    91256134.521                                  
C19  22143323.368   115306145.599                                    22143322.778    86895150.716    22143316.846    93695587.734    22143316.238   116363931.465  
C20  22793615.925   118692430.832                                    22793615.103    89447063.094    22793607.759    96447198.339    22793610.779   119781346.171  
C36  23267753.581   121161064.612                                    23267763.624    91307851.573    23267760.157    98453498.745    23267753.760   122273069.954  
> 2026 06 07 16 07 03.0000000  0 12                     
C01  38585874.006   200926864.167                                                                    38585869.753   163269442.054                                  
C02  36919105.258   192247427.760                                                                    36919092.410   156216775.459                                  
C03  36968236.494   192503270.593                                                                    36968224.325   156424630.483                                  
C06  39232481.059   204293853.834                                                                    39232476.931   166005459.475                                  
C07  37099786.150   193188361.191                                                                    37099780.933   156981295.078                                  
C08  39452277.261   205438319.399                                                                    39452272.794   166935466.372                                  
C09  37536337.424   195461399.308    37536336.567   151143195.006                                    37536335.119   158828498.414                                  
C10  37226729.065   193849314.396    37226730.960   149896886.092                                    37226725.063   157518455.716                                  
C12  21569854.279   112319853.846                                                                    21569852.403    91269096.542                                  
C19  22141321.037   115295717.272                                    22141320.340    86887291.882    22141314.461    93687113.882    22141313.371   116353407.471  
C20  22799719.126   118724210.592                                    22799718.054    89471012.424    22799711.317    96473021.952    22799714.033   119813417.520  
C36  23263307.447   121137912.539                                    23263317.114    91290404.151    23263313.469    98434685.803    23263306.571   122249705.468  
> 2026 06 07 16 07 18.0000000  0 12                     
C01  38585863.767   200926810.864                                                                    38585859.603   163269398.741                                  
C02  36919305.784   192248470.383                                                                    36919292.400   156217622.682                                  
C03  36968394.778   192504094.429                                                                    36968382.537   156425299.914                                  
C06  39237439.177   204319675.581                                                                    39237435.014   166026441.772                                  
C07  37100476.824   193191962.035                                                                    37100472.535   156984221.038                                  
C08  39447066.600   205411187.473                                                                    39447061.382   166913419.514                                  
C09  37541013.730   195485756.742    37541014.516   151162029.742                                    37541011.854   158848290.829                                  
C10  37227484.389   193853244.223    37227485.372   149899924.853                                    37227479.529   157521648.923                                  
C12  21572940.492   112335920.573                                                                    21572937.919    91282152.033                                  
C19  22139340.667   115285404.569                                    22139339.720    86879520.158    22139334.073    93678733.981    22139333.019   116343000.136  
C20  22805840.035   118756084.770                                    22805837.158    89495032.912    22805832.798    96498922.302    22805835.299   119845584.108  
C36  23258872.927   121114822.180                                    23258883.863    91273003.166    23258878.556    98415923.021    23258869.121   122226403.300  
> 2026 06 07 16 07 33.0000000  0 12                     
C01  38585850.419   200926741.278                                                                    38585846.327   163269342.178                                  
C02  36919503.255   192249497.271                                                                    36919489.442   156218457.113                                  
C03  36968549.917   192504902.237                                                                    36968537.641   156425956.313                                  
C06  39242395.704   204345489.667                                                                    39242392.202   166047417.820                                  
C07  37101161.350   193195530.743                                                                    37101157.741   156987120.875                                  
C08  39441852.777   205384036.927                                                                    39441847.934   166891357.527                                  
C09  37545692.430   195510127.192    37545694.860   151180874.520                                    37545691.233   158868093.837                                  
C10  37228233.601   193857142.670    37228233.780   149902939.475                                    37228228.151   157524816.740                                  
C12  21576045.110   112352086.588                                                                    21576041.768    91295288.247                                  
C19  22137379.381   115275192.045                                    22137378.719    86871823.928    22137372.483    93670435.452    22137371.858   116332693.886  
C20  22811976.364   118788037.612                                    22811971.504    89519112.675    22811968.966    96524886.571    22811970.003   119877830.072  
C36  23254447.485   121091777.896                                    23254457.545    91255636.969    23254454.043    98397197.673    23254443.768   122203147.568  
> 2026 06 07 16 07 48.0000000  0 12                     
C01  38585836.463   200926668.468                                                                    38585832.371   163269282.978                                  
C02  36919700.118   192250521.376                                                                    36919686.162   156219289.235                                  
C03  36968704.484   192505707.021                                                                    36968692.172   156426610.287                                  
C06  39247353.572   204371309.071                                                                    39247350.874   166068398.215                                  
C07  37101842.285   193199080.100                                                                    37101839.408   156990005.040                                  
C08  39436637.684   205356880.942                                                                    39436634.539   166869291.051                                  
C09  37550376.633   195534523.623    37550379.868   151199739.347                                    37550376.097   158887917.867                                  
C10  37228979.061   193861022.844    37228978.668   149905939.809                                    37228973.629   157527969.659                                  
C12  21579171.152   112368364.927                                                                    21579168.472    91308515.721                                  
C19  22135439.752   115265092.857                                    22135439.216    86864213.105    22135432.819    93662229.011    22135432.550   116322502.033  
C20  22818130.902   118820082.012                                    22818123.773    89543261.362    22818121.271    96550925.209    22818123.951   119910168.401  
C36  23250033.818   121068792.630                                    23250040.751    91238315.358    23250040.108    98378520.298    23250029.851   122179951.466  
> 2026 06 07 16 08 03.0000000  0 12                     
C01  38585823.919   200926603.095                                                                    38585819.738   163269229.839                                  
C02  36919898.553   192251553.353                                                                    36919884.115   156220127.794                                  
C03  36968860.498   192506519.502                                                                    36968848.115   156427270.477                                  
C06  39252315.031   204397144.447                                                                    39252312.798   166089391.562                                  
C07  37102521.826   193202620.923                                                                    37102519.450   156992882.236                                  
C08  39431423.057   205329730.107                                                                    39431422.199   166847228.843                                  
C09  37555068.235   195558956.694    37555071.540   151218632.525                                    37555068.074   158907771.725                                  
C10  37229722.967   193864895.367    37229722.037   149908934.304                                    37229717.838   157531116.484                                  
C12  21582320.925   112384766.233                                                                    21582318.155    91321843.112                                  
C19  22133524.157   115255117.836                                    22133523.281    86856695.881    22133517.259    93654123.478    22133517.492   116312435.487  
C20  22824304.167   118852228.401                                    22824299.039    89567486.932    22824293.428    96577046.767    22824297.484   119942609.702  
C36  23245633.464   121045877.182                                    23245644.614    91221046.286    23245637.806    98359899.622    23245628.514   122156825.744  
> 2026 06 07 16 08 18.0000000  0 12                     
C01  38585811.018   200926536.077                                                                    38585806.836   163269175.431                                  
C02  36920096.721   192252584.205                                                                    36920081.979   156220965.454                                  
C03  36969016.280   192507330.540                                                                    36969003.861   156427929.517                                  
C06  39257278.367   204422986.549                                                                    39257276.330   166110390.404                                  
C07  37103198.455   193206144.040                                                                    37103195.453   156995745.055                                  
C08  39426207.303   205302575.644                                                                    39426207.982   166825163.633                                  
C09  37559765.322   195583417.209    37559767.895   151237546.886                                    37559765.018   158927647.850                                  
C10  37230463.334   193868751.180    37230462.119   149911915.836                                    37230459.027   157534249.584                                  
C12  21585492.659   112401281.355                                                                    21585488.960    91335262.983                                  
C19  22131630.773   115245258.010                                    22131629.772    86849265.457    22131623.375    93646111.533    22131624.626   116302485.213  
C20  22830495.033   118884467.583                                    22830493.979    89591782.473    22830484.544    96603243.705    22830488.207   119975144.660  
C36  23241244.350   121023022.350                                    23241257.912    91203822.813    23241248.066    98341328.199    23241238.953   122133761.252  
> 2026 06 07 16 08 33.0000000  0 12                     
C01  38585797.473   200926465.779                                                                    38585793.256   163269118.324                                  
C02  36920294.298   192253612.227                                                                    36920279.217   156221800.759                                  
C03  36969171.473   192508138.535                                                                    36969159.018   156428586.086                                  
C06  39262242.721   204448833.758                                                                    39262240.738   166131393.332                                  
C07  37103871.599   193209647.858                                                                    37103867.382   156998592.185                                  
C08  39420989.960   205275415.876                                                                    39420992.175   166803094.050                                  
C09  37564467.573   195607903.458                                                                    37564467.001   158947544.921                                  
C10  37231199.877   193872588.537    37231198.787   149914883.117                                    37231196.053   157537367.775                                  
C12  21588685.513   112417908.563                                                                    21588681.296    91348773.927                                  
C19  22129759.011   115235511.893                                    22129758.242    86841920.770    22129751.738    93638192.030    22129753.400   116292649.690  
C20  22836703.786   118916797.741                                    22836701.588    89616146.543    22836694.012    96629514.550    22836698.372   120007771.448  
C36  23236866.779   121000226.427                                    23236878.554    91186643.795    23236870.174    98322804.698    23236861.329   122110756.213  
> 2026 06 07 16 08 48.0000000  0 12                     
C01  38585786.394   200926408.365                                                                    38585782.231   163269071.621                                  
C02  36920494.467   192254653.558                                                                    36920479.011   156222646.917                                  
C03  36969329.185   192508959.567                                                                    36969316.712   156429253.261                                  
C06  39267210.524   204474701.998                                                                    39267209.059   166152413.387                                  
C07  37104544.224   193213148.443                                                                    37104538.542   157001436.716                                  
C08  39415774.653   205248266.885                                                                    39415778.280   166781033.290                                  
C09  37569177.883   195632431.474    37569135.873   151275356.6611                                   37569177.043   158967475.912                                  
C10  37231936.206   193876423.621    37231935.152   149917848.671                                    37231932.185   157540484.078                                  
C12  21591902.867   112434663.897                                                                    21591899.347    91362389.020                                  
C19  22127912.158   115225895.775                                    22127911.157    86834674.075    22127904.599    93630378.145    22127907.351   116282945.381  
C20  22842932.803   118949234.837                                    22842930.497    89640591.216    22842925.887    96655872.310    22842928.443   120040506.126  
C36  23232504.092   120977505.521                                    23232514.742    91169521.293    23232505.307    98304342.179    23232498.750   122087826.852  
> 2026 06 07 16 09 03.0000000  0 12                     
C01  38585773.939   200926343.684                                                                    38585769.794   163269019.060                                  
C02  36920693.296   192255688.114                                                                    36920677.607   156223487.581                                  
C03  36969485.521   192509773.662                                                                    36969472.995   156429914.768                                  
C06  39272177.237   204500571.142                                                                    39272177.290   166173434.238                                  
C07  37105212.526   193216625.760                                                                    37105205.325   157004262.316                                  
C08  39410558.238   205221108.807                                                                    39410562.581   166758965.157                                  
C09  37573892.482   195656981.194    37573848.828   151294339.922                                    37573891.660   158987424.526                                  
C10  37232668.675   193880236.244    37232667.371   149920796.852                                    37232663.636   157543582.168                                  
C12  21595141.448   112451527.312                                                                    21595137.875    91376091.917                                  
C19  22126086.390   115216389.694                                    22126084.728    86827510.309    22126078.492    93622653.680    22126081.887   116273352.126  
C20  22849177.758   118981758.589                                    22849179.438    89665101.210    22849173.380    96682300.517    22849175.560   120073328.369  
C36  23228151.645   120954839.532                                    23228163.046    91152440.143    23228157.399    98285924.262    23228145.998   122064952.903  
> 2026 06 07 16 09 18.0000000  0 12                     
C01  38585759.394   200926268.030                                                                    38585755.338   163268957.604                                  
C02  36920890.070   192256712.182                                                                    36920874.148   156224319.651                                  
C03  36969639.838   192510576.963                                                                    36969627.258   156430567.501                                  
C06  39277141.805   204526437.198                                                                    39277144.843   166194452.671                                  
C07  37105875.735   193220076.017                                                                    37105867.300   157007065.909                                  
C08  39405340.573   205193937.935                                                                    39405344.701   166736886.648                                  
C09  37578611.101   195681548.671    37578566.822   151313337.054                                    37578609.493   159007387.618                                  
C10  37233396.391   193884022.663    37233394.533   149923724.746                                    37233389.994   157546658.915                                  
C12  21598400.204   112468494.848                                                                    21598396.470    91389879.430                                  
C19  22124281.172   115206990.038                                    22124278.939    86820426.719    22124274.185    93615015.682    22124276.794   116263866.240  
C20  22855438.957   119014365.075                                    22855443.138    89689673.599    22855434.185    96708795.954    22855438.117   120106234.027  
C36  23223808.740   120932224.693                                    23223819.872    91135397.521    23223819.211    98267548.012    23223801.699   122042130.618  
> 2026 06 07 16 09 33.0000000  0 12                     
C01  38585747.189   200926204.713                                                                    38585743.080   163268906.215                                  
C02  36921089.309   192257749.032                                                                    36921073.102   156225162.186                                  
C03  36969796.531   192511392.851                                                                    36969783.862   156431230.483                                  
C06  39282112.074   204552323.751                                                                    39282115.934   166215487.659                                  
C07  37106538.068   193223522.549                                                                    37106529.080   157009866.475                                  
C08  39400126.017   205166777.714                                                                    39400129.287   166714816.769                                  
C09  37583338.280   195706157.352    37583292.982   151332366.008                                    37583335.224   159027384.116                                  
C10  37234123.750   193887806.177    37234121.159   149926650.444                                    37234116.012   157549733.424                                  
C12  21601683.423   112485589.864                                                                    21601678.527    91403770.521                                  
C19  22122500.953   115197720.297                                    22122497.897    86813441.008    22122494.645    93607483.266    22122496.325   116254511.436  
C20  22861721.651   119047077.549                                    22861725.189    89714325.848    22861715.201    96735377.500    22861720.508   120139246.630  
C36  23219479.737   120909684.316                                    23219487.331    91118411.082    23219482.453    98249232.227    23219473.340   122019383.466  
> 2026 06 07 16 09 48.0000000  0 12                     
C01  38585733.198   200926131.763                                                                    38585729.070   163268846.866                                  
C02  36921286.726   192258776.683                                                                    36921270.287   156225997.232                                  
C03  36969951.473   192512199.258                                                                    36969938.661   156431885.752                                  
C06  39287082.789   204578208.563                                                                    39287086.524   166236521.198                                  
C07  37107195.398   193226943.275                                                                    37107186.142   157012646.076                                  
C08  39394908.834   205139606.210                                                                    39394911.908   166692737.704                                  
C09  37588068.782   195730785.090    37588022.769   151351409.736                                    37588065.226   159047396.119                                  
C10  37234846.301   193891564.751    37234842.853   149929556.808                                    37234837.385   157552787.607                                  
C12  21604986.744   112502790.287                                                                    21604980.329    91417747.224                                  
C19  22120741.623   115188558.592                                    22120737.495    86806536.700    22120734.922    93600038.659    22120737.084   116245265.690  
C20  22868020.643   119079873.758                                    22868020.232    89739041.159    22868013.209    96762027.035    22868018.838   120172343.678  
C36  23215160.973   120887196.291                                    23215167.745    91101464.128    23215164.707    98230958.902    23215156.255   121996689.117  
> 2026 06 07 16 10 03.0000000  0 12                     
C01  38585720.922   200926067.577                                                                    38585716.830   163268794.807                                  
C02  36921485.948   192259813.576                                                                    36921469.276   156226839.767                                  
C03  36970108.149   192513014.696                                                                    36970095.212   156432548.369                                  
C06  39292057.293   204604109.992                                                                    39292060.367   166257568.228                                  
C07  37107851.227   193230356.717                                                                    37107841.935   157015419.784                                  
C08  39389693.116   205112441.953                                                                    39389696.065   166670664.530                                  
C09  37592805.360   195755450.167    37592759.794   151370482.266                                    37592803.269   159067438.490                                  
C10  37235567.513   193895316.878    37235563.224   149932458.170                                    37235558.096   157555836.345                                  
C12  21608313.777   112520114.500                                                                    21608308.524    91431824.495                                  
C19  22119006.666   115179523.541                                    22119003.074    86799727.832    22118999.250    93592696.946    22119001.948   116236147.740  
C20  22874339.129   119112772.077                                    22874337.593    89763833.402    22874330.606    96788759.496    22874336.288   120205543.743  
C36  23210855.735   120864779.052                                    23210865.367    91084570.479    23210858.648    98212743.128    23210851.465   121974066.272  
> 2026 06 07 16 10 18.0000000  0 12                     
C01  38585710.576   200926013.751                                                                    38585706.251   163268751.005                                  
C02  36921687.207   192260861.281                                                                    36921670.320   156227691.094                                  
C03  36970266.862   192513840.689                                                                    36970253.817   156433219.551                                  
C06  39297035.514   204630029.493                                                                    39297037.872   166278629.958                                  
C07  37108506.019   193233764.413                                                                    37108496.674   157018188.814                                  
C08  39384478.828   205085286.536                                                                    39384481.795   166648598.548                                  
C09  37597548.352   195780153.987    37597504.591   151389584.831                                    37597548.996   159087512.375                                  
C10  37236287.724   193899063.987    37236282.667   149935355.677                                    37236278.414   157558880.4171                                 
C12  21611664.594   112537563.866                                                                    21611660.306    91446003.530                                  
C19  22117296.243   115170616.789                                    22117294.259    86793015.673    22117288.327    93585459.488    22117291.579   116227159.278  
C20  22880676.986   119145773.822                                    22880678.683    89788703.515    22880670.714    96815575.973    22880674.752   120238848.268  
C36  23206563.292   120842434.203                                    23206574.031    91067731.322    23206566.812    98194586.101    23206562.667   121951516.391  
> 2026 06 07 16 10 33.0000000  0 12                     
C01  38585696.620   200925940.830                                                                    38585692.135   163268691.687                                  
C02  36921884.856   192261890.342                                                                    36921867.809   156228527.247                                  
C03  36970421.893   192514647.805                                                                    36970408.795   156433875.394                                  
C06  39302011.608   204655937.567                                                                    39302013.430   166299682.366                                  
C07  37109154.111   193237136.882                                                                    37109144.444   157020929.216                                  
C08  39379260.448   205058110.624                                                                    39379263.236   166626515.905                                  
C09  37602293.614   195804867.277    37602250.711   151408694.685                                    37602294.597   159107593.957                                  
C10  37237001.306   193902776.653    37236995.552   149938226.564                                    37236991.781   157561897.151                                  
C12  21615033.406   112555108.935                                                                    21615028.938    91460260.369                                  
C19  22115604.654   115161809.039                                    22115603.796    86786378.129    22115596.845    93578302.450    22115600.329   116218270.731  
C20  22887027.547   119178849.143                                    22887028.745    89813629.233    22887022.490    96842452.439    22887030.228   120272227.232  
C36  23202278.586   120820132.211                                    23202291.756    91050924.435    23202285.234    98176463.863    23202280.481   121929009.644  
> 2026 06 07 16 10 48.0000000  0 12                     
C01  38585682.396   200925866.246                                                                    38585677.804   163268631.142                                  
C02  36922082.219   192262918.242                                                                    36922065.047   156229362.456                                  
C03  36970576.728   192515453.435                                                                    36970563.470   156434530.049                                  
C06  39306988.756   204681851.584                                                                    39306990.239   166320739.614                                  
C07  37109798.861   193240491.554                                                                    37109788.729   157023655.134                                  
C08  39374041.335   205030931.730                                                                    39374043.712   166604430.867                                  
C09  37607045.130   195829607.188    37607001.530   151427825.091                                    37607043.254   159127697.067                                  
C10  37237711.599   193906472.300    37237705.274   149941084.277                                    37237702.397   157564905.1811                                 
C12  21618424.803   112572767.111                                                                    21618419.175    91474609.059                                  
C19  22113935.490   115153117.855                                    22113935.616    86779828.438    22113927.074    93571240.137    22113931.363   116209499.814  
C20  22893399.855   119212015.704                                    22893393.655    89838623.530    22893390.671    96869402.911    22893400.552   120305698.061  
C36  23198008.158   120797890.355                                    23198020.595    91034162.953    23198013.930    98158390.566    23198004.620   121906563.881  
> 2026 06 07 16 11 03.0000000  0 12                     
C01  38585670.138   200925802.097                                                                    38585665.439   163268579.092                                  
C02  36922281.655   192263956.982                                                                    36922264.501   156230206.489                                  
C03  36970733.583   192516269.833                                                                    36970720.199   156435193.425                                  
C06  39311969.067   204707783.512                                                                    39311970.693   166341811.399                                  
C07  37110442.485   193243840.534                                                                    37110432.067   157026376.445                                  
C08  39368823.974   205003762.044                                                                    39368825.368   166582353.336                                  
C09  37611804.187   195854385.959    37611760.301   151446985.579                                    37611799.470   159147831.741                                  
C10  37238420.821   193910162.957    37238414.209   149943938.136                                    37238411.565   157567904.182                                  
C12  21621840.521   112590550.449                                                                    21621834.999    91489059.426                                  
C19  22112291.415   115144555.502                                    22112291.969    86773375.859    22112282.981    93564282.499    22112287.055   116200858.873  
C20  22899794.017   119245285.333                                    22899784.350    89863695.472    22899779.239    96896437.047    22899785.047   120339272.767  
C36  23193750.238   120775720.867                                    23193761.477    91017455.949    23193754.330    98140376.056    23193747.986   121884190.965  
> 2026 06 07 16 11 18.0000000  0 12                     
C01  38585658.577   200925741.851                                                                    38585654.002   163268530.017                                  
C02  36922481.931   192265000.093                                                                    36922464.849   156231054.095                                  
C03  36970891.223   192517090.258                                                                    36970877.678   156435860.104                                  
C06  39316951.326   204733726.732                                                                    39316952.881   166362892.388                                  
C07  37111083.518   193247177.240                                                                    37111073.297   157029087.843                                  
C08  39363607.166   204976595.109                                                                    39363606.862   166560278.030                                  
C09  37616568.659   195879196.654    37616525.415   151466170.825                                    37616564.334   159167992.527                                  
C10  37239127.398   193913842.076    37239121.018   149946783.078                                                                                                  
C12  21625277.699   112608452.162                                                                    21625273.392    91503606.084                                  
C19  22110670.874   115136115.518                                    22110670.480    86767015.471    22110664.155    93557424.318    22110666.585   116192341.437  
C20  22906202.689   119278651.256                                    22906192.843    89888839.963    22906186.535    96923549.414    22906189.466   120372944.665  
C36  23189505.934   120753617.005                                    23189515.530    91000798.437    23189510.008    98122414.921    23189505.291   121861884.245  
> 2026 06 07 16 11 33.0000000  0 12                     
C01  38585643.603   200925663.664                                                                    38585638.867   163268466.481                                  
C02  36922678.794   192266025.705                                                                    36922661.462   156231887.420                                  
C03  36971045.486   192517892.957                                                                    36971031.799   156436512.348                                  
C06  39321931.458   204759659.330                                                                    39321932.941   166383964.758                                  
C07  37111717.779   193250479.904                                                                    37111708.166   157031771.470                                  
C08  39358386.695   204949409.128                                                                    39358383.979   166538187.276                                  
C09  37621334.524   195904017.637    37621292.460   151485364.022                                    37621332.201   159188161.656                                  
C10  37239827.006   193917487.814    37239821.466   149949602.205                                    37239822.574   157573870.3091                                 
C12  21628733.764   112626450.457                                                                    21628730.119    91518231.195                                  
C19  22109069.505   115127776.163                                    22109067.754    86760730.938    22109063.501    93550647.977    22109065.199   116183925.627  
C20  22912624.226   119312091.296                                    22912615.756    89914040.390    22912608.930    96950722.071    22912613.701   120406691.338  
C36  23185270.064   120731556.980                                    23185277.855    90984173.995    23185276.122    98104489.365    23185269.349   121839621.832  
> 2026 06 07 16 11 48.0000000  0 12                     
C01  38585632.488   200925605.645                                                                    38585627.878   163268419.336                                  
C02  36922879.732   192267071.924                                                                    36922862.220   156232737.549                                  
C03  36971203.627   192518716.051                                                                    36971189.868   156437181.166                                  
C06  39326917.220   204785619.374                                                                    39326917.327   166405059.415                                  
C07  37112352.880   193253786.572                                                                    37112343.696   157034458.350                                  
C08  39353169.870   204922242.384                                                                    39353164.902   166516112.105                                  
C09  37626109.055   195928886.932    37626068.528   151504594.664                                    37626109.341   159208370.090                                  
C10  37240526.489   193921138.233    37240522.754   149952424.974                                    37240524.434   157576848.3851                                 
C12  21632216.133   112644583.420                                                                    21632212.113    91532965.682                                  
C19  22107495.066   115119575.770                                    22107492.743    86754551.074    22107488.847    93543984.510    22107489.598   116175650.001  
C20  22919066.705   119345643.398                                    22919059.790    89939325.349    22919052.946    96977985.863    22919057.521   120440551.425  
C36  23181049.848   120709578.862                                    23181056.977    90967611.250    23181054.386    98086630.374    23181048.043   121817442.030  
> 2026 06 07 16 12 03.0000000  0 12                     
C01  38585621.374   200925547.807                                                                    38585616.853   163268372.394                                  
C02  36923080.776   192268118.818                                                                    36923063.086   156233588.208                                  
C03  36971361.840   192519539.526                                                                    36971347.955   156437850.349                                  
C06  39331904.482   204811586.781                                                                    39331903.445   166426160.088                                  
C07  37112985.104   193257077.222                                                                    37112975.759   157037132.267                                  
C08  39347952.633   204895074.885                                                                    39347946.379   166494036.338                                  
C09  37630891.770   195953784.587    37630849.832   151523847.090                                    37630890.859   159228601.427                                  
C10  37241222.916   193924773.268    37241221.057   149955235.903                                    37241223.970   157579802.321                                  
C12  21635720.070   112662830.873                                                                    21635715.406    91547793.213                                  
C19  22105943.391   115111494.433                                    22105940.604    86748460.953    22105936.476    93537417.780    22105937.351   116167494.508  
C20  22925524.838   119379287.377                                    22925518.924    89964679.682    22925512.419    97005324.458    22925516.583   120474504.258  
C36  23176842.157   120687662.644                                    23176848.715    90951095.153    23176842.640    98068821.725    23176836.171   121795324.799  
> 2026 06 07 16 12 18.0000000  0 12                     
C01  38585607.007   200925472.970                                                                    38585602.611   163268311.592                                  
C02  36923278.586   192269149.128                                                                    36923260.985   156234425.398                                  
C03  36971516.836   192520346.241                                                                    36971502.844   156438505.871                                  
C06  39336889.600   204837544.310                                                                    39336886.026   166447252.660                                  
C07  37113611.110   193260334.752                                                                    37113601.389   157039779.213                                  
C08  39342731.769   204867889.579                                                                    39342725.748   166471946.114                                  
C09  37635677.041   195978693.053    37635632.923   151543107.842                                    37635672.628   159248841.556                                  
C10  37241913.482   193928375.869    37241913.035   149958021.681                                    37241916.127   157582740.7041                                 
C12  21639243.519   112681175.664                                                                    21639237.819    91562699.806                                  
C19  22104411.015   115103515.097                                    22104408.049    86742447.691    22104404.136    93530933.936    22104405.351   116159441.953  
C20  22931998.964   119413006.176                                    22931993.746    89990090.251    22931985.241    97032723.666    22931992.621   120508532.371  
C36  23172642.812   120665791.092                                    23172648.584    90934612.676    23172644.223    98051049.353    23172634.932   121773252.567  
> 2026 06 07 16 12 33.0000000  0 12                     
C01  38585594.820   200925409.583                                                                    38585590.282   163268260.027                                  
C02  36923478.612   192270191.349                                                                    36923461.065   156235272.272                                  
C03  36971674.119   192521164.604                                                                    36971660.002   156439170.844                                  
C06  39341877.773   204863520.262                                                                    39341872.252   166468360.268                                  
C07  37114236.347   193263587.452                                                                    37114225.625   157042422.311                                  
C08  39337512.692   204840714.953                                                                    39337508.064   166449864.547                                  
C09  37640468.959   196003640.847    37640423.125   151562399.012                                    37640460.007   159269113.557                                  
C10  37242603.584   193931974.335    37242604.048   149960804.275                                    37242609.838   157585672.8791                                 
C12  21642790.985   112699646.062                                                                    21642786.965    91577708.468                                  
C19  22102903.334   115095666.278                                    22102901.279    86736532.800    22102896.616    93524556.162    22102898.188   116151521.099  
C20  22938492.799   119446827.825                                    22938490.494    90015578.318    22938479.344    97060206.467    22938489.118   120542664.396  
C36  23168456.725   120643992.541                                    23168462.175    90918185.266    23168459.245    98033336.319    23168449.595   121751254.099  
> 2026 06 07 16 12 48.0000000  0 12                     
C01  38585583.045   200925348.278                                                                    38585578.613   163268210.200                                  
C02  36923679.174   192271236.065                                                                    36923661.591   156236121.151                                  
C03  36971831.866   192521985.212                                                                    36971817.500   156439837.681                                  
C06  39346867.215   204889505.191                                                                    39346860.872   166489475.092                                  
C07  37114859.118   193266826.044                                                                    37114846.770   157045053.906                                  
C08  39332293.991   204813541.705                                                                    39332290.828   166427784.128                                  
C09  37645266.256   196028618.538    37645218.742   151581713.246                                    37645254.730   159289409.960                                  
C10  37243291.202   193935559.353    37243292.452   149963576.436                                                                                                  
C12  21646359.751   112718232.527                                                                    21646355.998    91592811.531                                  
C19  22101418.901   115087938.758                                    22101417.579    86730709.337    22101412.200    93518276.962    22101414.559   116143722.727  
C20  22945004.504   119480742.812                                    22945004.682    90041136.785    22944994.086    97087765.125    22945013.563   120576920.0851 
C36  23164281.288   120622257.724                                    23164287.382    90901805.815    23164284.666    98015674.989    23164275.910   121729319.842  
> 2026 06 07 16 13 03.0000000  0 12                     
C01  38585568.303   200925271.327                                                                    38585563.800   163268147.647                                  
C02  36923876.912   192272265.605                                                                    36923859.222   156236957.713                                  
C03  36971986.630   192522790.351                                                                    36971971.995   156440491.936                                  
C06  39351855.085   204915481.339                                                                    39351848.974   166510582.877                                  
C07  37115475.403   193270032.758                                                                    37115461.733   157047659.680                                  
C08  39327072.483   204786352.205                                                                    39327070.268   166405690.475                                  
C09  37650065.464   196053608.238    37650016.235   151601036.847                                    37650054.493   159309716.061                                  
C10  37243972.905   193939113.013    37243974.906   149966324.397                                                                                                  
C12  21649948.261   112736917.434                                                                    21649943.079    91607994.506                                  
C19  22099954.606   115080314.979                                    22099953.319    86724964.035    22099947.887    93512082.012    22099950.121   116136028.990  
C20  22951531.665   119514733.199                                    22951531.950    90066752.102    22951525.017    97115385.047    22951537.043   120611222.586  
C36  23160115.429   120600568.670                                    23160120.880    90885460.984    23160119.182    97998050.915    23160110.230   121707431.830  
> 2026 06 07 16 13 18.0000000  0 12                     
C01  38585553.025   200925191.832                                                                    38585548.629   163268083.171                                  
C02  36924074.240   192273293.081                                                                    36924056.550   156237792.638                                  
C03  36972140.893   192523593.239                                                                    36972126.134   156441144.354                                  
C06  39356844.295   204941461.618                                                                    39356838.845   166531694.016                                  
C07  37116087.327   193273220.743                                                                    37116073.282   157050250.132                                  
C08  39321850.172   204759159.667                                                                    39321848.778   166383594.343                                  
C09  37654869.104   196078623.045    37654862.582   151620530.8221                                   37654861.403   159330042.633                                  
C10  37244651.195   193942648.637    37244654.072   149969058.369                                                                                                  
C12  21653558.215   112755713.755                                                                    21653553.230    91623268.017                                  
C19  22098513.058   115072808.183                                    22098511.915    86719306.877    22098505.643    93505982.118    22098507.662   116128453.309  
C20  22958077.981   119548812.140                                    22958075.337    90092434.042    22958071.423    97143076.855    22958079.482   120645614.172  
C36  23155961.900   120578938.627                                    23155969.352    90869160.580    23155965.867    97980474.768    23155956.718   121685603.325  
> 2026 06 07 16 13 33.0000000  0 12                     
C01  38585539.551   200925121.580                                                                    38585535.281   163268026.048                                  
C02  36924273.319   192274330.205                                                                    36924255.736   156238635.353                                  
C03  36972296.944   192524405.510                                                                    36972282.094   156441804.400                                  
C06  39361837.490   204967457.878                                                                    39361832.343   166552818.123                                  
C07  37116697.054   193276401.714                                                                    37116684.028   157052834.976                                  
C08  39316629.648   204731975.922                                                                    39316628.433   166361505.340                                  
C09  37659679.874   196103674.622    37659672.995   151639902.289                                    37659676.247   159350399.082                                  
C10  37245328.592   193946177.753    37245332.023   149971787.339                                                                                                  
C12  21657190.970   112774633.046                                                                    21657187.235    91638641.523                                  
C19  22097096.420   115065430.204                                    22097095.080    86713746.786    22097088.861    93499986.875    22097090.309   116121007.587  
C20  22964641.756   119582990.873                                    22964638.664    90118191.298    22964635.180    97170849.903    22964641.934   120680106.518  
C36  23151821.880   120557379.163                                    23151830.457    90852913.361    23151826.133    97962956.006    23151816.984   121663846.045  
> 2026 06 07 16 13 48.0000000  0 12                     
C01  38585527.383   200925058.141                                                                    38585523.058   163267974.465                                  
C02  36924473.863   192275374.630                                                                    36924456.351   156239484.043                                  
C03  36972454.280   192525224.851                                                                    36972439.395   156442470.179                                  
C06  39366833.651   204993467.497                                                                    39366829.612   166573953.107                                  
C07  37117303.922   193279573.331                                                                    37117293.611   157055412.168                                  
C08  39311410.428   204704798.667                                                                    39311408.945   166339421.642                                  
C09  37664497.131   196128760.535    37664491.966   151659230.1961                                   37664496.148   159370783.441                                  
C10  37246004.595   193949698.029    37246008.133   149974509.456                                                                                                  
C12  21660847.526   112793672.960                                                                    21660843.666    91654113.046                                  
C19  22095703.869   115058178.762                                    22095702.440    86708282.082    22095696.329    93494094.478    22095697.758   116113689.642  
C20  22971223.453   119617266.972                                    22971221.327    90144021.922    22971216.698    97198702.077    22971222.988   120714697.092  
C36  23147694.797   120535887.972                                    23147702.516    90836717.540    23147698.245    97945492.688    23147689.454   121642157.671  
> 2026 06 07 16 14 03.0000000  0 12                     
C01  38585512.569   200924980.928                                                                    38585508.120   163267911.707                                  
C02  36924671.780   192276405.737                                                                    36924654.269   156240321.860                                  
C03  36972609.044   192526030.594                                                                    36972594.034   156443124.930                                  
C06  39371828.489   205019470.006                                                                    39371824.826   166595082.223                                  
C07                                                                                                  37117897.584   157057964.942                                  
C08  39306188.385   204677607.394                                                                    39306186.973   166317326.526                                  
C09  37669316.942   196153860.082    37669315.120   151678705.7291                                   37669316.799   159391178.913                                  
C10  37246675.112   193953188.876    37246678.436   149977208.823                                                                                                  
C12  21664523.595   112812812.832                                                                    21664518.752    91669665.746                                  
C19  22094331.421   115051033.396                                    22094330.492    86702897.337    22094324.416    93488288.302    22094325.292   116106478.783  
C20  22977820.732   119651619.773                                    22977818.641    90169910.244    22977810.761    97226616.350    22977819.481   120749365.006  
C36  23143577.059   120514444.328                                    23143583.939    90820557.577    23143579.990    97928068.032    23143570.483   121620517.347  
> 2026 06 07 16 14 18.0000000  0 12                     
C01  38585496.987   200924899.525                                                                    38585492.520   163267845.574                                  
C02  36924868.983   192277433.094                                                                    36924851.650   156241156.697                                  
C03  36972763.057   192526832.377                                                                    36972747.922   156443776.454                                  
C06  39376822.881   205045474.650                                                                    39376820.004   166616213.143                                  
C07                                                                                                  37118497.608   157060501.153                                  
C08  39300965.609   204650411.742                                                                    39300964.554   166295227.829                                  
C09  37674140.649   196178982.831    37674145.867   151698132.274                                    37674141.150   159411593.185                                  
C10  37247342.038   193956659.792    37247344.700   149979892.825                                                                                                  
C12  21668220.302   112832062.059                                                                    21668214.959    91685307.298                                  
C19  22092981.488   115044003.832                                    22092980.702    86697599.839    22092974.483    93482576.222    22092974.930   116099384.716  
C20  22984433.253   119686058.478                                    22984432.181    90195863.401    22984423.747    97254600.631    22984431.752   120784119.677  
C36  23139469.953   120493057.787                                    23139477.083    90804440.631    23139472.759    97910689.747    23139464.432   121598934.611  
> 2026 06 07 16 14 33.0000000  0 12                     
C01  38585481.852   200924820.405                                                                    38585477.224   163267781.280                                  
C02  36925066.686   192278463.186                                                                    36925049.299   156241993.736                                  
C03  36972917.517   192527636.635                                                                    36972902.275   156444429.989                                  
C06  39381817.845   205071487.961                                                                    39381816.630   166637351.082                                  
C07                                                                                                  37119094.720   157063025.983                                  
C08  39295743.673   204623218.227                                                                    39295743.101   166273130.941                                  
C09  37678970.646   196204135.134    37678976.400   151717581.664                                    37678971.343   159432031.545                                  
C10  37248006.462   193960117.278    37248008.088   149982566.328                                                                                                  
C12  21671938.757   112851427.082                                                                    21671934.004    91701042.921                                  
C19  22091654.999   115037096.616                                    22091654.141    86692394.582    22091647.726    93476963.578    22091649.048   116092414.172  
C20  22991063.769   119720589.467                                    22991063.465    90221886.097    22991055.835    97282659.822    22991060.999   120818967.440  
C36  23135374.606   120471734.804                                    23135382.540    90788371.601    23135378.394    97893363.093    23135369.674   121577415.963  
> 2026 06 07 16 14 48.0000000  0 12                     
C01  38585467.307   200924744.517                                                                    38585462.643   163267719.670                                  
C02  36925265.068   192279496.911                                                                    36925247.735   156242833.741                                  
C03  36973072.602   192528444.274                                                                    36973057.288   156445086.276                                  
C06  39386814.613   205097510.718                                                                    39386814.345   166658496.753                                  
C07                                                                                                  37119688.847   157065540.217                                  
C08  39290522.630   204596027.908                                                                    39290522.433   166251036.613                                  
C09  37683807.433   196229317.884    37683812.633   151737054.555                                    37683807.791   159452494.557                                  
C10  37248668.509   193963562.179    37248668.866   149985230.209                                                                                                  
C12  21675679.208   112870908.638                                                                    21675674.794    91716873.273                                  
C19  22090352.311   115030312.831                                    22090350.971    86687282.298    22090345.199    93471451.204    22090347.540   116085568.150  
C20  22997712.618   119755213.484                                    22997710.759    90247978.827    22997706.310    97310794.622    22997708.168   120853909.097  
C36  23131291.766   120450476.263                                    23131299.557    90772351.119    23131296.305    97876088.792    23131286.388   121555962.369  
> 2026 06 07 16 15 03.0000000  0 12                     
C01  38585454.566   200924677.976                                                                    38585450.260   163267665.583                                  
C02  36925465.344   192280540.428                                                                    36925448.064   156243681.668                                  
C03  36973229.528   192529261.530                                                                    36973214.143   156445750.337                                  
C06  39391814.813   205123548.981                                                                    39391814.723   166679655.053                                  
C07                                                                                                  37120281.348   157068048.833                                  
C08  39285303.231   204568846.974                                                                    39285303.517   166228949.946                                  
C09  37688651.940   196254537.133    37688655.674   151756555.660                                    37688651.672   159472987.206                                  
C10  37249329.305   193967000.610    37249328.555   149987889.081                                                                                                  
C12  21679443.711   112890512.848                                                                    21679439.619    91732803.284                                  
C19  22089074.408   115023658.701                                    22089072.746    86682267.742    22089067.403    93466044.209    22089070.423   116078853.000  
C20  23004380.497   119789936.505                                    23004375.530    90274146.191    23004375.798    97339009.824    23004376.048   120888950.672  
C36  23127223.061   120429288.224                                    23127230.763    90756383.788    23127225.902    97858871.836    23127217.111   121534579.930  
> 2026 06 07 16 15 18.0000000  0 12                     
C01  38585444.345   200924624.650                                                                    38585439.967   163267622.320                                  
C02  36925668.228   192281597.610                                                                    36925651.056   156244540.674                                  
C03  36973389.045   192530092.120                                                                    36973373.570   156446425.314                                  
C06  39396818.068   205149606.598                                                                    39396818.371   166700829.039                                  
C07  37120873.545   193298134.5681                                                                   37120873.527   157070554.982                                  
C08  39280086.138   204541679.455                                                                    39280086.495   166206874.107                                  
C09  37693503.540   196279796.727    37693505.863   151776087.965                                    37693502.772   159493512.629                                  
C10  37249989.619   193970436.553    37249987.743   149990545.935                                                                                                  
C12  21683233.373   112910243.536                                                                    21683230.192    91748836.064                                  
C19  22087822.272   115017138.279                                    22087820.503    86677353.900    22087815.142    93460745.830    22087818.001   116072272.716  
C20  23011067.640   119824762.126                                    23011062.332    90300390.908    23011066.228    97367308.537    23011063.154   120924095.781  
C36  23123168.705   120408174.519                                    23123176.085    90740472.446    23123169.813    97841715.297    23123162.093   121513272.556  
> 2026 06 07 16 15 33.0000000  0 12                     
C01  38585431.390   200924556.972                                                                    38585426.905   163267567.307                                  
C02  36925868.469   192282640.814                                                                    36925851.350   156245388.370                                  
C03  36973545.845   192530908.599                                                                    36973530.335   156447088.785                                  
C06  39401818.892   205175655.949                                                                    39401819.982   166721996.216                                  
C07  37121461.507   193301188.155                                                                    37121460.149   157073036.218                                  
C08  39274866.167   204514497.742                                                                    39274866.257   166184786.777                                  
C09  37698355.391   196305068.812    37698357.964   151795630.010                                    37698355.999   159514048.318                                  
C10  37250644.054   193973842.231    37250641.142   149993179.377                                                                                                  
C12  21687041.834   112930072.947                                                                    21687038.742    91764949.079                                  
C19  22086590.650   115010724.008                                    22086588.684    86672520.077    22086583.323    93455533.735    22086585.593   116065799.570  
C20  23017770.114   119859662.600                                    23017767.397    90326691.819    23017769.452    97395668.014    23017765.896   120959316.468  
C36  23119123.105   120387107.516                                    23119129.680    90724596.354    23119125.803    97824596.693    23119116.654   121492012.301  
> 2026 06 07 16 15 48.0000000  0 12                     
C01  38585415.648   200924474.833                                                                    38585411.198   163267500.532                                  
C02  36926065.957   192283669.970                                                                    36926048.982   156246224.649                                  
C03  36973699.894   192531710.789                                                                    36973684.277   156447740.632                                  
C06                                                                                                  39406820.289   166743156.479                                  
C07                                                                                                  37122041.036   157075492.451                                  
C08  39269643.499   204487301.808                                                                    39269642.873   166162687.928                                  
C09  37703208.975   196330353.297    37703212.245   151815181.572                                    37703210.691   159534594.010                                  
C10  37251292.593   193977217.572    37251288.894   149995789.459                                                                                                  
C12  21690869.217   112950000.915                                                                    21690865.197    91781142.152                                  
C19  22085379.255   115004415.883                                    22085376.593    86667766.216    22085371.393    93450407.874    22085374.287   116059433.566  
C20  23024487.151   119894637.643                                    23024492.690    90353049.016    23024485.864    97424088.104    23024482.969   120994612.384  
C36  23115086.349   120366087.086                                    23115093.032    90708755.301    23115089.494    97807515.891    23115080.738   121470798.983  
> 2026 06 07 16 16 03.0000000  0 12                     
C01  38585402.299   200924405.169                                                                    38585397.796   163267443.914                                  
C02  36926266.019   192284712.054                                                                    36926249.204   156247071.416                                  
C03  36973856.355   192532525.655                                                                    36973840.684   156448402.779                                  
C06  39411828.762   205227629.5631                                                                   39411824.062   166764331.727                                  
C07                                                                                                  37122621.243   157077945.607                                  
C08  39264423.278   204460118.767                                                                    39264421.813   166140599.534                                  
C09  37708071.351   196355677.089    37708074.281   151834763.445                                    37708072.369   159555171.655                                  
C10  37251940.255   193980589.546    37251936.074   149998396.802                                                                                                  
C12  21694720.099   112970054.284                                                                    21694716.061    91797437.142                                  
C19  22084193.377   114998241.017                                    22084190.447    86663112.794    22084185.122    93445390.292    22084189.178   116053202.065  
C20  23031223.683   119929714.020                                    23031228.240    90379482.768    23031219.948    97452590.531    23031219.502   121030010.629  
C36  23111063.907   120345140.145                                    23111071.412    90692969.643    23111065.980    97790494.823    23111058.600   121449659.821  
> 2026 06 07 16 16 18.0000000  0 12                     
C01  38585387.289   200924326.924                                                                    38585382.590   163267380.317                                  
C02  36926464.561   192285745.991                                                                    36926447.854   156247911.555                                  
C03  36974011.190   192533332.157                                                                    36973995.466   156449058.136                                  
C06  39416833.625   205253685.895                                                                    39416827.049   166785504.617                                  
C07  37123207.865   193310279.6931                                                                   37123196.411   157080378.573                                  
C08  39259201.038   204432927.668                                                                    39259199.180   166118504.587                                  
C09  37712938.926   196381019.176    37712940.284   151854359.491                                    37712937.657   159575764.161                                  
C10  37252582.933   193983936.996    37252578.644   150000985.285                                                                                                  
C12  21698590.512   112990211.870                                                                    21698586.205    91813816.851                                  
C19  22083029.139   114992178.441                                    22083027.352    86658543.977    22083020.723    93440463.924    22083025.369   116047083.887  
C20  23037975.476   119964870.520                                    23037975.744    90405976.834    23037969.311    97481158.010    23037971.258   121065489.604  
C36  23107051.561   120324245.547                                    23107058.601    90677223.440    23107054.063    97773516.307    23107045.110   121428573.603  
> 2026 06 07 16 16 33.0000000  0 12                     
C01  38585371.994   200924247.123                                                                    38585367.312   163267315.473                                  
C02  36926662.872   192286778.788                                                                    36926646.039   156248750.766                                  
C03  36974165.722   192534137.246                                                                    36974150.015   156449712.377                                  
C06  39421839.274   205279746.386                                                                    39421830.929   166806680.872                                  
C07  37123779.209   193313255.998                                                                    37123768.398   157082797.012                                  
C08  39253977.994   204405735.552                                                                    39253975.975   166096408.734                                  
C09  37717813.024   196406386.392    37717811.648   151873974.960                                    37717808.360   159596377.029                                  
C10  37253222.161   193987267.005    37253217.908   150003560.221                                                                                                  
C12  21702483.153   113010480.628                                                                    21702477.685    91830286.840                                  
C19  22081888.041   114986235.279                                    22081887.237    86654065.182    22081879.696    93435634.587    22081884.306   116041086.162  
C20  23044743.082   120000113.831                                    23044744.386    90432536.372    23044736.721    97509796.066    23044739.776   121101056.340  
C36  23103050.383   120303410.215                                    23103056.584    90661521.919    23103052.795    97756585.947    23103043.879   121407547.167  
> 2026 06 07 16 16 48.0000000  0 12                     
C01  38585358.967   200924179.090                                                                    38585354.339   163267260.214                                  
C02  36926863.523   192287823.768                                                                    36926846.762   156249599.912                                  
C03  36974322.612   192534954.336                                                                    36974306.833   156450376.308                                  
C06  39426847.801   205305824.180                                                                    39426838.401   166827871.209                                  
C07  37124350.142   193316227.726                                                                    37124339.760   157085211.775                                  
C08  39248757.380   204378555.802                                                                    39248755.379   166074323.011                                  
C09  37722695.109   196431791.863    37722690.660   151893620.059                                    37722686.996   159617020.986                                  
C10  37253860.890   193990592.847    37253856.601   150006131.958                                                                                                  
C12  21706399.275   113030873.755                                                                    21706394.379    91846857.914                                  
C19  22080772.442   114980424.987                                    22080771.620    86649686.528    22080764.973    93430913.209    22080767.296   116035222.523  
C20  23051530.202   120035457.260                                    23051533.418    90459171.287    23051521.267    97538515.415    23051527.307   121136724.026  
C36  23099063.179   120282647.513                                    23099070.487    90645875.141    23099064.554    97739714.596    23099057.871   121386593.973  
> 2026 06 07 16 17 03.0000000  0 12                     
C01  38585345.369   200924108.137                                                                    38585340.669   163267202.547                                  
C02  36927063.728   192288866.204                                                                    36927047.002   156250446.972                                  
C03  36974478.966   192535768.643                                                                    36974463.134   156451038.018                                  
C06  39431856.095   205331904.545                                                                    39431846.785   166849063.694                                  
C07  37124917.198   193319180.190                                                                    37124907.602   157087610.899                                  
C08  39243536.785   204351373.825                                                                    39243534.515   166052235.451                                  
C09  37727579.839   196457220.847    37727574.138   151913283.403                                    37727570.672   159637684.111                                  
C10  37254496.133   193993899.717    37254491.863   150008689.039                                    37254489.379   157635940.973                                  
C12  21710336.839   113051376.485                                                                    21710332.425    91863518.035                                  
C19  22079679.126   114974732.931                                    22079678.018    86645396.982    22079672.121    93426287.936    22079673.247   116029478.232  
C20  23058333.725   120070885.808                                    23058338.192    90485870.403    23058324.665    97567303.984    23058331.116   121172477.601  
C36  23095086.892   120261942.649                                    23095094.897    90630271.906    23095088.590    97722890.269    23095082.496   121365699.151  
> 2026 06 07 16 17 18.0000000  0 12                     
C01  38585330.484   200924030.706                                                                    38585325.659   163267139.642                                  
C02  36927262.753   192289902.624                                                                    36927246.027   156251289.118                                  
C03  36974634.104   192536576.660                                                                    36974618.362   156451694.610                                  
C06  39436862.262   205357976.346                                                                    39436855.329   166870255.302                                  
C07  37125479.804   193322109.889                                                                    37125471.066   157089991.498                                  
C08  39238315.867   204324186.140                                                                    39238313.097   166030143.278                                  
C09  37732463.246   196482669.786    37732461.352   151932962.128                                    37732458.278   159658363.478                                  
C10  37255126.999   193997184.143    37255122.782   150011228.725                                    37255121.067   157638608.9311                                 
C12  21714294.685   113071985.107                                                                    21714289.717    91880264.224                                  
C19  22078607.824   114969155.680                                    22078606.341    86641193.960    22078600.873    93421755.952    22078601.999   116023849.813  
C20  23065153.473   120106395.763                                    23065158.262    90512630.820    23065146.880    97596158.657    23065150.239   121208313.267  
C36  23091121.220   120241292.065                                    23091127.992    90614709.609    23091123.150    97706110.040    23091117.199   121344859.106  
> 2026 06 07 16 17 33.0000000  0 12                     
C01  38585316.117   200923955.895                                                                    38585311.275   163267078.902                                  
C02  36927462.296   192290942.031                                                                    36927445.660   156252133.725                                  
C03  36974789.797   192537387.513                                                                    36974774.037   156452353.496                                  
C06  39441872.218   205384167.0841                                                                   39441865.749   166891453.398                                  
C07  37126039.783   193325025.878                                                                    37126031.510   157092360.955                                  
C08  39233096.397   204297001.936                                                                    39233093.127   166008053.906                                  
C09  37737352.622   196508147.847    37737354.087   151952663.302                                    37737351.764   159679066.444                                  
C10  37255755.220   194000455.139    37255751.164   150013758.130                                    37255749.770   157641266.898                                  
C12  21718273.902   113092708.644                                                                    21718269.005    91897103.838                                  
C19  22077560.450   114963702.451                                    22077558.663    86637084.377    22077553.123    93417324.729    22077554.696   116018346.575  
C20  23071990.662   120141996.064                                    23071994.307    90539459.333    23071985.515    97625086.785    23071987.231   121244240.127  
C36  23087167.699   120220704.804                                    23087173.292    90599195.053    23087168.503    97689381.241    23087164.232   121324082.939  
> 2026 06 07 16 17 48.0000000  0 12                     
C01  38585300.267   200923873.317                                                                    38585295.318   163267011.786                                  
C02  36927660.499   192291974.164                                                                    36927644.078   156252972.456                                  
C03  36974943.989   192538190.805                                                                    36974928.175   156453006.218                                  
C06  39446885.909   205410215.999                                                                    39446875.687   166912649.491                                  
C07  37126595.010   193327917.715                                                                    37126586.629   157094710.802                                  
C08  39227875.801   204269810.857                                                                    39227872.299   165985959.036                                  
C09  37742246.018   196533644.378    37742250.700   151972378.846                                    37742248.734   159699784.488                                  
C10  37256378.671   194003702.428    37256374.936   150016269.079                                    37256373.935   157643905.555                                  
C12  21722273.507   113113536.666                                                                    21722267.646    91914028.265                                  
C19  22076534.893   114958362.956                                    22076533.570    86633060.503    22076527.799    93412985.924    22076529.550   116012958.115  
C20  23078842.610   120177676.073                                    23078845.130    90566347.894    23078836.892    97654079.711    23078838.804   121280247.435  
C36  23083223.898   120200170.429                                    23083231.331    90583720.292    23083225.327    97672695.375    23083220.860   121303360.140  
> 2026 06 07 16 18 03.0000000  0 12                     
C01  38585282.738   200923782.345                                                                    38585277.949   163266937.864                                  
C02  36927857.148   192292998.290                                                                    36927840.887   156253804.564                                  
C03  36975096.608   192538985.825                                                                    36975080.723   156453652.298                                  
C06  39451894.810   205436297.588                                                                    39451885.340   166933842.937                                  
C07  37127145.054   193330784.833                                                                    37127137.031   157097040.582                                  
C08  39222653.579   204242612.414                                                                    39222650.220   165963858.106                                  
C09  37747135.858   196559242.7561   37747150.868   151992108.164                                    37747148.742   159720517.013                                  
C10  37256997.100   194006925.103    37256993.883   150018761.100                                    37256993.615   157646524.327                                  
C12  21726293.751   113134468.423                                                                    21726287.765    91931036.982                                  
C19  22075531.279   114953136.661                                    22075530.725    86629121.945    22075524.507    93408739.136    22075526.508   116007683.893  
C20  23085709.908   120213435.017                                    23085703.689    90593295.670    23085702.331    97683136.711    23085705.995   121316334.425  
C36  23079289.979   120179688.199                                    23079299.592    90568284.824    23079293.624    97656051.902    23079286.923   121282689.982  
> 2026 06 07 16 18 18.0000000  0 12                     
C01  38585266.656   200923698.647                                                                    38585261.777   163266869.869                                  
C02  36928055.262   192294030.067                                                                    36928039.108   156254642.993                                  
C03  36975250.729   192539788.317                                                                    36975234.700   156454304.394                                  
C06  39456905.731   205462391.564                                                                    39456897.350   166955046.444                                  
C07  37127692.793   193333642.917                                                                    37127685.699   157099362.993                                  
C08  39217432.519   204215422.388                                                                    39217429.534   165941764.013                                  
C09                                  37752057.577   152011863.373                                    37752054.414   159741276.729                                  
C10  37257613.867   194010139.048    37257611.115   150021246.268                                    37257611.008   157649135.907                                  
C12  21730336.457   113155519.398                                                                    21730331.936    91948142.591                                  
C19  22074552.343   114948039.346                                    22074552.503    86625280.611    22074545.213    93404597.150    22074547.768   116002539.819  
C20  23092594.807   120249288.266                                    23092588.821    90620314.787    23092587.105    97712270.403    23092591.054   121352516.661  
C36  23075369.605   120159273.723                                    23075378.628    90552900.449    23075374.304    97639463.503    23075366.460   121262088.238  
> 2026 06 07 16 18 33.0000000  0 12                     
C01  38585252.271   200923623.973                                                                    38585247.303   163266809.157                                  
C02  36928255.270   192295071.328                                                                    36928239.223   156255489.089                                  
C03  36975406.582   192540600.054                                                                    36975390.447   156454964.015                                  
C06  39461918.921   205488499.637                                                                    39461911.988   166976261.388                                  
C07  37128238.745   193336493.719                                                                    37128233.331   157101679.529                                  
C08  39212212.405   204188242.545                                                                    39212210.511   165919678.172                                  
C09  37756973.005   196610425.358    37756970.861   152031645.809                                    37756966.787   159762064.900                                  
C10  37258229.437   194013345.910    37258226.935   150023726.038                                    37258226.828   157651741.776                                  
C12  21734401.249   113176691.177                                                                    21734398.140    91965346.469                                  
C19  22073598.548   114943072.875                                    22073598.101    86621537.862    22073590.989    93400561.490    22073593.741   115997527.767  
C20  23099497.896   120285237.482                                    23099498.307    90647406.208    23099491.642    97741482.055    23099492.732   121388795.716  
C36  23071462.543   120138928.801                                    23071470.155    90537568.489    23071466.528    97622931.611    23071459.308   121241556.686  
> 2026 06 07 16 18 48.0000000  0 12                     
C01  38585238.065   200923550.072                                                                    38585233.080   163266749.144                                  
C02  36928455.564   192296113.752                                                                    36928439.553   156256336.088                                  
C03  36975562.633   192541412.723                                                                    36975546.372   156455624.392                                  
C06  39466933.076   205514613.418                                                                    39466927.286   166997480.981                                  
C07  37128782.250   193339328.898                                                                    37128778.068   157103983.344                                  
C08  39206991.273   204161064.819                                                                    39206991.827   165897594.001                                  
C09  37761890.864   196636035.184    37761889.042   152051448.839                                    37761884.878   159782874.871                                  
C10  37258842.237   194016537.396    37258839.700   150026193.897                                    37258839.396   157654335.155                                  
C12  21738488.949   113197975.580                                                                    21738485.250    91982641.785                                  
C19  22072668.286   114938229.051                                    22072667.089    86617887.538    22072660.352    93396625.496    22072663.337   115992639.495  
C20  23106418.176   120321274.124                                    23106417.586    90674563.535    23106412.815    97770764.771    23106412.994   121425163.013  
C36  23067566.989   120118645.062                                    23067575.494    90522282.620    23067570.527    97606449.430    23067563.665   121221086.830  
> 2026 06 07 16 19 03.0000000  0 12                     
C01  38585222.912   200923471.262                                                                    38585217.837   163266685.119                                  
C02  36928654.928   192297151.661                                                                    36928638.900   156257179.483                                  
C03  36975717.843   192542220.689                                                                    36975701.475   156456280.921                                  
C06  39471947.070   205540727.079                                                                    39471942.264   167018700.560                                  
C07  37129322.377   193342142.830                                                                    37129318.731   157106269.895                                  
C08  39201769.730   204133883.459                                                                    39201772.446   165875506.964                                  
C09  37766812.619   196661665.993    37766810.546   152071268.045                                    37766809.152   159803701.922                                  
C10  37259451.178   194019707.864    37259448.301   150028645.473                                    37259447.640   157656911.356                                  
C12  21742597.698   113219366.779                                                                    21742593.231    92000023.832                                  
C19  22071760.522   114933502.335                                    22071759.200    86614325.441    22071752.713    93392784.663    22071755.358   115987869.385  
C20  23113354.627   120357392.416                                    23113350.660    90701782.377    23113349.480    97800113.804    23113348.301   121461612.613  
C36  23063682.459   120098416.785                                    23063692.734    90507038.569    23063686.266    97590012.353    23063678.117   121200672.994  
> 2026 06 07 16 19 18.0000000  0 12                     
C01  38585209.100   200923399.347                                                                    38585203.917   163266626.647                                  
C02  36928855.705   192298196.877                                                                    36928839.748   156258028.752                                  
C03  36975874.376   192543035.655                                                                    36975857.865   156456943.162                                  
C06  39476963.316   205566852.427                                                                    39476959.438   167039929.562                                  
C07  37129861.396   193344947.242                                                                    37129857.733   157108548.693                                  
C08  39196550.957   204106710.327                                                                    39196554.888   165853426.611                                  
C09  37771739.287   196687329.491    37771737.089   152091112.487                                    37771739.233   159824555.546                                  
C10  37260058.170   194022868.950    37260055.026   150031089.826                                    37260054.579   157659480.061                                  
C12  21746728.552   113240876.325                                                                    21746724.424    92017502.098                                  
C19  22070877.489   114928904.537                                    22070875.809    86610860.512    22070869.358    93389048.588    22070872.718   115983229.411  
C20  23120309.143   120393603.844                                    23120306.123    90729071.367    23120304.104    97829538.518    23120303.943   121498156.271  
C36  23059811.100   120078255.683                                    23059820.535    90491845.116    23059813.602    97573629.880    23059807.008   121180326.919  
> 2026 06 07 16 19 33.0000000  0 12                     
C01  38585193.714   200923319.177                                                                    38585188.782   163266561.594                                  
C02  36929055.052   192299234.230                                                                    36929039.273   156258871.736                                  
C03  36976029.336   192543842.562                                                                    36976012.753   156457598.892                                  
C06  39481979.240   205592974.286                                                                    39481975.738   167061155.721                                  
C07  37130395.822   193347727.092                                                                    37130391.659   157110807.596                                  
C08  39191332.220   204079530.476                                                                    39191335.668   165831340.803                                  
C09                                  37776667.796   152110970.710                                    37776671.120   159845423.450                                  
C10  37260660.571   194026005.586    37260657.033   150033515.286                                    37260656.693   157662028.854                                  
C12  21750879.186   113262489.096                                                                    21750875.041    92035064.238                                  
C19  22070016.559   114924420.713                                    22070015.541    86607481.464    22070007.678    93385405.118    22070011.967   115978704.416  
C20  23127278.348   120429893.133                                    23127277.026    90756419.055    23127272.290    97859026.500    23127272.344   121534778.466  
C36  23055949.961   120058146.634                                    23055956.787    90476690.927    23055952.642    97557289.687    23055944.243   121160033.392  
> 2026 06 07 16 19 48.0000000  0 12                     
C01  38585177.436   200923234.834                                                                    38585172.611   163266493.068                                  
C02  36929253.684   192300267.868                                                                    36929237.977   156259711.592                                  
C03  36976183.420   192544645.526                                                                    36976166.731   156458251.338                                  
C06  39486995.039   205619096.465                                                                    39486992.216   167082382.088                                  
C07  37130926.229   193350486.422                                                                    37130920.904   157113049.754                                  
C08  39186113.571   204052348.019                                                                    39186115.805   165809252.932                                  
C09  37781609.081   196738744.8281   37781603.095   152130845.518                                    37781606.401   159866308.806                                  
C10  37261259.022   194029121.900    37261255.324   150035925.029                                    37261254.913   157664561.152                                  
C12  21755050.424   113284209.019                                                                    21755045.260    92052713.428                                  
C19  22069177.930   114920054.952                                    22069178.323    86604191.446    22069170.229    93381857.615    22069173.767   115974298.661  
C20  23134262.134   120466264.128                                    23134262.563    90783828.378    23134257.256    97888580.889    23134258.542   121571483.198  
C36  23052098.955   120038093.641                                    23052104.834    90461578.937    23052102.475    97540994.987    23052092.433   121139796.411  
> 2026 06 07 16 20 03.0000000  0 12                     
C01  38585162.658   200923157.982                                                                    38585157.851   163266430.603                                  
C02  36929453.763   192301309.394                                                                    36929437.877   156260557.941                                  
C03  36976339.024   192545456.076                                                                    36976322.334   156458910.004                                  
C06  39492013.465   205645230.740                                                                    39492010.695   167103618.292                                  
C07  37131454.705   193353236.808                                                                    37131447.825   157115284.688                                  
C08  39180896.353   204025174.771                                                                    39180897.711   165787172.451                                  
C09  37786553.940   196764480.372    37786544.791   152150745.794                                    37786548.043   159887221.067                                  
C10  37261855.723   194032229.392    37261852.113   150038327.953                                    37261851.291   157667086.301                                  
C12  21759243.765   113306047.565                                                                    21759238.047    92070459.047                                  
C19  22068364.550   114915819.062                                    22068364.979    86600999.291    22068356.938    93378415.636    22068360.404   115970023.950  
C20  23141262.806   120502728.125                                    23141265.665    90811307.887    23141261.395    97918210.987    23141257.302   121608281.827  
C36  23048260.974   120018108.230                                    23048265.888    90446517.905    23048263.458    97524755.265    23048253.273   121119627.689  
> 2026 06 07 16 20 18.0000000  0 12                     
C01  38585151.543   200923100.429                                                                    38585146.808   163266383.831                                  
C02  36929657.631   192302370.611                                                                    36929641.549   156261420.253                                  
C03  36976498.362   192546286.114                                                                    36976481.565   156459584.485                                  
C06                                                                                                  39497033.338   167124873.757                                  
C07  37131983.503   193355990.127                                                                    37131975.641   157117521.970                                  
C08  39175681.761   203998022.616                                                                    39175683.762   165765109.073                                  
C09  37791504.732   196790260.779    37791495.386   152170680.775                                    37791498.728   159908169.706                                  
C10  37262452.905   194035339.955    37262449.600   150040733.230                                    37262448.456   157669613.930                                  
C12  21763462.588   113328016.494                                                                    21763458.800    92088310.569                                  
C19  22067578.670   114911724.943                                    22067578.438    86597913.944    22067570.254    93375088.833    22067574.382   115965892.279  
C20  23148286.654   120539297.092                                    23148288.549    90838866.394    23148284.063    97947926.261    23148277.827   121645186.201  
C36  23044438.540   119998202.213                                    23044443.258    90431516.721    23044439.130    97508580.066    23044431.375   121099539.057  
> 2026 06 07 16 20 33.0000000  0 12                     
C01  38585139.232   200923036.356                                                                    38585134.800   163266331.817                                  
C02  36929860.319   192303425.798                                                                    36929844.094   156262277.681                                  
C03  36976656.449   192547109.848                                                                    36976639.706   156460253.860                                  
C06                                                                                                  39502055.570   167146127.616                                  
C07  37132507.637   193358720.583                                                                    37132499.274   157119740.698                                  
C08  39170465.150   203970865.806                                                                    39170468.652   165743041.912                                  
C09  37796458.829   196816060.201    37796450.144   152190630.426                                    37796453.468   159929133.771                                  
C10  37263045.567   194038427.735    37263042.869   150043120.925                                    37263041.618   157672123.016                                  
C12  21767701.603   113350089.918                                                                    21767699.601    92106247.027                                  
C19  22066815.038   114907746.910                                    22066814.573    86594916.078    22066805.889    93371856.340    22066810.588   115961877.719  
C20  23155325.209   120575944.872                                    23155326.013    90866484.280    23155320.867    97977705.563    23155316.471   121682170.196  
C36  23040626.148   119978349.774                                    23040632.152    90416555.869    23040626.434    97492448.393    23040619.608   121079504.480  
> 2026 06 07 16 20 48.0000000  0 12                     
C01  38585124.097   200922957.439                                                                    38585119.719   163266267.629                                  
C02  36930060.238   192304466.486                                                                    36930043.941   156263123.340                                  
C03  36976811.695   192547918.886                                                                    36976794.988   156460911.286                                  
C06                                                                                                  39507076.676   167167372.864                                  
C07  37133024.928   193361419.841                                                                    37133017.458   157121934.010                                  
C08  39165245.715   203943696.001                                                                    39165250.665   165720964.260                                  
C09  37801414.606   196841870.257    37801407.708   152210588.358                                    37801409.978   159950106.492                                  
C10  37263632.332   194041484.387    37263630.188   150045484.533                                    37263628.777   157674606.822                                  
C12  21771959.130   113372259.353                                                                    21771956.789    92124261.516                                  
C19  22066071.811   114903876.626                                    22066071.186    86591999.406    22066062.984    93368711.431    22066067.219   115957971.948  
C20  23162376.415   120612662.886                                    23162377.326    90894155.083    23162371.233    98007541.891    23162369.231   121719225.070  
C36  23036821.744   119958542.505                                    23036829.017    90401629.063    23036822.495    97476353.364    23036815.311   121059515.449  
> 2026 06 07 16 21 03.0000000  0 12                     
C01  38585108.676   200922876.870                                                                    38585104.190   163266202.191                                  
C02  36930259.870   192305505.945                                                                    36930243.485   156263967.999                                  
C03  36976966.512   192548726.435                                                                    36976949.966   156461567.536                                  
C06  39512149.245   205750130.6161                                                                   39512097.514   167188616.1071                                 
C07  37133538.555   193364101.092                                                                    37133532.783   157124112.688                                  
C08  39160027.210   203916526.568                                                                    39160031.981   165698886.893                                  
C09  37806374.725   196867703.760    37806369.936   152230564.441                                    37806370.186   159971098.341                                  
C10  37264216.042   194044523.096    37264213.933   150047834.258                                    37264212.593   157677076.017                                  
C12  21776237.420   113394537.885                                                                    21776233.382    92142364.627                                  
C19  22065351.851   114900127.482                                    22065350.921    86589174.022    22065343.291    93365664.927    22065347.151   115954188.423  
C20  23169443.399   120649464.080                                    23169446.008    90921888.613    23169437.413    98037445.887    23169438.378   121756363.971  
C36  23033029.366   119938793.467                                    23033035.959    90386746.171    23033029.258    97460305.715    23033022.325   121039585.253  
> 2026 06 07 16 21 18.0000000  0 11                     
C01  38585094.434   200922802.641                                                                    38585089.931   163266141.942                                  
C02  36930460.861   192306552.150                                                                    36930444.547   156264818.119                                  
C03  36977122.616   192549540.506                                                                    36977106.177   156462229.033                                  
C07  37134050.502   193366772.299                                                                    37134046.660   157126283.197                                  
C08  39154811.260   203889365.483                                                                    39154814.262   165676816.332                                  
C09  37811341.348   196893568.843    37811337.810   152250564.977                                    37811335.612   159992115.787                                  
C10  37264797.982   194047551.743    37264795.642   150050176.243                                    37264794.319   157679537.087                                  
C12  21780538.530   113416933.318                                                                    21780535.939    92160562.788                                  
C19  22064656.621   114896507.457                                    22064655.942    86586445.941    22064648.168    93362723.344    22064651.975   115950535.181  
C20  23176528.610   120686356.284                                    23176532.308    90949690.713    23176521.390    98067423.771    23176523.392   121793594.660  
C36  23029248.691   119919110.720                                    23029255.535    90371913.168    23029249.353    97444311.811    23029242.294   121019721.875  
> 2026 06 07 16 21 33.0000000  0 11                     
C01  38585081.604   200922735.747                                                                    38585076.708   163266087.564                                  
C02  36930663.264   192307606.071                                                                    36930647.235   156265674.550                                  
C03  36977280.114   192550362.123                                                                    36977263.924   156462896.685                                  
C07  37134560.770   193369434.381                                                                    37134558.322   157128446.359                                  
C08  39149597.901   203862213.904                                                                    39149598.956   165654753.507                                  
C09  37816314.029   196919466.396    37816311.689   152270590.529                                    37816307.507   160013159.588                                  
C10  37265378.225   194050571.487    37265375.527   150052511.294                                    37265374.098   157681990.871                                  
C12  21784862.137   113439446.662                                                                    21784861.386    92178856.717                                  
C19  22063986.336   114893017.695                                    22063985.281    86583816.031    22063978.974    93359887.617    22063981.725   115947013.388  
C20  23183631.904   120723340.388                                    23183633.941    90977562.032    23183622.790    98097476.305    23183624.005   121830917.959  
C36  23025480.383   119899495.149                                    23025489.460    90357130.784    23025482.116    97428372.532    23025475.236   120999926.288  
> 2026 06 07 16 21 48.0000000  0 11                     
C01  38585072.366   200922687.458                                                                    38585067.470   163266048.346                                  
C02  36930869.401   192308679.004                                                                    36930853.676   156266546.403                                  
C03  36977441.239   192551202.475                                                                    36977425.157   156463579.535                                  
C07  37135070.895   193372098.673                                                                                                                                  
C08  39144388.563   203835083.089                                                                    39144388.706   165632707.627                                  
C09  37821294.466   196945407.601    37821293.840   152290649.914                                    37821288.605   160034238.965                                  
C10  37265958.718   194053593.372    37265955.752   150054848.025                                    37265954.108   157684446.393                                  
C12  21789209.813   113462088.898                                                                    21789208.794    92197255.443                                  
C19  22063343.104   114889669.457                                    22063341.317    86581292.794    22063337.154    93357166.928    22063338.298   115943634.456  
C20  23190754.943   120760427.314                                    23190753.924    91005510.825    23190744.597    98127612.387    23190747.295   121868345.085  
C36  23021728.602   119879957.793                                    23021738.162    90342407.439    23021729.281    97412496.917    23021723.778   120980209.771  
> 2026 06 07 16 22 03.0000000  0 11                     
C01  38585055.855   200922601.548                                                                    38585051.102   163265978.580                                  
C02  36931068.390   192309714.706                                                                    36931052.755   156267388.016                                  
C03  36977595.270   192552005.366                                                                    36977579.330   156464231.981                                  
C07  37135570.781   193374709.023                                                                                                                                  
C08  39139172.256   203807916.983                                                                    39139172.577   165610632.993                                  
C09                                  37826273.419   152310699.624                                    37826268.398   160055308.062                                  
C10  37266528.794   194056561.273    37266525.542   150057142.987                                    37266523.862   157686858.020                                  
C12  21793572.249   113484803.831                                                                    21793569.533    92215713.175                                  
C19  22062716.563   114886406.708                                    22062714.347    86578833.959    22062710.398    93354515.677    22062711.274   115940341.755  
C20  23197886.023   120797560.628                                    23197884.272    91033494.575    23197877.714    98157786.218    23197879.287   121905819.068  
C36  23017981.379   119860442.520                                    23017989.903    90327700.737    23017982.773    97396639.246    23017976.340   120960515.510  
> 2026 06 07 16 22 18.0000000  0 11                     
C01  38585036.824   200922502.407                                                                    38585032.053   163265897.956                                  
C02  36931264.949   192310737.628                                                                    36931249.242   156268219.232                                  
C03  36977746.710   192552795.242                                                                    36977730.896   156464873.836                                  
C07  37136065.235   193377289.714                                                                                                                                  
C08  39133953.375   203780740.086                                                                    39133954.429   165588549.582                                  
C09                                  37831254.731   152330758.242                                    37831250.531   160076386.580                                  
C10  37267093.223   194059499.533    37267089.667   150059415.038                                    37267087.898   157689245.646                                  
C12  21797953.537   113507615.744                                                                    21797950.177    92234249.666                                  
C19  22062111.107   114883253.901                                    22062109.159    86576457.988    22062103.673    93351953.725    22062105.371   115937159.992  
C20  23205030.059   120834764.539                                    23205028.522    91061531.570    23205022.500    98188017.432    23205023.268   121943364.338  
C36  23014242.161   119840973.796                                    23014250.988    90313029.043    23014245.431    97380819.324    23014237.086   120940868.119  
> 2026 06 07 16 22 33.0000000  0 11                     
C01  38585018.687   200922408.359                                                                    38585013.880   163265821.605                                  
C02  36931462.616   192311765.961                                                                    36931446.874   156269054.891                                  
C03  36977899.043   192553590.305                                                                    36977883.479   156465519.911                                  
C07  37136559.027   193379837.0121                                                                   37136570.803   157136983.8691                                 
C08  39128735.781   203753570.711                                                                    39128737.193   165566472.268                                  
C09  37836285.307   197023476.3081   37836241.492   152350839.910                                    37836238.115   160097489.467                                  
C10  37267655.525   194062426.391    37267651.594   150061678.291                                    37267649.718   157691623.954                                  
C12  21802356.303   113530542.639                                                                    21802351.782    92252879.599                                  
C19  22061530.167   114880229.350                                    22061529.416    86574178.694    22061522.054    93349496.011    22061524.574   115934107.693  
C20  23212191.480   120872057.158                                    23212191.570    91089635.368    23212180.616    98218320.687    23212186.245   121980999.100  
C36  23010515.219   119821569.655                                    23010524.814    90298406.060    23010519.329    97365051.921    23010510.198   120921285.952  
> 2026 06 07 16 22 48.0000000  0 11                     
C01  38584997.495   200922298.398                                                                    38584992.795   163265732.265                                  
C02  36931657.264   192312778.840                                                                    36931641.485   156269877.917                                  
C03  36978048.500   192554369.696                                                                    36978032.989   156466153.261                                  
C07  37137047.262   193382374.087                                                                    37137056.572   157139040.519                                  
C08  39123515.596   203726388.019                                                                    39123516.633   165544384.151                                  
C09  37841271.872   197049455.482    37841230.220   152370928.509                                    37841227.647   160118599.554                                  
C10  37268211.573   194065320.961    37268207.338   150063916.554                                    37268205.283   157693975.982                                  
C12  21806776.760   113553563.438                                                                    21806769.970    92271585.929                                  
C19  22060969.830   114877312.248                                    22060969.419    86571980.399    22060962.450    93347125.624    22060964.827   115931163.825  
C20  23219365.750   120909417.295                                    23219368.359    91117790.089    23219357.513    98248678.831    23219360.675   122018702.035  
C36  23006797.515   119802209.188                                    23006806.968    90283815.988    23006802.465    97349319.991    23006791.904   120901747.893  
> 2026 06 07 16 23 03.0000000  0 11                     
C01  38584982.467   200922220.243                                                                    38584977.749   163265668.776                                  
C02  36931858.112   192313823.899                                                                    36931842.333   156270727.160                                  
C03  36978204.032   192555181.002                                                                    36978188.664   156466812.537                                  
C07  37137538.357   193384926.447                                                                    37137545.469   157141114.532                                  
C08  39118301.934   203699239.760                                                                    39118302.470   165522324.001                                  
C09  37846274.824   197075491.236    37846230.026   152391060.900                                    37846227.935   160139755.583                                  
C10  37268770.409   194068230.815    37268766.085   150066166.644                                    37268763.923   157696340.491                                  
C12  21811225.503   113576725.837                                                                    21811217.981    92290407.254                                  
C19  22060439.442   114874550.304                                    22060438.405    86569899.006    22060432.348    93344881.342    22060434.832   115928376.551  
C20  23226563.357   120946892.499                                    23226565.716    91146031.520    23226557.853    98279130.435    23226557.925   122056521.003  
C36  23003097.305   119782940.005                                    23003106.990    90269294.648    23003102.469    97333662.192    23003091.605   120882301.917  
> 2026 06 07 16 23 18.0000000  0 11                     
C01  38584968.672   200922148.628                                                                    38584963.990   163265610.604                                  
C02  36932060.264   192314875.887                                                                    36932044.468   156271582.001                                  
C03  36978360.850   192555998.990                                                                    36978345.715   156467477.245                                  
C07  37138028.218   193387469.014                                                                    37138032.328   157143180.695                                  
C08  39113090.004   203672100.728                                                                    39113090.237   165500271.366                                  
C09  37851235.264   197101316.8361   37851235.836   152411217.219                                    37851234.282   160160936.837                                  
C10  37269327.333   194071130.706    37269322.937   150068409.029                                    37269320.596   157698696.916                                  
C12  21815695.314   113600004.357                                                                    21815688.774    92309322.973                                  
C19  22059934.302   114871918.349                                    22059932.819    86567915.556    22059926.940    93342742.663    22059929.621   115925720.446  
C20  23233777.975   120984457.253                                    23233779.690    91174340.417    23233770.059    98309654.804    23233773.079   122094430.371  
C36  22999409.746   119763736.735                                    22999418.966    90254823.034    22999413.088    97318058.012    22999403.867   120862922.455  
> 2026 06 07 16 23 33.0000000  0 11                     
C01  38584950.731   200922055.439                                                                    38584945.978   163265534.843                                  
C02  36932258.360   192315906.698                                                                    36932242.635   156272419.661                                  
C03  36978513.541   192556795.635                                                                    36978498.638   156468124.606                                  
C07  37138510.896   193389973.629                                                                    37138511.915   157145215.881                                  
C08  39107874.304   203644942.912                                                                    39107874.733   165478203.463                                  
C09  37856241.593   197127386.422    37856242.218   152431375.795                                    37856241.325   160182120.464                                  
C10  37269876.913   194073992.547    37269872.517   150070621.995                                    37269869.890   157701022.351                                  
C12  21820182.566   113623370.867                                                                    21820177.205    92328310.150                                  
C19  22059448.676   114869388.378                                    22059446.907    86566008.969    22059441.689    93340686.864    22059443.869   115923167.280  
C20  23241003.600   121022083.190                                    23241004.690    91202695.461    23240994.416    98340228.940    23240999.401   122132401.517  
C36  22995729.639   119744571.261                                    22995737.698    90240379.920    22995731.318    97302484.560    22995724.332   120843581.145  
> 2026 06 07 16 23 48.0000000  0 11                     
C01  38584935.703   200921977.505                                                                    38584931.075   163265471.567                                  
C02  36932459.422   192316953.135                                                                    36932443.679   156273270.001                                  
C03  36978669.252   192557607.662                                                                    36978654.456   156468784.478                                  
C07  37138993.056   193392477.058                                                                    37138992.788   157147250.225                                  
C08  39102661.839   203617803.292                                                                    39102662.911   165456150.296                                  
C09  37861255.516   197153495.708    37861256.445   152451565.113                                    37861256.570   160203336.380                                  
C10  37270426.332   194076853.093    37270421.900   150072833.937                                    37270419.077   157703346.784                                  
C12  21824693.743   113646861.989                                                                    21824689.473    92347398.582                                  
C19  22058989.567   114866997.265                                    22058987.709    86564206.994    22058981.973    93338743.889    22058984.546   115920754.230  
C20  23248247.470   121059806.952                                    23248248.274    91231124.201    23248239.715    98370882.555    23248242.788   122170471.384  
C36  22992063.844   119725480.277                                    22992071.653    90225992.947    22992065.774    97286971.632    22992058.591   120824315.012  
> 2026 06 07 16 24 03.0000000  0 11                     
C01  38584922.069   200921906.602                                                                    38584917.406   163265413.953                                  
C02  36932661.932   192318007.005                                                                    36932646.225   156274126.380                                  
C03  36978826.249   192558426.860                                                                    36978811.739   156469450.157                                  
C07  37139473.125   193394971.147                                                                    37139473.090   157149276.827                                  
C08  39097451.232   203590673.603                                                                    39097453.055   165434105.220                                  
C09  37866274.603   197179636.327    37866276.872   152471778.646                                    37866278.016   160224577.761                                  
C10  37270973.642   194079704.050    37270969.496   150075038.496                                    37270966.512   157705663.462                                  
C12  21829228.419   113670469.460                                                                    21829222.701    92366581.430                                  
C19  22058555.386   114864736.836                                    22058553.831    86562503.556    22058548.113    93336907.138    22058550.186   115918473.069  
C20  23255508.494   121097620.103                                    23255509.244    91259620.291    23255503.240    98401608.792    23255504.223   122208631.456  
C36  22988410.308   119706455.585                                    22988419.689    90211655.884    22988411.988    97271512.528    22988403.982   120805115.761  
> 2026 06 07 16 24 18.0000000  0 11                     
C01  38584904.308   200921814.225                                                                    38584899.733   163265338.891                                  
C02  36932860.385   192319039.761                                                                    36932844.607   156274965.588                                  
C03  36978979.190   192559224.755                                                                    36978964.877   156470098.536                                  
C07  37139945.457   193397427.350                                                                    37139945.225   157151272.738                                  
C08  39092237.605   203563525.455                                                                    39092239.731   165412045.166                                  
C09                                  37871297.942   152491994.516                                    37871299.104   160245821.495                                  
C10  37271513.447   194082517.005    37271509.873   150077213.671                                    37271506.407   157707949.212                                  
C12  21833779.427   113694164.466                                                                    21833773.316    92385835.524                                  
C19  22058140.967   114862578.717                                    22058139.395    86560877.199    22058133.605    93335153.521    22058135.946   115916295.174  
C20  23262781.043   121135493.881                                    23262781.776    91288162.130    23262778.148    98432384.372    23262777.112   122246852.729  
C36  22984763.759   119687468.584                                    22984772.800    90197347.237    22984764.420    97256084.064    22984757.040   120785954.549  
> 2026 06 07 16 24 33.0000000  0 11                     
C01  38584888.636   200921732.694                                                                    38584883.991   163265272.652                                  
C02  36933060.983   192320083.750                                                                    36933045.240   156275813.941                                  
C03  36979134.096   192560033.648                                                                    36979120.158   156470755.844                                  
C07  37140416.109   193399877.965                                                                    37140415.252   157153264.014                                  
C08  39087027.159   203536391.212                                                                    39087029.071   165389996.456                                  
C09  37876327.304   197231973.2831   37876325.678   152512237.397                                    37876326.017   160267093.729                                  
C10  37272051.591   194085324.787    37272049.143   150079384.401                                    37272045.426   157710230.306                                  
C12  21838352.324   113717979.194                                                                    21838346.302    92405186.993                                  
C19  22057752.602   114860555.272                                    22057750.815    86559352.320    22057745.061    93333509.301    22057747.259   115914253.171  
C20  23270072.677   121173460.445                                    23270072.427    91316773.849    23270068.906    98463235.313    23270067.030   122285167.593  
C36  22981130.933   119668551.520                                    22981134.792    90183091.394    22981131.094    97240712.450    22981123.589   120766863.914  
> 2026 06 07 16 24 48.0000000  0 11                     
C01  38584870.696   200921639.334                                                                    38584866.014   163265196.823                                  
C02  36933259.365   192321116.317                                                                    36933243.443   156276653.019                                  
C03  36979286.894   192560830.796                                                                    36979273.153   156471403.682                                  
C07  37140880.811   193402300.339                                                                    37140879.525   157155232.420                                  
C08  39081815.426   203509248.385                                                                    39081816.427   165367940.710                                  
C09  37881359.435   197258164.253    37881355.504   152532489.917                                    37881354.235   160288375.995                                  
C10                                  37272582.890   150081533.121                                    37272578.727   157712488.231                                  
C12  21842945.146   113741891.027                                                                    21842937.426    92424617.252                                  
C19  22057385.661   114858643.924                                    22057384.178    86557911.916    22057378.550    93331956.183    22057379.657   115912324.261  
C20  23277378.266   121211496.956                                    23277376.944    91345438.255    23277371.779    98494143.026    23277371.261   122323553.010  
C36  22977507.291   119649681.699                                    22977510.901    90168871.071    22977507.792    97225379.196    22977500.090   120747820.976  
> 2026 06 07 16 25 03.0000000  0 11                     
C01  38584856.133   200921563.305                                                                    38584851.308   163265135.007                                  
C02  36933461.142   192322166.560                                                                    36933445.345   156277506.464                                  
C03  36979443.070   192561645.565                                                                    36979429.614   156472065.721                                  
C07  37141345.352   193404723.597                                                                                                                                  
C08  39076607.624   203482126.139                                                                    39076607.767   165345901.732                                  
C09  37886397.606   197284396.468    37886392.925   152552774.266                                    37886390.191   160309691.750                                  
C10                                  37273116.852   150083682.403                                    37273112.135   157714746.844                                  
C12  21847561.733   113765928.889                                                                    21847553.406    92444149.925                                  
C19  22057045.668   114856873.838                                    22057044.381    86556578.002    22057039.110    93330517.881    22057039.288   115910537.951  
C20  23284702.099   121249632.247                                    23284700.080    91374177.149    23284693.951    98525131.054    23284694.577   122362038.175  
C36  22973898.410   119630888.117                                    22973905.379    90154708.221    22973899.429    97210107.923    22973891.602   120728855.005  
> 2026 06 07 16 25 18.0000000  0 11                     
C01  38584842.231   200921490.494                                                                    38584837.495   163265075.892                                  
C02  36933663.616   192323220.401                                                                    36933647.730   156278362.814                                  
C03  36979599.870   192562463.600                                                                    36979586.701   156472730.450                                  
C07  37141805.497   193407133.782                                                                    37141804.139   157159128.9841                                 
C08  39071401.020   203455010.448                                                                    39071400.180   165323868.080                                  
C09  37891441.352   197310655.934    37891435.509   152573079.657                                    37891432.257   160331029.611                                  
C10                                  37273648.081   150085821.331                                    37273642.827   157716994.488                                  
C12  21852197.636   113790078.360                                                                    21852190.578    92463773.376                                  
C19  22056730.422   114855231.014                                    22056729.082    86555339.979    22056723.650    93329182.981    22056723.525   115908880.064  
C20  23292041.443   121287852.073                                    23292039.013    91402979.691    23292033.509    98556187.737    23292035.475   122400608.653  
C36  22970301.286   119612156.674                                    22970308.291    90140592.181    22970303.073    97194887.143    22970294.085   120709951.716  
> 2026 06 07 16 25 33.0000000  0 10                     
C01  38584829.240   200921422.470                                                                    38584824.290   163265020.641                                  
C02  36933867.072   192324279.423                                                                    36933851.205   156279223.392                                  
C03  36979757.654   192563286.648                                                                    36979744.663   156473399.267                                  
C08  39066195.827   203427903.023                                                                    39066194.058   165301841.129                                  
C09  37896493.551   197336944.230    37896483.562   152593407.325                                    37896480.667   160352390.944                                  
C10                                  37274177.022   150087951.065                                    37274171.018   157719232.464                                  
C12  21856856.412   113814341.100                                                                    21856850.444    92483488.859                                  
C19  22056439.818   114853717.097                                    22056438.121    86554199.102    22056432.474    93327952.830    22056433.100   115907352.278  
C20  23299396.422   121326157.745                                    23299394.653    91431846.968    23299390.401    98587314.219    23299389.954   122439265.642  
C36  22966716.171   119593488.902                                    22966720.656    90126524.136    22966717.886    97179718.085    22966708.362   120691112.695  
> 2026 06 07 16 25 48.0000000  0 10                     
C01  38584818.786   200921367.554                                                                    38584813.855   163264976.024                                  
C02  36934073.084   192325351.931                                                                    36934057.216   156280094.952                                  
C03  36979917.939   192564122.876                                                                    36979905.270   156474078.824                                  
C08  39060993.404   203400812.208                                                                    39060990.670   165279827.665                                  
C09  37901555.595   197363269.366    37901538.744   152613763.416                                    37901536.028   160373782.150                                  
C10                                  37274705.176   150090078.024                                    37274699.083   157721467.606                                  
C12  21861539.258   113838725.265                                                                    21861535.845    92503302.956                                  
C19  22056175.482   114852340.453                                    22056173.999    86553161.666    22056167.298    93326834.201    22056168.924   115905962.996  
C20  23306768.967   121364557.257                                    23306769.539    91460785.036    23306765.339    98618517.026    23306766.644   122478017.589  
C36  22963145.100   119574892.988                                    22963148.102    90112510.302    22963146.798    97164607.443    22963136.970   120672346.223  
> 2026 06 07 16 26 03.0000000  0 11                     
C01  38584804.616   200921293.464                                                                    38584799.613   163264915.839                                  
C02  36934275.504   192326405.626                                                                    36934259.619   156280951.175                                  
C03  36980074.686   192564940.167                                                                    36980062.160   156474742.941                                  
C07  37143181.644   193414291.7421                                                                   37143176.873   157164942.527                                  
C08  39055787.907   203373705.812                                                                    39055784.137   165257801.581                                  
C09  37906617.567   197389599.889    37906594.999   152634123.137                                    37906591.800   160395177.060                                  
C10  37275224.772   194101924.9151   37275226.398   150092177.235                                    37275220.876   157723673.491                                  
C12  21866238.793   113863198.377                                                                    21866236.256    92523189.347                                  
C19  22055931.284   114851068.870                                    22055929.997    86552203.429    22055920.741    93325800.929    22055924.047   115904679.700  
C20  23314155.270   121403018.256                                    23314156.861    91489769.435    23314152.072    98649769.800    23314153.501   122516831.471  
C36  22959581.838   119556336.630                                    22959588.128    90098526.240    22959583.286    97149528.934    22959574.708   120653619.632  
> 2026 06 07 16 26 18.0000000  0 11                     
C01  38584789.910   200921216.431                                                                    38584784.710   163264853.302                                  
C02  36934477.424   192327456.748                                                                    36934461.521   156281805.292                                  
C03  36980230.915   192565754.578                                                                    36980218.549   156475404.734                                  
C07  37143630.836   193416631.925                                                                    37143626.476   157166844.120                                  
C08  39050582.697   203346600.121                                                                    39050577.890   165235776.034                                  
C09  37911701.697   197416194.6881   37911655.184   152654498.815                                    37911651.325   160416588.816                                  
C10  37275743.509   194104619.873    37275743.742   150094261.296                                    37275739.417   157725863.494                                  
C12  21870959.146   113887776.610                                                                    21870956.287    92543161.130                                  
C19  22055710.476   114849918.640                                    22055708.993    86551336.635    22055700.934    93324866.256    22055703.347   115903518.920  
C20  23321557.370   121441556.802                                    23321559.032    91518812.210    23321552.617    98681085.507    23321554.422   122555723.576  
C36  22956028.601   119537836.111                                    22956036.535    90084584.160    22956030.727    97134495.737    22956022.525   120634949.286  
> 2026 06 07 16 26 33.0000000  0 11                     
C01  38584772.291   200921124.615                                                                    38584767.181   163264778.647                                  
C02  36934676.575   192328493.467                                                                    36934660.689   156282647.750                                  
C03  36980384.160   192566554.407                                                                    36980372.044   156476054.677                                  
C07  37144074.577   193418940.932                                                                    37144070.325   157168720.346                                  
C08  39045375.395   203319483.441                                                                    39045369.999   165213741.578                                  
C09                                  37916716.925   152674881.292                                    37916712.207   160438007.754                                  
C10  37276255.135   194107283.537    37276254.921   150096320.967                                    37276252.008   157728027.923                                  
C12  21875697.474   113912447.912                                                                    21875695.294    92563208.579                                  
C19  22055510.576   114848878.045                                    22055509.003    86550552.433    22055502.642    93324020.682    22055504.536   115902468.781  
C20  23328971.514   121480160.852                                    23328973.444    91547904.301    23328964.902    98712454.375    23328965.635   122594681.610  
C36  22952483.815   119519379.335                                    22952492.178    90070675.081    22952487.836    97119498.138    22952477.526   120616323.224  
> 2026 06 07 16 26 48.0000000  0 11                     
C01  38584753.100   200921024.605                                                                    38584747.793   163264697.386                                  
C02  36934874.224   192329522.373                                                                    36934858.338   156283483.837                                  
C03  36980536.082   192567346.185                                                                    36980524.181   156476698.068                                  
C07  37144513.762   193421225.312                                                                    37144509.331   157170576.515                                  
C08  39040166.933   203292362.367                                                                    39040161.608   165191703.529                                  
C09                                  37921781.238   152695275.553                                    37921776.360   160459438.983                                  
C10  37276762.205   194109922.200    37276761.222   150098361.277                                    37276759.792   157730171.987                                  
C12  21880454.584   113937218.713                                                                    21880451.832    92583336.893                                  
C19  22055333.011   114847953.705                                    22055330.635    86549855.805    22055325.220    93323269.557    22055327.222   115901535.917  
C20  23336397.862   121518836.524                                    23336400.721    91577050.469    23336391.608    98743881.524    23336392.537   122633712.192  
C36  22948949.412   119500972.856                                    22948957.310    90056803.919    22948952.700    97104541.418    22948942.515   120597747.869  
> 2026 06 07 16 27 03.0000000  0 11                     
C01  38584738.340   200920947.831                                                                    38584733.212   163264634.941                                  
C02  36935076.412   192330574.847                                                                    36935060.544   156284339.098                                  
C03  36980692.418   192568161.306                                                                    36980680.678   156477360.473                                  
C07  37144954.430   193423516.421                                                                    37144949.355   157172438.273                                  
C08  39034963.134   203265268.487                                                                    39034958.773   165169687.554                                  
C09                                  37926855.254   152715705.880                                    37926850.072   160480908.192                                  
C10  37277270.578   194112567.368    37277268.952   150100406.747                                    37277268.506   157732321.414                                  
C12  21885236.709   113962120.325                                                                    21885232.653    92603571.460                                  
C19  22055183.090   114847177.083                                    22055181.428    86549270.489    22055175.085    93322638.462    22055177.658   115900752.170  
C20  23343844.473   121557615.255                                    23343847.422    91606274.277    23343838.041    98775392.386    23343840.864   122672846.712  
C36  22945430.448   119482648.074                                    22945437.148    90042994.303    22945431.645    97089651.071    22945423.300   120579254.987  
> 2026 06 07 16 27 18.0000000  0 11                     
C01  38584721.168   200920858.487                                                                    38584716.075   163264562.432                                  
C02  36935276.259   192331615.158                                                                    36935260.320   156285184.457                                  
C03  36980846.449   192568964.069                                                                    36980834.781   156478012.779                                  
C07  37145389.362   193425778.705                                                                    37145384.002   157174276.446                                  
C08  39029757.208   203238166.034                                                                    39029754.349   165147664.633                                  
C09                                  37931931.969   152736144.589                                    37931926.876   160502386.089                                  
C10  37277773.270   194115183.150    37277771.393   150102429.321                                    37277771.626   157734446.982                                  
C12  21890036.454   113987116.775                                                                    21890032.898    92623883.125                                  
C19  22055055.255   114846512.439                                    22055054.111    86548769.562    22055046.731    93322098.330    22055050.681   115900081.463  
C20  23351303.647   121596460.903                                    23351307.614    91635548.529    23351297.839    98806957.667    23351298.572   122712048.718  
C36  22941919.881   119464369.202                                    22941924.849    90029219.310    22941921.382    97074797.993    22941913.395   120560808.366  
> 2026 06 07 16 27 33.0000000  0 11                     
C01  38584707.998   200920789.753                                                                    38584702.834   163264506.518                                  
C02  36935480.127   192332676.436                                                                    36935464.134   156286046.873                                  
C03  36981004.572   192569787.550                                                                    36980992.921   156478681.986                                  
C07  37145824.491   193428045.118                                                                    37145819.416   157176118.078                                  
C08  39024555.964   203211088.286                                                                    39024554.517   165125661.741                                  
C09                                  37937017.117   152756617.183                                    37937015.545   160523899.629                                  
C10  37278276.729   194117802.758    37278275.157   150104454.928                                    37278275.353   157736575.622                                  
C12  21894861.519   114012241.137                                                                    21894857.552    92644298.722                                  
C19  22054955.921   114845993.009                                    22054954.617    86548378.052    22054947.058    93321676.175    22054951.311   115899557.180  
C20  23358783.531   121635406.436                                    23358787.212    91664898.083    23358778.295    98838604.124    23358778.831   122751351.673  
C36  22938424.754   119446169.203                                    22938430.025    90015503.763    22938425.111    97060009.034    22938417.249   120542441.486  
> 2026 06 07 16 27 48.0000000  0 11                     
C01  38584693.596   200920714.904                                                                    38584688.432   163264445.768                                  
C02  36935682.887   192333731.946                                                                    36935666.947   156286904.589                                  
C03  36981161.516   192570605.079                                                                    36981149.883   156479346.286                                  
C07  37146263.014   193430353.9411                                                                   37146250.488   157177941.382                                  
C08  39019355.007   203184008.529                                                                    39019354.274   165103657.269                                  
C09  37942117.437   197574605.965    37942105.125   152777102.901                                    37942112.112   160545426.921                                  
C10  37278775.865   194120399.416    37278774.560   150106462.907                                    37278774.811   157738685.621                                  
C12  21899705.883   114037466.524                                                                    21899701.487    92664796.380                                  
C19  22054878.423   114845591.992                                    22054878.030    86548075.855    22054870.793    93321350.309    22054874.635   115899152.511  
C20  23366277.924   121674425.053                                    23366279.961    91694302.606    23366273.242    98870309.877    23366272.295   122790728.200  
C36  22934939.705   119428021.338                                    22934946.459    90001827.485    22934939.258    97045262.495    22934932.772   120524127.113  
> 2026 06 07 16 28 03.0000000  0 11                     
C01  38584672.082   200920603.132                                                                    38584667.025   163264354.921                                  
C02  36935878.642   192334750.954                                                                    36935862.703   156287732.640                                  
C03  36981311.490   192571385.844                                                                    36981299.875   156479980.769                                  
C07                                                                                                  37146671.089   157179721.383                                  
C08  39014148.688   203156896.089                                                                    39014147.920   165081626.221                                  
C09  37947199.977   197601084.907    37947189.791   152797578.042                                    37947199.405   160566943.185                                  
C10  37279264.797   194122942.378    37279263.743   150108429.264                                    37279263.761   157740752.005                                  
C12  21904563.166   114062762.029                                                                    21904556.983    92685351.036                                  
C19  22054817.204   114845278.782                                    22054817.454    86547839.860    22054812.308    93321095.828    22054815.488   115898836.541  
C20  23373779.322   121713485.597                                    23373779.161    91723738.739    23373775.069    98902049.757    23373773.157   122830147.103  
C36  22931458.587   119409894.785                                    22931465.806    89988167.266    22931460.463    97030533.234    22931452.780   120505834.251  
> 2026 06 07 16 28 18.0000000  0 11                     
C01  38584656.143   200920520.214                                                                    38584651.086   163264287.503                                  
C02  36936079.954   192335799.104                                                                    36936063.997   156288584.381                                  
C03  36981467.076   192572195.589                                                                    36981455.354   156480638.758                                  
C07                                                                                                  37147094.138   157181511.400                                  
C08  39008949.178   203129816.797                                                                    39008947.998   165059622.109                                  
C09  37952294.114   197627615.607    37952284.357   152818093.125                                    37952291.165   160588501.529                                  
C10  37279756.016   194125497.277    37279755.373   150110404.834                                    37279754.962   157742828.051                                  
C12  21909446.770   114088193.146                                                                    21909440.069    92706015.900                                  
C19  22054786.094   114845119.160                                    22054786.148    86547719.542    22054781.877    93320966.134    22054785.397   115898675.431  
C20  23381301.287   121752653.559                                    23381299.625    91753255.841    23381296.498    98933876.916    23381293.997   122869674.373  
C36  22927994.266   119391855.161                                    22928000.216    89974572.541    22927995.642    97015874.577    22927988.869   120487629.092  
> 2026 06 07 16 28 33.0000000  0 11                     
C01  38584640.168   200920436.779                                                                    38584635.111   163264219.731                                  
C02  36936281.267   192336847.129                                                                    36936265.202   156289436.018                                  
C03  36981622.554   192573004.932                                                                    36981610.796   156481296.456                                  
C07                                                                                                  37147513.614   157183287.722                                  
C08  39003750.293   203102741.381                                                                    39003749.095   165037621.165                                  
C09  37957392.235   197654168.729    37957383.515   152838625.601                                    37957386.982   160610128.0441                                 
C10  37280243.859   194128034.832    37280243.608   150112367.022                                    37280242.858   157744890.062                                  
C12  21914350.798   114113730.467                                                                    21914345.098    92726767.067                                  
C19  22054779.054   114845083.839                                    22054779.036    86547692.926    22054774.783    93320937.485    22054778.214   115898639.775  
C20  23388838.316   121791899.450                                    23388836.904    91782831.643    23388832.276    98965767.403    23388831.972   122909280.336  
C36  22924540.988   119373873.086                                    22924546.027    89961021.207    22924542.203    97001262.703    22924535.520   120469482.075  
> 2026 06 07 16 28 48.0000000  0 11                     
C01  38584618.796   200920325.414                                                                    38584613.632   163264129.233                                  
C02  36936477.308   192337867.602                                                                    36936461.261   156290265.234                                  
C03  36981772.726   192573786.521                                                                    36981760.807   156481931.570                                  
C07                                                                                                  37147924.369   157185028.027                                  
C08  38998546.708   203075642.525                                                                    38998545.975   165015601.149                                  
C09                                  37962481.726   152859154.136                                                                                                  
C10  37280722.874   194130527.571    37280722.927   150114294.641                                    37280721.837   157746915.626                                  
C12  21919269.246   114139346.348                                                                    21919264.011    92747582.096                                  
C19  22054791.312   114845145.443                                    22054790.347    86547739.354    22054785.272    93320987.564    22054789.489   115898701.944  
C20  23396384.762   121831195.576                                    23396383.672    91812445.324    23396378.686    98997698.694    23396378.668   122948936.988  
C36  22921093.642   119355921.112                                    22921099.235    89947492.559    22921096.001    96986675.280    22921087.638   120451365.448  
> 2026 06 07 16 29 03.0000000  0 11                     
C01  38584596.353   200920208.597                                                                    38584591.403   163264034.331                                  
C02  36936672.348   192338882.953                                                                    36936656.355   156291090.355                                  
C03  36981921.914   192574562.774                                                                    36981909.906   156482562.393                                  
C07  37148341.861   193441165.658                                                                    37148330.800   157186750.520                                  
C08  38993342.838   203048542.748                                                                    38993342.891   164993580.410                                  
C09                                  37967583.368   152879696.069                                                                                                  
C10  37281197.493   194132997.979    37281197.618   150116204.874                                    37281196.671   157748923.030                                  
C12  21924207.369   114165063.206                                                                    21924202.598    92768479.167                                  
C19  22054826.889   114845326.542                                    22054826.460    86547875.802    22054819.187    93321134.710    22054824.334   115898884.728  
C20  23403945.181   121870564.219                                    23403944.859    91842113.699    23403940.446    99029688.946    23403939.249   122988666.846  
C36  22917655.678   119338021.631                                    22917662.450    89934003.438    22917660.074    96972130.469    22917649.067   120433301.717  
> 2026 06 07 16 29 18.0000000  0 11                     
C01  38584577.823   200920111.899                                                                    38584572.855   163263955.780                                  
C02  36936871.337   192339918.806                                                                    36936855.327   156291932.082                                  
C03  36982074.980   192575359.294                                                                    36982062.847   156483209.652                                  
C07  37148748.542   193443289.178                                                                    37148737.463   157188475.985                                  
C08  38988143.416   203021467.797                                                                    38988144.453   164971579.809                                  
C09                                  37972693.051   152900271.096                                                                                                  
C10  37281672.523   194135471.574    37281672.898   150118117.644                                    37281671.915   157750933.043                                  
C12  21929170.561   114190906.454                                                                    21929165.647    92789478.913                                  
C19  22054890.056   114845652.747                                    22054888.751    86548121.623    22054881.139    93321399.734    22054886.875   115899213.932  
C20  23411524.649   121910030.734                                    23411526.078    91871855.799    23411518.895    99061758.706    23411518.180   123028495.422  
C36  22914231.777   119320200.207                                    22914240.122    89920573.083    22914237.334    96957649.005    22914227.256   120415316.644  
> 2026 06 07 16 29 33.0000000  0 11                     
C01  38584564.725   200920043.500                                                                    38584559.721   163263900.157                                  
C02  36937075.795   192340983.285                                                                    36937059.748   156292797.088                                  
C03  36982233.568   192576184.290                                                                    36982221.292   156483880.053                                  
C07  37149159.690   193445424.700                                                                    37149146.682   157190211.168                                  
C08  38982949.981   202994425.838                                                                    38982951.697   164949606.011                                  
C09                                  37977812.633   152920885.616                                                                                                  
C10  37282149.483   194137956.500    37282150.269   150120039.232                                    37282149.036   157752952.337                                  
C12  21934160.272   114216884.125                                                                    21934155.751    92810587.835                                  
C19  22054982.546   114846132.291                                    22054980.991    86548482.996    22054974.648    93321789.386    22054978.257   115899697.822  
C20  23419123.826   121949603.052                                    23419126.989    91901677.664    23419116.178    99093914.406    23419117.429   123068430.794  
C36  22910826.459   119302464.786                                    22910833.142    89907207.633    22910829.658    96943237.554    22910822.099   120397418.528  
> 2026 06 07 16 29 48.0000000  0 11                     
C01  38584553.842   200919986.647                                                                    38584548.839   163263853.960                                  
C02  36937282.539   192342059.655                                                                    36937266.457   156293671.734                                  
C03  36982394.335   192577020.925                                                                    36982381.916   156484559.874                                  
C07  37149569.481   193447555.094                                                                    37149556.240   157191942.349                                  
C08  38977759.745   202967400.166                                                                    38977761.192   164927645.467                                  
C09                                  37982938.237   152941526.256                                                                                                  
C10  37282625.317   194140436.062    37282626.407   150121956.602                                    37282625.335   157754967.179                                  
C12  21939172.264   114242979.270                                                                    21939168.923    92831792.231                                  
C19  22055101.000   114846748.378                                    22055099.463    86548947.282    22055093.763    93322290.014    22055096.425   115900319.564  
C20  23426740.390   121989264.129                                    23426741.516    91931566.396    23426734.708    99126142.261    23426734.582   123108455.776  
C36  22907434.615   119284798.562                                    22907439.529    89893894.375    22907435.866    96928882.349    22907428.307   120379590.351  
> 2026 06 07 16 30 03.0000000  0 11                     
C01  38584538.975   200919909.108                                                                    38584533.811   163263790.944                                  
C02  36937485.389   192343115.691                                                                    36937469.271   156294529.856                                  
C03  36982551.190   192577837.012                                                                    36982538.699   156485223.065                                  
C07  37149971.766   193449648.727                                                                    37149960.151   157193643.420                                  
C08  38972566.560   202940358.689                                                                    38972567.204   164905672.092                                  
C09                                  37988062.430   152962179.2351                                   37988072.829   160739988.871                                  
C10  37283093.968   194142877.953    37283095.111   150123844.861                                    37283094.129   157756951.491                                  
C12  21944199.875   114269159.479                                                                    21944195.872    92853065.807                                  
C19  22055239.431   114847468.883                                    22055237.108    86549490.262    22055231.318    93322875.491    22055234.589   115901046.691  
C20  23434368.086   122028981.667                                    23434365.567    91961497.660    23434364.637    99158415.933    23434361.457   123148537.650  
C36  22904049.185   119267169.344                                    22904055.207    89880608.971    22904049.704    96914557.220    22904042.699   120361799.468  
> 2026 06 07 16 30 18.0000000  0 11                     
C01  38584520.570   200919813.213                                                                    38584515.370   163263713.014                                  
C02  36937684.735   192344153.704                                                                    36937668.600   156295373.353                                  
C03  36982704.506   192578634.829                                                                    36982691.926   156485871.357                                  
C07  37150367.279   193451707.362                                                                    37150357.505   157195316.166                                  
C08  38967370.802   202913303.796                                                                    38967370.391   164883687.809                                  
C09                                  37993192.876   152982824.433                                    37993193.430   160761649.846                                  
C10  37283556.096   194145284.477    37283556.597   150125705.750                                    37283555.989   157758907.001                                  
C12  21949243.800   114295426.901                                                                    21949239.315    92874410.265                                  
C19  22055398.394   114848296.185                                    22055395.696    86550113.705    22055390.103    93323547.715    22055393.319   115901881.583  
C20  23442006.432   122068757.569                                    23442003.859    91991472.924    23441998.677    99190737.055    23442000.804   123188678.507  
C36  22900670.832   119249579.362                                    22900679.231    89867353.080    22900672.226    96900263.916    22900665.579   120344048.004  
> 2026 06 07 16 30 33.0000000  0 11                     
C01  38584502.308   200919718.117                                                                    38584497.269   163263635.745                                  
C02  36937884.332   192345192.890                                                                    36937868.232   156296217.786                                  
C03  36982858.019   192579433.623                                                                    36982845.278   156486520.478                                  
C07  37150760.165   193453750.558                                                                    37150750.248   157196976.411                                  
C08  38962175.920   202886254.792                                                                    38962174.794   164861708.296                                  
C09                                  37998325.753   153003487.488                                    37998323.108   160783363.600                                  
C10  37284015.295   194147674.878    37284014.026   150127276.2341                                   37284014.633   157760849.430                                  
C12  21954307.827   114321800.584                                                                    21954304.557    92895841.064                                  
C19  22055581.462   114849249.492                                    22055579.854    86550832.106    22055573.993    93324322.353    22055576.602   115902843.657  
C20  23449659.913   122108610.940                                    23449657.912    92021506.544    23449652.158    99223121.042    23449653.213   123228897.468  
C36  22897303.576   119232047.709                                    22897312.814    89854141.166    22897307.918    96886017.990    22897299.037   120326355.477  
> 2026 06 07 16 30 48.0000000  0 11                     
C01  38584484.386   200919624.813                                                                    38584479.311   163263559.925                                  
C02  36938084.322   192346234.209                                                                    36938068.169   156297063.967                                  
C03  36983011.942   192580234.327                                                                    36982999.041   156487171.137                                  
C07  37151150.389   193455779.037                                                                    37151140.382   157198624.685                                  
C08  38956982.378   202859212.676                                                                    38956980.680   164839734.399                                  
C09  38003458.398   197893969.3111   38003463.955   153024169.031                                    38003457.522   160805096.725                                  
C10  37284471.491   194150050.068    37284467.399   150129112.906                                    37284470.633   157762779.500                                  
C12  21959393.030   114348281.419                                                                    21959389.438    92917358.909                                  
C19  22055788.868   114850329.834                                    22055788.403    86551646.265    22055781.470    93325200.203    22055784.240   115903933.895  
C20  23457328.190   122148542.423                                    23457326.243    92051599.042    23457322.222    99255568.628    23457322.097   123269195.323  
C36  22893948.291   119214575.275                                    22893956.386    89840973.906    22893953.866    96871820.193    22893942.931   120308722.808  
> 2026 06 07 16 31 03.0000000  0 11                     
C01  38584466.177   200919530.066                                                                    38584461.102   163263482.915                                  
C02  36938284.116   192347274.398                                                                    36938268.016   156297909.224                                  
C03  36983165.527   192581033.682                                                                    36983152.661   156487820.716                                  
C07  37151537.414   193457789.601                                                                    37151526.585   157200258.469                                  
C08  38951790.033   202832174.264                                                                    38951787.746   164817763.529                                  
C09  38008601.603   197920735.750    38008605.677   153044866.553                                    38008597.546   160826846.573                                  
C10  37284924.167   194152406.758    37284919.771   150130935.224                                    37284922.326   157764712.4641                                 
C12  21964499.067   114374865.959                                                                    21964493.957    92938960.976                                  
C19  22056020.075   114851533.966                                    22056019.682    86552553.710    22056013.178    93326178.656    22056015.054   115905149.021  
C20  23465011.280   122188548.609                                    23465010.119    92081747.808    23465004.865    99288076.882    23465004.937   123309568.486  
C36  22890603.925   119197158.724                                    22890611.180    89827848.748    22890608.678    96857667.823    22890597.850   120291146.478  
> 2026 06 07 16 31 18.0000000  0 11                     
C01  38584451.417   200919453.129                                                                    38584446.253   163263420.381                                  
C02  36938487.358   192348332.777                                                                    36938471.258   156298769.270                                  
C03  36983322.667   192581851.031                                                                    36983309.622   156488484.879                                  
C07  37151925.136   193459801.691                                                                    37151911.788   157201893.363                                  
C08  38946602.387   202805158.969                                                                    38946599.886   164795811.430                                  
C09  38013749.311   197947542.005    38013753.903   153065594.769                                    38013746.684   160848628.837                                  
C10  37285376.950   194154764.304    37285372.465   150132758.170                                                                                                  
C12  21969628.406   114401573.344                                                                    21969623.742    92960662.862                                  
C19  22056278.622   114852881.206                                    22056277.389    86553569.013    22056271.814    93327273.435    22056273.690   115906508.645  
C20  23472712.633   122228648.541                                    23472712.919    92111967.217    23472706.289    99320661.308    23472706.504   123350036.273  
C36  22887273.514   119179817.405                                    22887281.144    89814780.240    22887276.749    96843576.564    22887268.046   120273645.979  
> 2026 06 07 16 31 33.0000000  0 11                     
C01  38584440.088   200919394.087                                                                    38584434.996   163263372.428                                  
C02  36938694.139   192349409.368                                                                    36938678.128   156299644.100                                  
C03  36983483.291   192582686.369                                                                    36983470.068   156489163.695                                  
C07  37152312.965   193461815.245                                                                    37152296.919   157203529.547                                  
C08  38941419.281   202778166.913                                                                    38941416.994   164773878.204                                  
C09  38018904.095   197974388.102    38018909.045   153086353.852                                    38018905.328   160870443.521                                  
C10  37285829.858   194157122.600    37285825.498   150134581.857                                                                                                  
C12  21974780.653   114428403.385                                                                    21974777.347    92982464.454                                  
C19  22056564.669   114854371.680                                    22056563.669    86554692.239    22056557.504    93328484.581    22056559.809   115908012.820  
C20  23480431.461   122268842.017                                    23480432.497    92142257.134    23480426.458    99353321.747    23480425.600   123390598.493  
C36  22883957.220   119162551.164                                    22883965.404    89801768.318    22883958.900    96829546.351    22883953.075   120256221.289  
> 2026 06 07 16 31 48.0000000  0 11                     
C01  38584424.560   200919313.012                                                                    38584419.610   163263306.564                                  
C02  36938896.773   192350464.310                                                                    36938880.745   156300501.341                                  
C03  36983639.717   192583499.839                                                                    36983626.297   156489824.734                                  
C07  37152693.307   193463790.436                                                                    37152675.367   157205134.481                                  
C08  38936232.922   202751158.268                                                                    38936231.153   164751931.512                                  
C09  38024058.665   198001233.932    38024063.865   153107112.746                                    38024065.009   160892257.919                                  
C10  37286275.261   194159441.841    37286271.241   150136375.201                                                                                                  
C12  21979948.839   114455316.088                                                                    21979945.944    93004333.234                                  
C19  22056870.783   114855965.543                                    22056869.747    86555893.363    22056862.599    93329779.702    22056865.155   115909621.294  
C20  23488159.921   122309088.845                                    23488161.207    92172587.308    23488157.312    99386025.598    23488155.114   123431214.569  
C36  22880648.646   119145319.934                                    22880656.937    89788782.856    22880650.218    96815544.675    22880644.268   120238832.067  
> 2026 06 07 16 32 03.0000000  0 11                     
C01  38584403.010   200919200.674                                                                    38584397.989   163263215.218                                  
C02  36939093.458   192351488.288                                                                    36939077.393   156301333.414                                  
C03  36983790.138   192584282.131                                                                    36983776.540   156490460.432                                  
C07                                                                                                  37153045.542   157206700.669                                  
C08  38931041.756   202724123.811                                                                    38931040.184   164729963.865                                  
C09  38029211.680   198028070.204    38029217.220   153127864.276                                    38029221.758   160914064.655                                  
C10  37286711.212   194161712.712    37286707.871   150138131.183                                                                                                  
C12                                                                                                  21985127.442    93026261.479                                  
C19  22057195.231   114857653.566                                    22057193.784    86557165.444    22057186.708    93331151.311    22057189.120   115911324.773  
C20  23495896.975   122349379.568                                    23495897.601    92202950.553    23495895.903    99418765.130    23495893.455   123471874.979  
C36  22877344.681   119128114.699                                    22877352.847    89775816.853    22877347.397    96801563.946    22877340.661   120221468.880  
> 2026 06 07 16 32 18.0000000  0 11                     
C01  38584381.549   200919088.750                                                                    38584376.546   163263124.227                                  
C02  36939290.249   192352513.022                                                                    36939274.221   156302166.113                                  
C03  36983940.792   192585064.970                                                                    36983926.908   156491096.581                                  
C07                                                                                                  37153412.768   157208253.843                                  
C08  38925851.556   202697095.365                                                                    38925849.804   164708001.074                                  
C09  38034369.556   198054928.756    38034376.132   153148633.003                                    38034378.830   160935889.399                                  
C10  37287143.821   194163966.907    37287141.462   150139874.294                                                                                                  
C12  21990334.994   114509431.4801                                                                   21990327.954    93048274.832                                  
C19  22057543.516   114859467.442                                    22057542.051    86558532.372    22057535.189    93332625.211    22057537.512   115913155.294  
C20  23503648.968   122389745.739                                    23503648.611    92233370.601    23503646.145    99451565.934    23503643.375   123512611.415  
C36  22874051.510   119110966.825                                    22874058.782    89762894.143    22874054.726    96787629.864    22874047.346   120204163.645  
> 2026 06 07 16 32 33.0000000  0 11                     
C01  38584362.894   200918991.631                                                                    38584357.712   163263045.380                                  
C02  36939489.971   192353552.916                                                                    36939473.961   156303011.146                                  
C03  36984094.305   192585862.746                                                                    36984080.153   156491744.882                                  
C07                                                                                                  37153779.011   157209805.812                                  
C08  38920664.696   202670087.467                                                                    38920663.053   164686054.943                                  
C09  38039534.293   198081823.733    38039542.817   153169429.937                                    38039541.226   160957743.878                                  
C10  37287575.912   194166218.828    37287574.429   150141615.682                                                                                                  
C12  21995560.093   114536641.110                                                                    21995553.052    93070384.841                                  
C19  22057918.301   114861421.558                                    22057917.783    86560005.023    22057910.528    93334213.102    22057912.958   115915127.381  
C20  23511417.598   122430201.452                                    23511418.152    92263858.117    23511410.647    99484439.470    23511414.060   123553438.313  
C36  22870772.723   119093890.593                                    22870778.512    89750025.500    22870776.028    96773754.069    22870768.648   120186930.877  
> 2026 06 07 16 32 48.0000000  0 11                     
C01  38584348.903   200918918.503                                                                    38584343.810   163262985.911                                  
C02  36939694.339   192354617.094                                                                    36939678.329   156303875.903                                  
C03  36984252.481   192586684.599                                                                    36984237.990   156492412.726                                  
C07                                                                                                  37154146.131   157211363.915                                  
C08  38915482.948   202643109.267                                                                    38915481.804   164664132.961                                  
C09  38044707.911   198108764.173    38044719.669   153190262.009                                    38044711.771   160979635.190                                  
C10  37288009.200   194168477.570    37288008.449   150143362.281                                                                                                  
C12  22000809.887   114563978.644                                                                    22000804.312    93092598.859                                  
C19  22058322.123   114863525.194                                    22058321.444    86561590.317    22058314.529    93335922.474    22058317.084   115917250.328  
C20  23519204.989   122470755.582                                    23519205.883    92294419.813    23519196.144    99517393.046    23519202.899   123594364.540  
C36  22867509.303   119076895.255                                    22867515.200    89737217.757    22867511.411    96759943.953    22867504.300   120169779.625  
> 2026 06 07 16 33 03.0000000  0 11                     
C01  38584332.463   200918832.797                                                                    38584327.370   163262916.272                                  
C02  36939896.331   192355669.059                                                                    36939880.392   156304730.711                                  
C03  36984408.228   192587494.056                                                                    36984393.414   156493070.476                                  
C07                                                                                                  37154507.389   157212898.423                                  
C08  38910300.091   202616124.312                                                                    38910298.948   164642205.510                                  
C09  38049883.138   198135713.508    38049900.096   153211101.021                                    38049884.907   161001533.708                                  
C10  37288436.645   194170706.560    37288436.413   150145085.871                                                                                                  
C12  22006078.121   114591407.616                                                                    22006071.135    93114887.021                                  
C19  22058747.906   114865741.797                                    22058745.994    86563260.747    22058740.169    93337723.638    22058742.439   115919487.267  
C20  23527005.068   122511371.464                                    23527001.441    92325028.029    23526997.867    99550396.704    23527002.227   123635353.001  
C36  22864253.585   119059944.130                                    22864261.393    89724443.334    22864255.586    96746169.797    22864248.849   120152672.982  
> 2026 06 07 16 33 18.0000000  0 11                     
C01  38584315.166   200918742.772                                                                    38584310.109   163262843.179                                  
C02  36940097.554   192356716.973                                                                    36940081.650   156305582.265                                  
C03  36984563.152   192588299.209                                                                    36984548.124   156493724.802                                  
C07                                                                                                  37154864.394   157214416.177                                  
C08  38905118.093   202589140.912                                                                    38905116.306   164620279.279                                  
C09  38055061.438   198162679.777                                                                    38055064.064   161023429.9991                                 
C10  37288860.087   194172914.097    37288860.123   150146792.928                                                                                                  
C12  22011363.993   114618935.844                                                                    22011358.132    93137255.933                                  
C19  22059197.026   114868079.648                                    22059194.275    86565022.520    22059189.504    93339623.319    22059190.915   115921846.525  
C20  23534818.155   122552057.025                                    23534814.939    92355688.744    23534812.777    99583457.017    23534814.796   123676411.809  
C36  22861007.480   119043045.415                                    22861017.094    89711708.411    22861011.036    96732438.199    22861003.370   120135619.209  
> 2026 06 07 16 33 33.0000000  0 11                     
C01  38584300.317   200918665.553                                                                    38584295.331   163262780.427                                  
C02  36940301.350   192357778.100                                                                    36940285.357   156306444.539                                  
C03  36984720.578   192589117.401                                                                    36984705.318   156494389.666                                  
C07  37155238.285   193477049.7901                                                                   37155221.113   157215931.005                                  
C08  38899939.953   202562176.320                                                                    38899937.416   164598368.398                                  
C09  38060246.278   198189680.228                                                                    38060251.227   161045376.222                                  
C10  37289282.904   194175117.345    37289282.940   150148496.589                                                                                                  
C12  22016672.004   114646580.416                                                                    22016668.234    93159719.405                                  
C19  22059672.485   114870555.933                                    22059670.645    86566888.652    22059665.284    93341635.511    22059666.267   115924345.528  
C20  23542647.504   122592829.182                                    23542647.325    92386414.832    23542642.554    99616587.789    23542642.715   123717558.084  
C36  22857775.117   119026216.137                                    22857785.910    89699025.840    22857779.638    96718763.073    22857771.632   120118635.587  
> 2026 06 07 16 33 48.0000000  0 11                     
C01  38584284.038   200918580.716                                                                    38584279.142   163262711.509                                  
C02  36940503.699   192358831.880                                                                    36940487.688   156307300.840                                  
C03  36984876.575   192589927.997                                                                    36984860.957   156495048.385                                  
C07  37155595.541   193478889.976                                                                    37155574.866   157217426.262                                  
C08  38894760.992   202535210.205                                                                    38894758.294   164576456.192                                  
C09  38065433.816   198216694.235                                                                                                                                  
C10  37289701.307   194177295.728    37289700.968   150150181.073                                                                                                  
C12  22021999.546   114674320.641                                                                    22021995.061    93182260.601                                  
C19  22060170.692   114873150.136                                    22060169.244    86568843.676    22060163.473    93343743.539    22060164.152   115926963.579  
C20  23550490.414   122633667.249                                    23550491.129    92417190.591    23550485.179    99649772.045    23550486.001   123758770.919  
C36  22854552.582   119009435.797                                    22854562.499    89686380.136    22854556.888    96705127.691    22854549.508   120101701.296  
> 2026 06 07 16 34 03.0000000  0 11                     
C01  38584265.937   200918486.301                                                                    38584261.112   163262634.765                                  
C02  36940704.279   192359876.395                                                                    36940688.250   156308149.601                                  
C03  36985030.785   192590729.123                                                                    36985014.685   156495699.382                                  
C07  37155944.809   193480704.193                                                                                                                                  
C08  38889580.906   202508240.623                                                                    38889578.690   164554541.197                                  
C09  38070623.731   198243719.791                                                                                                                                  
C10  37290114.725   194179447.336    37290113.956   150151844.798                                                                                                  
C12  22027345.314   114702154.483                                                                    22027341.312    93204877.832                                  
C19  22060691.717   114875860.447                                    22060689.948    86570886.173    22060684.283    93345945.877    22060684.623   115929698.731  
C20  23558345.673   122674569.108                                    23558345.619    92448014.361    23558340.848    99683008.129    23558341.652   123800048.024  
C36  22851338.802   118992702.400                                    22851348.469    89673769.794    22851343.073    96691530.440    22851336.354   120084814.346  
> 2026 06 07 16 34 18.0000000  0 11                     
C01  38584254.983   200918429.210                                                                    38584250.230   163262588.369                                  
C02  36940912.060   192360958.554                                                                    36940895.995   156309028.935                                  
C03  36985192.142   192591567.707                                                                    36985175.738   156496380.836                                  
C07  37156298.133   193482539.395                                                                    37156291.932   157220420.4791                                 
C08  38884409.467   202481314.611                                                                    38884407.949   164532661.619                                  
C09  38075824.224   198270803.613                                                                    38075854.351   161111397.776                                  
C10  37290532.074   194181619.046    37290530.966   150153524.057                                                                                                  
C12  22032717.261   114730128.560                                                                    22032714.920    93227609.097                                  
C19  22061243.798   114878733.753                                    22061241.904    86573051.489    22061236.704    93348280.680    22061236.632   115932598.403  
C20  23566221.748   122715581.365                                    23566221.176    92478921.336    23566217.477    99716333.934    23566218.889   123841436.540  
C36  22848143.588   118976062.723                                    22848155.096    89661230.083    22848145.983    96678009.396    22848140.604   120068022.003  
> 2026 06 07 16 34 33.0000000  0 11                     
C01  38584239.508   200918348.664                                                                    38584234.845   163262522.939                                  
C02  36941115.373   192362017.582                                                                    36941099.577   156309889.519                                  
C03  36985348.960   192592382.956                                                                    36985332.467   156497043.283                                  
C07  37156643.595   193484334.790                                                                    37156635.804   157221879.422                                  
C08  38879234.992   202454371.420                                                                    38879234.366   164510768.103                                  
C09  38081023.859   198297884.929    38081028.755   153336558.3131                                   38081056.202   161133403.757                                  
C10  37290941.793   194183750.155    37290940.345   150155171.972                                                                                                  
C12  22038104.092   114758182.037                                                                    22038102.413    93250404.871                                  
C19  22061815.214   114881709.325                                    22061813.123    86575293.886    22061808.066    93350698.565    22061808.298   115935601.248  
C20  23574107.277   122756643.032                                    23574106.615    92509865.556    23574102.791    99749699.878    23574104.453   123882874.905  
C36  22844955.165   118959455.911                                    22844966.440    89648715.141    22844957.166    96664515.038    22844951.770   120051262.837  
> 2026 06 07 16 34 48.0000000  0 11                     
C01  38584218.083   200918237.221                                                                    38584213.491   163262432.436                                  
C02  36941312.862   192363046.067                                                                    36941296.994   156310725.250                                  
C03  36985499.811   192593167.424                                                                    36985483.175   156497680.807                                  
C07  37156978.728   193486082.960                                                                    37156970.848   157223299.894                                  
C08  38874056.263   202427403.764                                                                    38874056.227   164488854.715                                  
C09  38086222.691   198324956.184    38086227.712   153357491.513                                    38086254.569   161155401.438                                  
C10  37291342.130   194185833.134    37291340.790   150156782.679                                                                                                  
C12  22043504.629   114786307.304                                                                    22043502.556    93273258.987                                  
C19  22062404.588   114884779.751                                    22062401.907    86577607.759    22062397.136    93353193.535    22062398.530   115938699.805  
C20  23582000.864   122797746.431                                    23582000.882    92540841.221    23581995.825    99783099.754    23581995.932   123924355.343  
C36  22841771.495   118942874.491                                    22841781.376    89636219.354    22841772.835    96651041.355    22841767.814   120034529.265  
> 2026 06 07 16 35 03.0000000  0 11                     
C01  38584197.516   200918130.180                                                                    38584192.852   163262345.440                                  
C02  36941511.262   192364079.239                                                                    36941495.501   156311564.813                                  
C03  36985651.608   192593956.415                                                                    36985634.668   156498321.968                                  
C07  37157309.251   193487819.042                                                                    37157304.266   157224710.756                                  
C08  38868879.982   202400446.947                                                                    38868879.982   164466950.117                                  
C09  38091427.008   198352052.769    38091432.083   153378444.198                                    38091458.833   161177419.701                                  
C10  37291740.091   194187903.200    37291738.894   150158383.302                                                                                                  
C12  22048926.841   114814539.449                                                                    22048923.535    93296199.891                                  
C19  22063018.782   114887980.242                                    22063017.030    86580019.658    22063011.670    93355794.208    22063013.564   115941929.659  
C20  23589909.461   122838926.531                                    23589910.283    92571874.695    23589903.618    99816561.949    23589903.814   123965913.210  
C36  22838599.368   118926353.617                                    22838609.303    89623769.209    22838600.315    96637616.836    22838594.579   120017856.827  
> 2026 06 07 16 35 18.0000000  0 11                     
C01  38584174.018   200918007.737                                                                    38584169.301   163262245.919                                  
C02  36941706.767   192365097.337                                                                    36941691.006   156312392.101                                  
C03  36985800.403   192594730.098                                                                    36985783.267   156498950.674                                  
C07                                                                                                  37157632.162   157226095.770                                  
C08  38863701.932   202373481.305                                                                    38863701.503   164445038.352                                  
C09  38096632.076   198379154.450    38096637.812   153399400.884                                    38096665.527   161199442.082                                  
C10  37292132.012   194189940.661    37292130.869   150159958.754                                                                                                  
C12  22054365.493   114842858.574                                                                    22054360.668    93319211.439                                  
C19  22063654.329   114891291.104                                    22063653.346    86582514.764    22063646.824    93358484.564    22063649.916   115945270.933  
C20  23597829.280   122880163.440                                    23597829.959    92602950.961    23597821.775    99850070.268    23597823.330   124007528.393  
C36  22835435.050   118909873.487                                    22835443.162    89611349.823    22835437.963    96624225.421    22835428.706   120001225.506  
> 2026 06 07 16 35 33.0000000  0 11                     
C01  38584150.753   200917886.692                                                                    38584145.928   163262147.539                                  
C02  36941902.575   192366117.133                                                                    36941886.868   156313220.754                                  
C03  36985949.431   192595505.310                                                                    36985932.152   156499580.619                                  
C07                                                                                                  37157956.968   157227468.629                                  
C08  38858525.348   202346523.648                                                                    38858524.347   164423133.081                                  
C09  38101841.771   198406278.284    38101848.186   153420374.712                                    38101874.275   161221482.572                                  
C10  37292521.146   194191962.237    37292519.699   150161521.987                                    37292523.130   157796870.316                                  
C12  22059823.532   114871281.102                                                                    22059817.886    93342307.085                                  
C19  22064314.482   114894729.157                                    22064313.982    86585105.689    22064307.049    93361278.252    22064309.997   115948740.531  
C20  23605762.733   122921473.593                                    23605762.787    92634082.422    23605753.727    99883638.133    23605755.711   124049217.547  
C36  22832281.489   118893450.786                                    22832290.924    89598973.615    22832285.527    96610880.635    22832274.163   119984652.140  
> 2026 06 07 16 35 48.0000000  0 11                     
C01  38584133.831   200917798.857                                                                    38584128.989   163262076.239                                  
C02  36942104.853   192367170.453                                                                    36942089.217   156314076.687                                  
C03  36986104.838   192596313.816                                                                    36986087.380   156500237.605                                  
C07  37158279.075   193492918.1771                                                                   37158284.328   157228855.164                                  
C08  38853356.340   202319605.897                                                                    38853354.696   164401260.230                                  
C09  38107062.421   198433455.730    38107069.158   153441390.038                                    38107092.548   161243566.568                                  
C10  37292913.389   194193999.768    37292911.370   150163097.495                                    37292914.175   157798525.989                                  
C12  22065308.018   114899838.850                                                                    22065302.604    93365512.550                                  
C19  22065005.102   114898326.260                                    22065005.585    86587816.469    22064998.401    93364201.162    22065000.814   115952370.620  
C20  23613716.200   122962888.635                                    23613715.503    92665292.950    23613707.033    99917291.207    23613709.713   124091012.573  
C36  22829144.993   118877117.216                                    22829154.499    89586664.584    22829148.728    96597608.310    22829138.578   119968168.760  
> 2026 06 07 16 36 03.0000000  0 11                     
C01  38584118.428   200917718.719                                                                    38584113.782   163262011.104                                  
C02  36942308.649   192368231.816                                                                    36942292.996   156314939.112                                  
C03  36986261.728   192597130.132                                                                    36986244.145   156500900.993                                  
C07  37158606.650   193494615.862                                                                                                                                  
C08  38848189.887   202292702.651                                                                    38848187.582   164379399.199                                  
C09  38112289.003   198460661.380    38112294.953   153462427.169                                    38112317.129   161265673.375                                  
C10  37293303.649   194196027.625    37293300.932   150164665.584                                    37293302.916   157800173.864                                  
C12  22070812.838   114928506.062                                                                    22070809.086    93388807.010                                  
C19  22065721.293   114902056.858                                    22065722.490    86590627.872    22065714.556    93367232.564    22065716.897   115956135.423  
C20  23621684.801   123004382.830                                    23621683.550    92696563.092    23621676.814    99951008.580    23621678.886   124132887.401  
C36  22826020.648   118860847.225                                    22826029.511    89574403.479    22826023.739    96584387.676    22826014.876   119951749.573  
> 2026 06 07 16 36 18.0000000  0 11                     
C01  38584103.186   200917639.537                                                                    38584098.468   163261946.760                                  
C02  36942512.677   192369294.426                                                                    36942497.024   156315802.577                                  
C03  36986418.797   192597947.506                                                                    36986401.142   156501565.212                                  
C07  37158929.918   193496298.290                                                                                                                                  
C08  38843024.614   202265807.258                                                                    38843021.862   164357544.504                                  
C09  38117518.980   198487888.412    38117523.626   153483480.786                                    38117544.229   161287797.529                                  
C10  37293690.602   194198039.128    37293687.082   150166221.018                                    37293687.797   157801808.321                                  
C12  22076337.780   114957275.810                                                                    22076334.331    93412184.792                                  
C19  22066461.803   114905914.221                                    22066462.821    86593534.810    22066455.281    93370366.975    22066457.836   115960028.198  
C20  23629666.786   123045949.123                                    23629665.857    92727887.563    23629660.353    99984784.569    23629661.712   124174835.057  
C36  22822906.631   118844634.017                                    22822914.922    89562185.135    22822909.383    96571213.172    22822901.932   119935387.573  
> 2026 06 07 16 36 33.0000000  0 11                     
C01  38584083.101   200917535.108                                                                    38584078.455   163261861.888                                  
C02  36942711.917   192370332.061                                                                    36942696.282   156316645.722                                  
C03  36986571.041   192598739.723                                                                    36986553.243   156502208.955                                  
C07  37159245.289   193497939.009                                                                                                                                  
C08  38837855.838   202238893.505                                                                    38837852.747   164335674.878                                  
C09  38122746.849   198515110.450    38122750.619   153504530.545                                    38122767.398   161309917.716                                  
C10  37294069.354   194200008.085    37294064.976   150167743.513                                    37294064.565   157803408.207                                  
C12  22081877.069   114986121.754                                                                    22081873.085    93435624.437                                  
C19  22067221.880   114909872.140                                    22067221.612    86596517.510    22067215.375    93373583.111    22067218.663   115964022.469  
C20  23637657.224   123087561.033                                    23637658.153    92759246.427    23637651.952   100018597.655    23637652.971   124216828.772  
C36  22819798.565   118828451.262                                    22819805.837    89549989.747    22819802.174    96558063.368    22819794.098   119919056.328  
> 2026 06 07 16 36 48.0000000  0 11                     
C01  38584064.660   200917439.273                                                                    38584059.978   163261784.033                                  
C02  36942912.854   192371378.647                                                                    36942897.219   156317496.158                                  
C03  36986724.982   192599540.651                                                                    36986707.078   156502859.839                                  
C07  37159560.123   193499572.086                                                                    37159551.742   157234226.2611                                 
C08  38832690.475   202211995.365                                                                    38832687.241   164313817.992                                  
C09  38127979.077   198542361.207    38127983.026   153525602.488                                    38127994.105   161332023.6581                                 
C10  37294446.390   194201968.353    37294441.191   150169259.288                                    37294439.850   157805001.051                                  
C12  22087437.784   115015077.535                                                                    22087433.246    93459153.360                                  
C19  22068008.009   114913964.558                                    22068007.062    86599601.541    22068001.523    93376908.515    22068004.650   115968152.406  
C20  23645663.136   123129252.276                                    23645665.995    92790665.079    23645658.454   100052475.183    23645658.919   124258902.514  
C36  22816702.810   118812332.792                                    22816709.511    89537842.840    22816706.384    96544965.790    22816697.396   119902790.012  
> 2026 06 07 16 37 03.0000000  0 11                     
C01  38584048.632   200917355.652                                                                    38584043.735   163261716.098                                  
C02  36943116.204   192372437.704                                                                    36943100.586   156318356.724                                  
C03  36986881.336   192600353.882                                                                    36986863.235   156503520.656                                  
C07  37159875.422   193501201.040                                                                    37159864.486   157235549.924                                  
C08  38827529.169   202185116.479                                                                    38827525.917   164291976.750                                  
C09  38133216.738   198569644.273    38133222.170   153546699.483                                                                                                  
C10  37294822.176   194203923.408    37294816.208   150170771.105                                    37294814.474   157806589.742                                  
C12  22093020.639   115044146.581                                                                    22093015.921    93482774.286                                  
C19  22068820.693   114918194.993                                    22068819.978    86602789.602    22068814.117    93380346.071    22068816.172   115972421.609  
C20  23653685.005   123171026.108                                    23653688.132    92822145.968    23653680.877   100086419.836    23653681.627   124301059.634  
C36  22813620.279   118796282.032                                    22813628.212    89525746.944    22813623.638    96531923.278    22813615.668   119886592.009  
> 2026 06 07 16 37 18.0000000  0 11                     
C01  38584031.031   200917263.720                                                                    38584026.242   163261641.441                                  
C02  36943317.998   192373488.776                                                                    36943302.399   156319210.823                                  
C03  36987036.100   192601158.922                                                                    36987017.873   156504174.843                                  
C07  37160185.467   193502864.2421                                                                   37160172.744   157236853.667                                  
C08  38822367.791   202158236.527                                                                    38822364.449   164270134.587                                  
C09                                  38138464.066   153567805.584                                                                                                  
C10  37295192.887   194205852.834    37295186.347   150172263.055                                    37295184.292   157808157.556                                  
C12  22098620.666   115073308.174                                                                    22098616.306    93506470.439                                  
C19  22069655.587   114922542.976                                    22069655.408    86606066.272    22069649.690    93383879.182    22069650.762   115976809.507  
C20  23661718.971   123212861.843                                    23661721.080    92853673.514    23661715.290   100120414.773    23661716.076   124343279.201  
C36  22810546.360   118780278.494                                    22810553.597    89513686.600    22810550.273    96518919.140    22810543.394   119870441.621  
> 2026 06 07 16 37 33.0000000  0 11                     
C01  38584010.463   200917156.411                                                                    38584005.621   163261554.270                                  
C02  36943516.916   192374524.771                                                                    36943501.299   156320052.645                                  
C03  36987187.969   192601948.655                                                                    36987169.564   156504816.589                                  
C07  37160484.362   193504392.8931                                                                   37160475.321   157238131.525                                  
C08  38817204.715   202131348.438                                                                    38817200.802   164248285.862                                  
C09                                  38143707.588   153588915.172                                                                                                  
C10  37295557.004   194207749.512    37295550.196   150173729.653                                    37295547.748   157809698.744                                  
C12  22104236.631   115102555.044                                                                    22104232.950    93530235.909                                  
C19  22070511.620   114927001.418                                    22070510.423    86609426.202    22070506.188    93387502.060    22070506.760   115981308.912  
C20  23669763.820   123254752.141                                    23669765.374    92885242.163    23669758.459   100154454.016    23669759.853   124385553.804  
C36  22807480.018   118764314.933                                    22807488.666    89501656.415    22807486.844    96505947.460    22807478.713   119854331.634  
> 2026 06 07 16 37 48.0000000  0 11                     
C01  38583988.574   200917042.575                                                                    38583983.713   163261461.766                                  
C02  36943714.655   192375554.506                                                                    36943699.020   156320889.377                                  
C03  36987338.587   192602731.907                                                                    36987319.985   156505453.100                                  
C07                                                                                                  37160773.840   157239390.825                                  
C08  38812041.425   202104461.117                                                                    38812036.922   164226437.737                                  
C09                                  38148958.061   153610035.128                                                                                                  
C10  37295916.314   194209622.242    37295909.595   150175177.805                                    37295906.593   157811220.498                                  
C12  22109869.734   115131895.713                                                                    22109868.233    93554077.712                                  
C19  22071390.973   114931579.239                                    22071388.275    86612876.043    22071385.112    93391221.913    22071386.095   115985928.734  
C20  23677820.926   123296705.603                                    23677822.928    92916858.403    23677811.885   100188544.570    23677815.887   124427892.123  
C36  22804423.629   118748400.138                                    22804432.027    89489662.967    22804432.420    96493015.348    22804422.413   119838270.849  
> 2026 06 07 16 38 03.0000000  0 10                     
C01  38583969.668   200916944.013                                                                    38583964.897   163261381.674                                  
C02  36943915.378   192376599.856                                                                    36943899.778   156321738.814                                  
C03  36987492.099   192603530.599                                                                    36987473.444   156506102.089                                  
C07  37161079.043   193507543.239                                                                    37161071.842   157240649.339                                  
C08  38806882.138   202077596.535                                                                    38806877.278   164204608.075                                  
C10  37296274.981   194211492.887    37296268.620   150176624.302                                    37296265.100   157812740.522                                  
C12  22115526.959   115161352.225                                                                    22115526.155    93578013.496                                  
C19  22072297.272   114936298.241                                    22072295.342    86616432.277    22072291.196    93395056.472    22072292.215   115990690.995  
C20  23685894.276   123338743.830                                    23685896.331    92948538.547    23685884.591   100222704.012    23685888.308   124470315.969  
C36  22801380.981   118732555.981                                    22801385.448    89477722.775    22801388.736    96480140.554    22801380.123   119822281.233  
> 2026 06 07 16 38 18.0000000  0 11                     
C01  38583955.695   200916871.217                                                                    38583950.763   163261322.557                                  
C02  36944121.086   192377671.239                                                                    36944105.504   156322609.379                                  
C03  36987650.598   192604355.072                                                                    36987631.817   156506772.099                                  
C07  37161379.261   193509049.4881                                                                   37161371.130   157241915.485                                  
C08  38801729.069   202050765.136                                                                    38801724.477   164182805.380                                  
C09                                  38159488.812   153652452.3761                                                                                                 
C10  37296635.078   194213371.866    37296629.145   150178077.252                                    37296625.607   157814267.332                                  
C12  22121208.290   115190934.529                                                                    22121206.932    93602051.575                                  
C19  22073232.697   114941168.861                                    22073231.500    86620102.807    22073226.711    93399014.270    22073227.712   115995606.305  
C20  23693985.816   123380877.043                                    23693987.067    92980290.265    23693977.936   100256940.625    23693980.027   124512835.686  
C36  22798354.201   118716792.788                                    22798357.846    89465843.676    22798360.008    96467331.532    22798351.431   119806373.283  
