     3.04           OBSERVATION DATA    M: Mixed            RINEX VERSION / TYPE
CONVBIN EX 2.5.0                        20260627 164937 UTC PGM / RUN BY / DATE 
format: RTCM 3                                              COMMENT             
log: C:\Users\jinyu\Desktop\540423494727\2026-06-08\1.rtcm3 COMMENT             
ROVER                                                       MARKER NAME         
                                                            MARKER NUMBER       
                                                            MARKER TYPE         
                                                            OBSERVER / AGENCY   
                    NONE                                    REC # / TYPE / VERS 
NONE                NONE                                    ANT # / TYPE        
  -492860.3329  5551481.2314  3092889.6323                  APPROX POSITION XYZ 
        0.0000        0.0000        0.0000                  ANTENNA: DELTA H/E/N
C    6 C2I L2I S2I C7I L7I S7I                              SYS / # / OBS TYPES 
  2026    06    07    17    00   18.0000000     GPS         TIME OF FIRST OBS   
  2026    06    07    18    00   03.0000000     GPS         TIME OF LAST OBS    
C L2I                                                       SYS / PHASE SHIFT   
C L7I                                                       SYS / PHASE SHIFT   
  0                                                         GLONASS SLOT / FRQ #
 C1C    0.000 C1P    0.000 C2C    0.000 C2P    0.000        GLONASS COD/PHS/BIS 
                                                            END OF HEADER       
> 2026 06 07 17 00 18.0000000  0 13                     
C01  38582162.038   200907540.102          40.000                                                  
C02  36961861.077   192470049.907          41.000                                                  
C03  37001066.892   192674235.163          42.000                                                  
C07  37175104.261   193580527.609          33.000                                                  
C08  38355126.523   199725211.635          45.000                                                  
C09  38634669.126   201180806.800          33.000    38634677.613   155565788.528          38.000  
C10                                                  37314548.809   150250203.694          38.000  
C12  22691289.912   118159482.595          40.000                                                  
C19  22249106.018   115856981.636          50.000                                                  
C20  24451758.438   127326786.261          48.000                                                  
C22  23574002.064   122756002.764          30.000                                                  
C36  22570957.356   117532851.185          39.000                                                  
C39  26358757.259   137256812.472          39.000                                                  
> 2026 06 07 17 00 33.0000000  0 13                     
C01  38582143.365   200907443.180          40.000                                                  
C02  36962066.231   192471118.371          41.000                                                  
C03  37001221.138   192675039.673          42.000                                                  
C07  37175127.455   193580652.579          32.000                                                  
C08  38350156.844   199699334.625          46.000                                                  
C09  38640199.392   201209577.223          33.000    38640201.518   155588035.552          37.000  
C10  37314599.557   194306910.883          29.000    37314601.540   150250418.126          38.000  
C12  22698517.682   118197114.978          44.000                                                  
C19  22252162.390   115872896.664          51.000                                                  
C20  24460829.540   127374023.863          46.000                                                  
C22                                                                                                
C36  22568800.869   117521624.054          39.000                                                  
C39  26352785.592   137225715.495          40.000                                                  
> 2026 06 07 17 00 48.0000000  0 13                     
C01  38582125.978   200907352.833          40.000                                                  
C02  36962272.690   192472193.630          40.000                                                  
C03  37001376.688   192675850.828          41.000                                                  
C07  37175149.487   193580769.085          32.000                                                  
C08  38345191.722   199673478.658          46.000                                                  
C09  38645734.536   201238365.921          31.000    38645728.979   155610296.685          37.000  
C10  37314652.682   194307176.898          31.000    37314652.056   150250623.841          38.000  
C12  22705762.141   118234834.295          43.000                                                  
C19  22255243.224   115888939.442          51.000                                                  
C20  24469911.221   127421313.685          48.000                                                  
C22                                                                                                
C36  22566655.443   117510450.544          36.000                                                  
C39  26346821.234   137194656.725          37.000                                                  
> 2026 06 07 17 01 03.0000000  0 12                     
C01  38582106.179   200907249.898          40.000                                                  
C02  36962476.754   192473256.482          41.000                                                  
C03  37001529.736   192676649.334          42.000                                                  
C07  37175166.606   193580857.696          31.000                                                  
C08  38340226.975   199647624.626          46.000                                                  
C09  38651269.126   201267153.610          31.000    38651256.082   155632557.029          37.000  
C10  37314698.426   194307412.489          32.000    37314696.818   150250805.941          37.000  
C12  22713016.982   118272621.031          37.000                                                  
C19  22258344.982   115905090.662          51.000                                                  
C20  24478999.192   127468636.238          47.000                                                  
C36                                                                                                
C39  26340859.181   137163617.031          35.000                                                  
> 2026 06 07 17 01 18.0000000  0 12                     
C01  38582082.807   200907128.408          39.000                                                  
C02  36962677.280   192474300.927          41.000                                                  
C03  37001679.228   192677429.312          41.000                                                  
C07  37175177.131   193580912.601          30.000                                                  
C08  38335261.334   199621766.589          46.000                                                  
C09  38656802.269   201295934.170          31.000    38656782.041   155654811.963          38.000  
C10  37314737.041   194307611.665          32.000    37314734.736   150250959.954          37.000  
C12  22720284.600   118310468.883          42.000                                                  
C19  22261466.325   115921344.230          50.000                                                  
C20  24488091.719   127515985.227          46.000                                                  
C36  22562382.870   117488191.7901         38.000                                                  
C39  26334900.004   137132590.276          36.000                                                  
> 2026 06 07 17 01 33.0000000  0 12                     
C01  38582064.205   200907031.862          40.000                                                  
C02  36962882.577   192475370.490          41.000                                                  
C03  37001833.491   192678234.195          41.000                                                  
C07                                                                                                
C08  38330303.216   199595948.136          46.000                                                  
C09  38662300.800   201324741.9921         30.000    38662315.024   155677095.061          38.000  
C10  37314776.889   194307817.916          31.000    37314774.137   150251119.481          37.000  
C12  22727574.357   118348421.427          46.000                                                  
C19  22264615.580   115937743.539          50.000                                                  
C20  24497197.720   127563403.882          46.000                                                  
C36  22560263.854   117477152.616          37.000                                                  
C39  26328952.121   137101620.025          32.000                                                  
> 2026 06 07 17 01 48.0000000  0 12                     
C01  38582040.725   200906909.593          40.000                                                  
C02  36963082.996   192476414.528          40.000                                                  
C03  37001982.841   192679013.411          41.000                                                  
C08  38325342.918   199570118.724          46.000                                                  
C09  38667835.212   201353544.662          30.000    38667845.558   155699367.092          38.000  
C10  37314807.588   194307980.609          30.000    37314805.301   150251245.216          38.000  
C12  22734873.621   118386427.589          46.000                                                  
C19  22267783.043   115954237.885          50.000                                                  
C20  24506307.723   127610841.332          48.000                                                  
C22                                                                                                
C36  22558146.661   117466134.517          32.000                                                  
C39  26323005.114   137070655.581          34.000                                                  
> 2026 06 07 17 02 03.0000000  0 12                     
C01  38582013.171   200906766.170          40.000                                                  
C02  36963279.430   192477437.543          41.000                                                  
C03  37002128.152   192679771.415          41.000                                                  
C08  38320381.548   199544282.929          46.000                                                  
C09  38673365.495   201382337.231          34.000    38673374.216   155721631.371          38.000  
C10  37314830.568   194308104.253          29.000    37314828.977   150251340.880          38.000  
C12  22742183.588   118424491.593          45.000                                                  
C19  22270969.644   115970831.601          50.000                                                  
C20  24515422.568   127658301.826          50.000                                                  
C22  23534315.821   122549440.6261         30.000                                                  
C36  22556033.720   117455141.785          35.000                                                  
C39  26317060.251   137039701.448          30.000                                                  
> 2026 06 07 17 02 18.0000000  0 12                     
C01  38581987.422   200906631.970          39.000                                                  
C02  36963477.562   192478469.968          40.000                                                  
C03  37002275.232   192680538.653          40.000                                                  
C08  38315424.664   199518471.233          46.000                                                  
C09  38678900.193   201411150.346          36.000    38678906.787   155743911.515          38.000  
C10  37314851.135   194308220.2331         29.000    37314851.063   150251429.834          39.000  
C12  22749510.817   118462643.668          46.000                                                  
C19  22274181.493   115987555.042          50.000                                                  
C20  24524547.564   127705815.472          50.000                                                  
C22  23528717.206   122520289.541          30.000                                                  
C36  22553931.751   117444204.690          39.000                                                  
C39  26311123.518   137008858.9931         33.000                                                  
> 2026 06 07 17 02 33.0000000  0 12                     
C01  38581963.191   200906505.747          39.000                                                  
C02  36963677.284   192479510.546          41.000                                                  
C03  37002423.741   192681313.848          40.000                                                  
C08  38310471.889   199492682.483          46.000                                                  
C09  38684438.071   201439982.457          36.000    38684442.932   155766206.327          37.000  
C10  37314873.257   194308325.386          32.000    37314871.345   150251511.141          39.000  
C12  22756854.360   118500882.295          44.000                                                  
C19  22277418.109   116004406.811          49.000                                                  
C20  24533682.083   127753380.712          50.000                                                  
C22  23523138.926   122491244.979          28.000                                                  
C36  22551841.933   117433321.925          41.000                                                  
C39  26305196.667   136977984.952          33.000                                                  
> 2026 06 07 17 02 48.0000000  0 12                     
C01  38581941.713   200906394.074          39.000                                                  
C02  36963879.830   192480565.785          40.000                                                  
C03  37002575.127   192682103.616          40.000                                                  
C08  38305524.725   199466923.281          46.000                                                  
C09  38689980.792   201468840.136          36.000    38689983.758   155788520.900          36.000  
C10  37314893.234   194308427.243          35.000    37314891.072   150251589.923          40.000  
C12  22764214.217   118539213.669          39.000                                                  
C19  22280680.171   116021393.327          47.000                                                  
C20  24542827.324   127801003.891          49.000                                                  
C22  23517582.714   122462229.8761         28.000                                                  
C36  22549764.427   117422499.923          42.000                                                  
C39  26299276.624   136947156.981          34.000                                                  
> 2026 06 07 17 03 03.0000000  0 13                     
C01  38581920.109   200906281.482          39.000                                                  
C02  36964082.286   192481620.283          40.000                                                  
C03  37002726.281   192682892.416          40.000                                                  
C08  38300580.473   199441178.255          46.000                                                  
C09  38695525.371   201497707.734          36.000    38695526.604   155810843.137          36.000  
C10  37314909.906   194308510.309          37.000    37314907.190   150251654.180          40.000  
C12  22771589.263   118577622.166          40.000                                                  
C19  22283964.408   116038498.997          47.000                                                  
C20  24551980.499   127848669.165          47.000                                                  
C22  23512046.873   122433398.1141         28.000                                                  
C27  25387805.638   132200982.306          28.000                                                  
C36  22547695.802   117411723.172          43.000                                                  
C39  26293362.388   136916359.434          32.000                                                  
> 2026 06 07 17 03 18.0000000  0 13                     
C01  38581899.685   200906175.081          39.000                                                  
C02  36964285.903   192482681.113          40.000                                                  
C03  37002878.615   192683687.357          39.000                                                  
C08  38295640.600   199415454.584          47.000                                                  
C09  38701073.417   201526592.354          36.000    38701073.042   155833178.589          38.000  
C10  37314924.541   194308581.730          37.000    37314921.110   150251709.389          41.000  
C12  22778980.624   118616114.644          37.000                                                  
C19  22287273.698   116055730.958          48.000                                                  
C20  24561143.734   127896383.429          48.000                                                  
C22                                                                                                
C27  25384261.961   132182483.171          31.000                                                  
C36  22545636.594   117400998.691          42.000                                                  
C39  26287454.425   136885599.598          32.000                                                  
> 2026 06 07 17 03 33.0000000  0 14                     
C01  38581878.617   200906065.516          39.000                                                  
C02  36964488.985   192483738.952          40.000                                                  
C03  37003030.359   192684479.132          40.000                                                  
C07                                                                                                
C08  38290703.353   199389742.980          48.000                                                  
C09  38706622.624   201555484.560          34.000    38706620.944   155855519.912          38.000  
C10  37314935.030   194308632.133          37.000    37314931.009   150251748.352          41.000  
C12  22786385.565   118654681.513          37.000                                                  
C19  22290605.341   116073079.590          46.000                                                  
C20  24570315.081   127944137.134          49.000                                                  
C22                                                                                                
C27  25380728.808   132164068.559          30.000                                                  
C36  22543585.176   117390316.904          42.000                                                  
C39  26281553.091   136854867.852          33.000                                                  
> 2026 06 07 17 03 48.0000000  0 13                     
C01  38581862.642   200905982.473          39.000                                                  
C02  36964697.194   192484823.446          40.000                                                  
C03  37003187.141   192685297.408          40.000                                                  
C07                                                                                                
C08  38285774.308   199364073.166          48.000                                                  
C09  38712178.211   201584413.881          32.000    38712175.798   155877889.817          37.000  
C10  37314946.824   194308691.225          36.000    37314942.642   150251794.050          41.000  
C12  22793810.841   118693352.119          37.000                                                  
C19  22293965.039   116090574.477          44.000                                                  
C20  24579498.955   127991959.596          47.000                                                  
C22                                                                                                
C36  22541548.090   117379707.466          42.000                                                  
C39  26275663.193   136824193.876          34.000                                                  
> 2026 06 07 17 04 03.0000000  0 13                     
C01  38581839.895   200905864.025          39.000                                                  
C02  36964898.596   192485872.701          41.000                                                  
C03  37003337.223   192686080.264          39.000                                                  
C07                                                                                                
C08  38280841.332   199338383.370          47.000                                                  
C09  38717729.223   201613318.169          32.000    38717725.988   155900240.448          34.000  
C10  37314947.914   194308697.090          34.000    37314944.125   150251798.570          42.000  
C12  22801245.980   118732064.405          40.000                                                  
C19  22297340.801   116108153.585          44.000                                                  
C20  24588683.525   128039788.636          45.000                                                  
C22                                                                                                
C36  22539513.147   117369108.560          39.000                                                  
C39  26269772.151   136793515.918          31.000                                                  
> 2026 06 07 17 04 18.0000000  0 13                     
C01  38581814.664   200905732.663          40.000                                                  
C02  36965097.550   192486909.127          40.000                                                  
C03  37003484.696   192686850.140          40.000                                                  
C07  37175095.809   193580504.6201         30.000                                                  
C08  38275908.391   199312696.122          46.000                                                  
C09  38723280.842   201642220.008          34.000    38723275.714   155922589.157          32.000  
C10  37314942.624   194308672.167          32.000    37314939.640   150251779.303          42.000  
C12  22808694.843   118770840.563          41.000                                                  
C19  22300736.916   116125839.271          43.000                                                  
C20  24597873.028   128087646.294          43.000                                                  
C22  23484660.648   122290781.916          33.000                                                  
C36  22537483.048   117358542.425          40.000                                                  
C39                                                                                                
> 2026 06 07 17 04 33.0000000  0 14                     
C01  38581793.382   200905622.008          40.000                                                  
C02  36965300.506   192487966.488          40.000                                                  
C03  37003636.226   192687640.737          39.000                                                  
C07  37175070.917   193580375.047          29.000                                                  
C08  38270981.866   199287045.176          46.000                                                  
C09  38728839.484   201671152.990          36.000    38728831.765   155944961.890          32.000  
C10  37314937.514   194308650.155          29.000    37314935.691   150251762.250          43.000  
C12                                                                                                
C19  22304159.871   116143665.071          44.000                                                  
C20  24607075.557   128135566.225          46.000                                                  
C22  23479238.829   122262550.771          34.000                                                  
C27  25366726.553   132091198.2901         30.000                                                  
C36  22535466.385   117348042.520          44.000                                                  
C39  26258027.110   136732462.9051         33.000                                                  
> 2026 06 07 17 04 48.0000000  0 14                     
C01  38581772.047   200905511.004          40.000                                                  
C02  36965503.463   192489023.629          40.000                                                  
C03  37003787.684   192688430.971          39.000                                                  
C07                                                                                                
C08  38266058.146   199261409.471          46.000                                                  
C09  38734400.056   201700095.803          37.000    38734390.853   155967342.240          35.000  
C10                                                  37314928.204   150251731.143          43.000  
C12  22823649.018   118848752.7181         41.000                                                  
C19  22307605.912   116161609.822          45.000                                                  
C20  24616285.912   128183526.934          45.000                                                  
C22  23473835.844   122234420.006          34.000                                                  
C27  25363259.265   132073145.244          31.000                                                  
C36  22533458.747   117337587.726          46.000                                                  
C39  26252151.079   136701886.058          33.000                                                  
> 2026 06 07 17 05 03.0000000  0 14                     
C01  38581742.455   200905357.032          39.000                                                  
C02  36965698.235   192490037.892          40.000                                                  
C03  37003930.939   192689178.242          39.000                                                  
C07                                                                                                
C08  38261129.530   199235746.418          46.000                                                  
C09  38739953.623   201729005.845          37.000    38739944.367   155989697.316          37.000  
C10                                                  37314908.977   150251653.037          42.000  
C12  22831134.065   118887735.020          46.000                                                  
C19  22311066.534   116179630.661          45.000                                                  
C20  24625496.500   128231485.501          47.000                                                  
C22  23468443.527   122206347.224          33.000                                                  
C27  25359800.662   132055122.454          29.000                                                  
C36  22531451.663   117327135.313          46.000                                                  
C39  26246272.152   136671297.729          29.000                                                  
> 2026 06 07 17 05 18.0000000  0 13                     
C01  38581716.313   200905220.919          39.000                                                  
C02  36965896.528   192491070.206          40.000                                                  
C03  37004077.644   192689943.373          38.000                                                  
C07                                                                                                
C08  38256207.561   199210116.999          46.000                                                  
C09  38745511.640   201757943.811          36.000    38745503.938   156012073.989          38.000  
C10                                                  37314889.571   150251574.948          41.000  
C12  22838637.304   118926810.833          47.000                                                  
C19  22314553.709   116197788.445          46.000                                                  
C20  24634718.274   128279502.595          48.000                                                  
C22  23463074.064   122178393.533          32.000                                                  
C36  22529456.461   117316746.101          45.000                                                  
C39  26240393.136   136640553.0771         32.000                                                  
> 2026 06 07 17 05 33.0000000  0 13                     
C01  38581697.015   200905120.644          39.000                                                  
C02  36966101.628   192492138.530          40.000                                                  
C03  37004231.282   192690744.240          38.000                                                  
C07                                                                                                
C08  38251295.599   199184539.251          46.000                                                  
C09  38751076.661   201786927.528          35.000    38751072.426   156034486.064          36.000  
C10                                                  37314873.453   150251510.824          41.000  
C12  22846161.646   118965997.990          47.000                                                  
C19  22318070.530   116216100.901          47.000                                                  
C20  24643953.807   128327595.835          47.000                                                  
C22  23457730.797   122150577.258          29.000                                                  
C36  22527477.395   117306437.865          45.000                                                  
C39  26234543.247   136610080.544          29.000                                                  
> 2026 06 07 17 05 48.0000000  0 13                     
C01  38581674.911   200905005.941          39.000                                                  
C02  36966303.995   192493192.562          40.000                                                  
C03  37004382.025   192691530.705          38.000                                                  
C07                                                                                                
C08  38246383.994   199158962.969          46.000                                                  
C09  38756639.788   201815906.819          34.000    38756637.787   156056894.632          33.000  
C10                                                  37314851.135   150251421.730          41.000  
C12  22853697.727   119005245.890          48.000                                                  
C19  22321607.774   116234517.712          47.000                                                  
C20  24653193.772   128375714.611          47.000                                                  
C22  23452404.345   122122848.050          30.000                                                  
C36  22525503.726   117296160.282          40.000                                                  
C39  26228693.269   136579697.1601         27.000                                                  
> 2026 06 07 17 06 03.0000000  0 13                     
C01  38581650.823   200904880.587          39.000                                                  
C02  36966504.342   192494235.984          40.000                                                  
C03  37004530.803   192692306.507          38.000                                                  
C07                                                                                                
C08  38241473.462   199133391.956          46.000                                                  
C09  38762202.540   201844885.197          32.000    38762200.879   156079302.554          32.000  
C10                                                  37314823.206   150251310.622          40.000  
C12  22861246.693   119044558.096          49.000                                                  
C19  22325165.300   116253042.445          46.000                                                  
C20  24662439.955   128423862.470          48.000                                                  
C22  23447096.834   122095210.108          34.000                                                  
C36  22523535.578   117285917.075          37.000                                                  
C39  26222849.455   136549272.933          32.000                                                  
> 2026 06 07 17 06 18.0000000  0 13                     
C01  38581625.985   200904751.119          39.000                                                  
C02  36966703.939   192495275.553          40.000                                                  
C03  37004678.847   192693078.151          37.000                                                  
C07  37174794.430   193578901.4961         29.000                                                  
C08  38236565.324   199107832.937          46.000                                                  
C09  38767766.543   201873869.149          33.000    38767765.846   156101714.749          34.000  
C10                                                  37314791.024   150251182.582          39.000  
C12  22868808.238   119083940.827          46.000                                                  
C19  22328744.734   116271681.578          46.000                                                  
C20  24671693.482   128472045.749          50.000                                                  
C22  23441808.604   122067670.158          35.000                                                  
C36  22521575.543   117275714.725          39.000                                                  
C39                                                                                                
> 2026 06 07 17 06 33.0000000  0 13                     
C01  38581602.720   200904630.115          39.000                                                  
C02  36966905.162   192496323.654          40.000                                                  
C03  37004828.536   192693858.236          38.000                                                  
C07  37174748.185   193578642.908          34.000                                                  
C08  38231661.921   199082298.497          46.000                                                  
C09  38773334.834   201902871.126          32.000    38773334.888   156124140.888          35.000  
C10  37314764.685   194307761.4911         29.000    37314756.947   150251047.285          38.000  
C12  22876386.348   119123406.452          46.000                                                  
C19  22332348.505   116290447.469          45.000                                                  
C20  24680956.194   128520276.669          50.000                                                  
C22  23436541.585   122040240.916          36.000                                                  
C36  22519627.498   117265565.398          43.000                                                  
C39                                                                                                
> 2026 06 07 17 06 48.0000000  0 13                     
C01  38581580.544   200904514.799          40.000                                                  
C02  36967107.547   192497377.605          40.000                                                  
C03  37004979.315   192694643.942          38.000                                                  
C07  37174697.008   193578375.369          36.000                                                  
C08  38226762.824   199056785.927          47.000                                                  
C09  38778906.825   201931888.274          33.000    38778907.575   156146578.893          38.000  
C10  37314725.998   194307551.483          29.000    37314720.620   150250902.702          37.000  
C12  22883980.611   119162951.925          47.000                                                  
C19  22335975.612   116309337.211          43.000                                                  
C20  24690226.965   128568552.148          48.000                                                  
C22  23431295.222   122012919.971          36.000                                                  
C36  22517688.888   117255466.443          44.000                                                  
C39                                                                                                
> 2026 06 07 17 07 03.0000000  0 13                     
C01  38581558.351   200904399.468          40.000                                                  
C02  36967309.914   192498431.648          39.000                                                  
C03  37005130.147   192695429.619          38.000                                                  
C07  37174642.811   193578093.083          36.000                                                  
C08  38221866.855   199031289.591          46.000                                                  
C09  38784482.067   201960914.772          36.000    38784482.407   156169024.021          38.000  
C10  37314690.528   194307346.724          30.000    37314680.843   150250744.272          37.000  
C12  22891589.223   119202571.267          46.000                                                  
C19  22339625.896   116328345.006          45.000                                                  
C20  24699505.115   128616866.224          49.000                                                  
C22  23426068.443   121985701.783          35.000                                                  
C36  22515758.586   117245412.075          44.000                                                  
C39  26199532.792   136427857.0621         29.000                                                  
> 2026 06 07 17 07 18.0000000  0 13                     
C01  38581532.477   200904264.498          40.000                                                  
C02  36967508.492   192499466.207          39.000                                                  
C03  37005277.174   192696195.649          38.000                                                  
C07  37174581.860   193577776.499          35.000                                                  
C08  38216969.760   199005790.048          44.000                                                  
C09  38790056.327   201989931.097          36.000    38790055.397   156191461.279          39.000  
C10  37314644.998   194307104.413          30.000    37314633.919   150250556.902          36.000  
C12  22899207.752   119242244.639          44.000                                                  
C19  22343295.676   116347451.200          46.000                                                  
C20  24708787.179   128665199.030          49.000                                                  
C22  23420857.550   121958566.886          34.000                                                  
C36  22513832.949   117235382.592          42.000                                                  
C39  26193717.765   136397567.332          29.000                                                  
> 2026 06 07 17 07 33.0000000  0 14                     
C01  38581508.532   200904139.548          39.000                                                  
C02  36967709.018   192500510.845          40.000                                                  
C03  37005426.023   192696971.570          38.000                                                  
C07  37174520.194   193577455.275          33.000                                                  
C08  38212076.989   198980316.864          44.000                                                  
C09  38795633.177   202018966.630          35.000    38795632.016   156213913.379          39.000  
C10  37314597.824   194306854.464          30.000    37314585.780   150250363.491          37.000  
C12  22906842.435   119282001.306          44.000                                                  
C19  22346989.488   116366685.132          44.000                                                  
C20  24718078.517   128713579.883          49.000                                                  
C22  23415667.510   121931545.281          32.000                                                  
C27  25326046.256   131879332.2551         29.000                                                  
C36  22511917.229   117225407.481          40.000                                                  
C39                                                                                                
> 2026 06 07 17 07 48.0000000  0 13                     
C01  38581484.320   200904013.720          39.000                                                  
C02  36967909.473   192501554.805          39.000                                                  
C03  37005574.711   192697746.645          37.000                                                  
C07  37174455.723   193577118.555          29.000                                                  
C08  38207187.220   198954859.282          44.000                                                  
C09  38801208.598   202048010.363          32.000    38801210.081   156236371.867          38.000  
C10  37314546.790   194306585.672          30.000    37314534.121   150250155.691          37.000  
C12  22914491.163   119321830.240          41.000                                                  
C19  22350704.601   116386035.771          42.000                                                  
C20  24727376.913   128761997.662          49.000                                                  
C22  23410496.429   121904626.149          30.000                                                  
C36  22510008.317   117215475.813          38.000                                                  
C39                                                                                                
> 2026 06 07 17 08 03.0000000  0 12                     
C01  38581463.770   200903907.135          39.000                                                  
C02  36968113.644   192502618.118          39.000                                                  
C03  37005727.080   192698540.955          37.000                                                  
C08  38202304.653   198929437.522          43.000                                                  
C09  38806788.987   202077082.432          32.000    38806793.401   156258852.276          37.000  
C10  37314495.881   194306318.469          28.000    37314482.926   150249949.059          37.000  
C12  22922157.207   119361751.295          40.000                                                  
C19  22354446.625   116405523.258          42.000                                                  
C20  24736685.477   128810472.239          47.000                                                  
C22  23405348.989   121877829.926          27.000                                                  
C36  22508112.485   117205607.557          42.000                                                  
C39                                                                                                
> 2026 06 07 17 08 18.0000000  0 13                     
C01  38581442.041   200903794.317          39.000                                                  
C02  36968316.637   192503675.326          40.000                                                  
C03  37005878.306   192699328.947          36.000                                                  
C07  37174332.355   193576516.6491         29.000                                                  
C08  38197424.301   198904026.145          43.000                                                  
C09  38812370.787   202106157.203          34.000    38812377.041   156281334.760          35.000  
C10                                                  37314426.924   150249723.852          36.000  
C12  22929835.329   119401738.567          41.000                                                  
C19  22358210.574   116425121.825          41.000                                                  
C20  24745999.598   128858977.693          45.000                                                  
C22                                                                                                
C36  22506225.338   117195776.989          44.000                                                  
C39  26170534.316   136276827.1511         31.000                                                  
> 2026 06 07 17 08 33.0000000  0 13                     
C01  38581415.381   200903656.064          39.000                                                  
C02  36968514.804   192504707.224          39.000                                                  
C03  37006024.617   192700091.498          37.000                                                  
C07  37174257.734   193576123.704          30.000                                                  
C08  38192542.252   198878606.095          43.000                                                  
C09  38817949.943   202135215.472          35.000    38817957.662   156303804.407          35.000  
C10                                                  37314362.292   150249465.207          35.000  
C12  22937523.351   119441772.746          42.000                                                  
C19  22361991.999   116444812.123          41.000                                                  
C20  24755316.525   128907494.709          46.000                                                  
C22                                                                                                
C36  22504341.496   117185965.022          43.000                                                  
C39  26164747.594   136246688.875          29.000                                                  
> 2026 06 07 17 08 48.0000000  0 13                     
C01  38581389.471   200903521.693          39.000                                                  
C02  36968713.776   192505743.138          39.000                                                  
C03  37006171.643   192700857.874          37.000                                                  
C07  37174176.680   193575691.0051         29.000                                                  
C08  38187664.491   198853206.651          44.000                                                  
C09  38823531.457   202164286.366          35.000    38823541.214   156326283.901          35.000  
C10                                                  37314294.354   150249195.861          32.000  
C12  22945227.438   119481882.952          46.000                                                  
C19  22365797.368   116464623.466          43.000                                                  
C20  24764641.582   128956052.337          47.000                                                  
C22  23390023.800   121797976.2191         31.000                                                  
C36  22502466.374   117176200.847          43.000                                                  
C39  26158963.624   136216585.186          31.000                                                  
> 2026 06 07 17 09 03.0000000  0 13                     
C01  38581365.437   200903397.098          39.000                                                  
C02  36968914.605   192506788.956          39.000                                                  
C03  37006320.618   192701634.013          37.000                                                  
C07                                                                                                
C08  38182792.269   198827833.858          45.000                                                  
C09  38829116.581   202193375.702          35.000    38829129.197   156348777.679          35.000  
C10                                                  37314224.004   150248920.364          28.000  
C12  22952946.391   119522074.700          42.000                                                  
C19  22369626.342   116484561.538          45.000                                                  
C20  24773974.894   129004656.086          45.000                                                  
C22  23384954.555   121771578.785          36.000                                                  
C36  22500601.206   117166490.225          42.000                                                  
C39  26153186.390   136186522.021          32.000                                                  
> 2026 06 07 17 09 18.0000000  0 13                     
C01  38581343.458   200903282.982          39.000                                                  
C02  36969117.490   192507845.385          39.000                                                  
C03  37006471.664   192702420.594          36.000                                                  
C07                                                                                                
C08  38177925.427   198802488.491          45.000                                                  
C09  38834705.386   202222484.142          35.000    38834721.361   156371286.243          35.000  
C10                                                                                                
C12  22960678.371   119562348.253          41.000                                                  
C19  22373479.171   116504626.858          45.000                                                  
C20  24783317.337   129053306.405          45.000                                                  
C22  23379907.271   121745296.545          38.000                                                  
C36  22498745.865   117156833.826          40.000                                                  
C39  26147417.519   136156500.014          30.000                                                  
> 2026 06 07 17 09 33.0000000  0 13                     
C01  38581321.211   200903167.421          39.000                                                  
C02  36969320.036   192508900.475          39.000                                                  
C03  37006622.282   192703205.620          36.000                                                  
C07                                                                                                
C08  38173061.550   198777158.654          46.000                                                  
C09  38840296.103   202251599.572          34.000    38840315.259   156393800.126          35.000  
C10                                                  37314077.210   150248327.9391         28.000  
C12  22968426.022   119602691.735          45.000                                                  
C19  22377354.677   116524807.365          46.000                                                  
C20  24792666.428   129101991.103          43.000                                                  
C22  23374879.786   121719117.755          38.000                                                  
C36  22496898.994   117147219.561          43.000                                                  
C39  26141655.920   136126507.385          33.000                                                  
> 2026 06 07 17 09 48.0000000  0 13                     
C01  38581299.089   200903052.410          39.000                                                  
C02  36969522.778   192509956.217          39.000                                                  
C03  37006773.061   192703991.210          36.000                                                  
C07                                                                                                
C08  38168200.801   198751846.473          45.000                                                  
C09  38845889.715   202280723.920          37.000    38845910.657   156416321.100          34.000  
C10                                                  37314005.144   150248018.668          33.000  
C12  22976187.253   119643106.710          45.000                                                  
C19  22381252.590   116545104.931          45.000                                                  
C20  24802022.702   129150711.887          44.000                                                  
C22  23369872.474   121693044.631          36.000                                                  
C36  22495062.452   117137649.274          41.000                                                  
C39  26135901.166   136096545.980          34.000                                                  
> 2026 06 07 17 10 03.0000000  0 13                     
C01  38581275.824   200902931.418          39.000                                                  
C02  36969724.340   192511006.092          39.000                                                  
C03  37006922.732   192704770.760          35.000                                                  
C07                                                                                                
C08  38163341.749   198726545.452          45.000                                                  
C09  38851484.578   202309850.652          39.000    38851505.770   156438843.881          32.000  
C10                                                  37313924.430   150247691.115          35.000  
C12  22983960.671   119683586.401          45.000                                                  
C19  22385171.713   116565512.830          46.000                                                  
C20  24811385.248   129199462.007          45.000                                                  
C22  23364884.176   121667070.970          35.000                                                  
C36  22493232.807   117128116.485          38.000                                                  
C39  26130151.611   136066609.273          36.000                                                  
> 2026 06 07 17 10 18.0000000  0 13                     
C01  38581251.593   200902805.439          39.000                                                  
C02  36969925.027   192512051.090          39.000                                                  
C03  37007071.402   192705545.225          36.000                                                  
C07                                                                                                
C08  38158485.127   198701256.562          47.000                                                  
C09  38857080.226   202338980.609          39.000    38857100.275   156461369.075          31.000  
C10                                                  37313839.444   150247345.889          37.000  
C12  22991747.384   119724131.455          47.000                                                  
C19  22389112.404   116586031.913          46.000                                                  
C20  24820752.529   129248242.045          43.000                                                  
C22  23359914.979   121641197.804          34.000                                                  
C36                                                                                                
C39  26124408.078   136036698.219          37.000                                                  
> 2026 06 07 17 10 33.0000000  0 13                     
C01  38581223.914   200902661.385          39.000                                                  
C02  36970122.248   192513078.129          39.000                                                  
C03  37007216.695   192706301.597          36.000                                                  
C07                                                                                                
C08  38153628.809   198675966.899          47.000                                                  
C09  38862673.731   202368100.555          39.000    38862691.082   156483886.549          33.000  
C10                                                  37313747.544   150246973.098          38.000  
C12  22999544.336   119764728.713          47.000                                                  
C19  22393071.715   116606648.959          45.000                                                  
C20  24830123.134   129297038.733          43.000                                                  
C22  23354962.955   121615412.371          34.000                                                  
C36  22489611.989   117109355.7781         35.000                                                  
C39  26118666.511   136006799.740          34.000                                                  
> 2026 06 07 17 10 48.0000000  0 14                     
C01  38581196.968   200902521.117          39.000                                                  
C02  36970320.272   192514109.091          38.000                                                  
C03  37007362.739   192707061.712          36.000                                                  
C07  37173465.332   193571993.5991         30.000                                                  
C08  38148776.369   198650698.389          45.000                                                  
C09  38868269.326   202397232.429          38.000    38868282.817   156506413.164          36.000  
C10                                                  37313652.767   150246589.439          39.000  
C12  23007355.028   119805399.607          47.000                                                  
C19  22397053.934   116627385.656          46.000                                                  
C20  24839501.995   129345873.591          46.000                                                  
C22  23350032.766   121589736.728          31.000                                                  
C30  25248277.820   131474393.737          37.000                                                  
C36  22487796.532   117099933.042          36.000                                                  
C39  26112930.662   135976935.489          33.000                                                  
> 2026 06 07 17 11 03.0000000  0 14                     
C01  38581170.915   200902385.516          38.000                                                  
C02  36970519.208   192515144.804          39.000                                                  
C03  37007509.622   192707826.444          36.000                                                  
C07  37173356.563   193571458.633          30.000                                                  
C08  38143927.502   198625452.037          45.000                                                  
C09  38873866.387   202426376.864          34.000    38873876.893   156528949.494          36.000  
C10                                                  37313555.452   150246195.718          40.000  
C12  23015179.623   119846144.838          47.000                                                  
C19  22401059.794   116648242.762          48.000                                                  
C20  24848888.432   129394747.320          47.000                                                  
C22                                                                                                
C30  25241277.935   131437945.367          38.000                                                  
C36  22485992.297   117090558.165          31.000                                                  
C39                                                                                                
> 2026 06 07 17 11 18.0000000  0 14                     
C01  38581145.845   200902254.977          39.000                                                  
C02  36970719.180   192516185.723          39.000                                                  
C03  37007657.506   192708596.195          36.000                                                  
C07  37173252.583   193570914.493          31.000                                                  
C08  38139082.870   198600228.215          47.000                                                  
C09  38879464.108   202455534.119          32.000    38879473.847   156551495.846          37.000  
C10                                                  37313455.582   150245792.261          41.000  
C12  23023017.727   119886964.435          44.000                                                  
C19  22405089.259   116669220.569          49.000                                                  
C20  24858281.641   129443659.988          47.000                                                  
C22                                                                                                
C30  25234278.745   131401500.340          41.000                                                  
C36  22484199.640   117081231.249          36.000                                                  
C39                                                                                                
> 2026 06 07 17 11 33.0000000  0 15                     
C01  38581122.275   200902132.636          39.000                                                  
C02  36970920.743   192517234.911          39.000                                                  
C03  37007806.909   192709374.056          35.000                                                  
C07  37173147.674   193570364.229          31.000                                                  
C08  38134243.671   198575030.109          47.000                                                  
C09  38885065.189   202484707.422          33.000    38885074.552   156574054.529          38.000  
C10  37313350.137   194300418.9461         29.000    37313353.729   150245381.433          40.000  
C12  23030870.359   119927861.240          43.000                                                  
C19  22409141.614   116690321.928          46.000                                                  
C20  24867682.463   129492614.353          47.000                                                  
C22  23335362.638   121513389.8781         33.000                                                  
C27  25275052.211   131613826.2511         29.000                                                  
C30  25227280.664   131365062.062          42.000                                                  
C36  22482417.688   117071955.228          36.000                                                  
C39  26095808.367   135887712.0001         30.000                                                  
> 2026 06 07 17 11 48.0000000  0 14                     
C01  38581098.081   200902006.854          38.000                                                  
C02  36971121.662   192518280.836          39.000                                                  
C03  37007955.705   192710148.585          36.000                                                  
C07  37173039.317   193569796.379          29.000                                                  
C08  38129407.491   198549846.245          47.000                                                  
C09  38890667.396   202513884.968          34.000    38890676.473   156596616.478          39.000  
C10  37313245.157   194299866.583          31.000    37313247.658   150244954.304          40.000  
C12  23038736.875   119968823.455          45.000                                                  
C19  22413214.911   116711535.116          45.000                                                  
C20  24877089.503   129541598.656          48.000                                                  
C22  23330516.755   121488154.921          34.000                                                  
C30  25220281.493   131328619.249          45.000                                                  
C36                                                                                                
C39  26090055.900   135857746.0681         28.000                                                  
> 2026 06 07 17 12 03.0000000  0 14                     
C01  38581073.332   200901878.185          39.000                                                  
C02  36971322.027   192519323.889          39.000                                                  
C03  37008103.964   192710919.961          35.000                                                  
C07                                                                                                
C08  38124574.153   198524677.181          47.000                                                  
C09  38896270.907   202543067.003          34.000    38896279.359   156619181.890          39.000  
C10  37313135.459   194299293.531          33.000    37313137.567   150244511.247          40.000  
C12  23046616.685   120009851.345          46.000                                                  
C19  22417310.223   116732860.489          46.000                                                  
C20  24886502.529   129590613.031          48.000                                                  
C22  23325690.672   121463023.967          34.000                                                  
C30  25213281.857   131292172.582          48.000                                                  
C36  22478868.149   117053360.7791         37.000                                                  
C39                                                                                                
> 2026 06 07 17 12 18.0000000  0 14                     
C01  38581045.653   200901734.012          39.000                                                  
C02  36971519.462   192520351.620          39.000                                                  
C03  37008249.346   192711675.848          36.000                                                  
C07                                                                                                
C08  38119741.279   198499510.389          47.000                                                  
C09  38901872.613   202572241.156          30.000    38901880.690   156641741.144          37.000  
C10  37313019.935   194298687.351          36.000    37313021.043   150244042.517          40.000  
C12  23054505.966   120050931.932          45.000                                                  
C19  22421425.173   116754285.378          48.000                                                  
C20  24895918.950   129639644.624          48.000                                                  
C22  23320882.690   121437984.797          36.000                                                  
C30  25206279.523   131255709.737          48.000                                                  
C36  22477108.068   117044190.636          40.000                                                  
C39                                                                                                
> 2026 06 07 17 12 33.0000000  0 14                     
C01  38581025.568   200901629.475          39.000                                                  
C02  36971724.491   192521419.008          38.000                                                  
C03  37008402.323   192712471.345          35.000                                                  
C07                                                                                                
C08  38114919.484   198474401.101          47.000                                                  
C09                                                  38907490.831   156664336.847          36.000  
C10  37312908.719   194298103.153          37.000    37312908.897   150243590.776          39.000  
C12  23062415.653   120092120.133          46.000                                                  
C19  22425568.857   116775864.649          46.000                                                  
C20  24905348.916   129688748.297          47.000                                                  
C22  23316103.351   121413092.696          37.000                                                  
C30  25199284.980   131219286.198          47.000                                                  
C36  22475361.782   117035102.538          41.000                                                  
C39                                                                                                
> 2026 06 07 17 12 48.0000000  0 14                     
C01  38581002.678   200901510.268          39.000                                                  
C02  36971926.733   192522471.807          38.000                                                  
C03  37008552.458   192713252.058          35.000                                                  
C07                                                                                                
C08  38110098.100   198449295.054          46.000                                                  
C09  38913089.625   202630650.8441         29.000    38913099.703   156686926.705          35.000  
C10  37312791.105   194297486.615          38.000    37312790.676   150243114.048          40.000  
C12  23070335.829   120133361.372          47.000                                                  
C19  22429731.749   116797543.782          47.000                                                  
C20  24914782.009   129737869.387          45.000                                                  
C22  23311341.775   121388293.550          38.000                                                  
C30  25192287.667   131182847.959          46.000                                                  
C36  22473620.893   117026042.035          43.000                                                  
C39                                                                                                
> 2026 06 07 17 13 03.0000000  0 14                     
C01  38580979.555   200901390.032          39.000                                                  
C02  36972128.832   192523523.769          39.000                                                  
C03  37008702.308   192714031.754          35.000                                                  
C07                                                                                                
C08  38105279.879   198424205.998          46.000                                                  
C09  38918695.566   202659870.820          28.000    38918709.790   156709521.327          33.000  
C10  37312669.613   194296851.433          38.000    37312668.970   150242622.894          40.000  
C12  23078269.425   120174669.097          49.000                                                  
C19  22433917.014   116819336.454          47.000                                                  
C20  24924221.463   129787021.440          46.000                                                  
C22  23306600.498   121363601.324          37.000                                                  
C30  25185290.051   131146409.018          46.000                                                  
C36  22471888.348   117017022.712          43.000                                                  
C39  26061610.059   135709722.528          33.000                                                  
> 2026 06 07 17 13 18.0000000  0 14                     
C01  38580955.718   200901266.381          38.000                                                  
C02  36972330.287   192524572.390          39.000                                                  
C03  37008851.622   192714807.975          36.000                                                  
C07                                                                                                
C08  38100464.499   198399131.580          46.000                                                  
C09  38924351.701   202689318.6311         28.000    38924321.235   156732118.847          34.000  
C10  37312543.744   194296195.204          38.000    37312543.118   150242115.463          40.000  
C12  23086215.280   120216040.587          49.000                                                  
C19  22438122.846   116841239.947          45.000                                                  
C20  24933666.242   129836201.709          46.000                                                  
C22  23301879.073   121339013.725          37.000                                                  
C30  25178291.701   131109967.251          45.000                                                  
C36  22470163.576   117008042.016          44.000                                                  
C39  26055936.216   135680178.873          36.000                                                  
> 2026 06 07 17 13 33.0000000  0 14                     
C01  38580930.469   200901135.008          39.000                                                  
C02  36972530.331   192525613.387          39.000                                                  
C03  37008999.416   192715576.409          36.000                                                  
C07                                                                                                
C08  38095650.923   198374067.589          46.000                                                  
C09  38929979.622   202718586.620          29.000    38929933.251   156754715.810          36.000  
C10  37312412.907   194295513.573          39.000    37312412.281   150241588.427          40.000  
C12  23094172.159   120257471.235          49.000                                                  
C19  22442348.816   116863249.769          44.000                                                  
C20  24943114.560   129885405.523          44.000                                                  
C22  23297176.804   121314526.583          33.000                                                  
C30  25171291.619   131073518.622          45.000                                                  
C36  22468445.059   116999095.567          41.000                                                  
C39  26050265.928   135650657.754          36.000                                                  
> 2026 06 07 17 13 48.0000000  0 14                     
C01  38580903.255   200900993.635          39.000                                                  
C02  36972728.409   192526644.413          40.000                                                  
C03  37009145.228   192716334.738          35.000                                                  
C07                                                                                                
C08  38090838.867   198349011.745          46.000                                                  
C09  38935592.943   202747806.660          29.000    38935544.947   156777310.437          37.000  
C10  37312276.781   194294804.298          39.000    37312276.084   150241039.964          40.000  
C12  23102139.456   120298958.463          47.000                                                  
C19  22446595.854   116885363.556          45.000                                                  
C20  24952566.772   129934630.346          45.000                                                  
C22  23292494.244   121290137.878          30.000                                                  
C30  25164290.178   131037061.150          45.000                                                  
C36  22466732.563   116990180.944          43.000                                                  
C39  26044599.411   135621156.841          35.000                                                  
> 2026 06 07 17 14 03.0000000  0 14                     
C01  38580878.077   200900862.733          39.000                                                  
C02  36972928.524   192527686.076          39.000                                                  
C03  37009293.058   192717103.466          36.000                                                  
C07                                                                                                
C08  38086032.600   198323984.677          47.000                                                  
C09  38941162.896   202776918.6591         30.000    38941159.966   156799918.363          37.000  
C10  37312139.421   194294087.933          39.000    37312138.528   150240486.021          41.000  
C12  23110121.012   120340522.491          46.000                                                  
C19  22450866.568   116907601.664          45.000                                                  
C20  24962027.384   129983896.368          44.000                                                  
C22  23287835.433   121265868.206          33.000                                                  
C30  25157291.114   131000615.667          45.000                                                  
C36  22465031.075   116981318.620          46.000                                                  
C39  26038940.952   135591696.485          33.000                                                  
> 2026 06 07 17 14 18.0000000  0 14                     
C01  38580853.722   200900735.905          39.000                                                  
C02  36973129.426   192528731.865          39.000                                                  
C03  37009441.693   192717876.261          36.000                                                  
C07                                                                                                
C08  38081230.854   198298979.990          47.000                                                  
C09  38946775.306   202805989.5301         31.000    38946776.807   156822534.631          36.000  
C10  37311999.471   194293357.990          39.000    37311998.417   150239921.611          41.000  
C12  23118115.917   120382156.706          46.000                                                  
C19  22455158.994   116929957.385          45.000                                                  
C20  24971495.714   130033196.970          46.000                                                  
C22  23283197.867   121241711.562          33.000                                                  
C30  25150293.122   130964175.993          47.000                                                  
C36  22463338.324   116972502.056          46.000                                                  
C39  26033289.052   135562270.427          34.000                                                  
> 2026 06 07 17 14 33.0000000  0 14                     
C01  38580827.919   200900601.691          39.000                                                  
C02  36973328.951   192529770.329          39.000                                                  
C03  37009588.951   192718641.590          36.000                                                  
C07                                                                                                
C08  38076431.431   198273986.309          48.000                                                  
C09  38952397.312   202835236.630          34.000    38952393.774   156845150.346          36.000  
C10  37311854.804   194292603.086          39.000    37311853.588   150239337.867          43.000  
C12  23126122.347   120423849.286          46.000                                                  
C19  22459472.326   116952419.171          46.000                                                  
C20  24980968.405   130082520.383          46.000                                                  
C22  23278579.582   121217656.556          30.000                                                  
C30  25143294.398   130927730.955          47.000                                                  
C36  22461651.757   116963719.684          46.000                                                  
C39  26027641.940   135532866.915          34.000                                                  
> 2026 06 07 17 14 48.0000000  0 14                     
C01  38580800.847   200900460.682          39.000                                                  
C02  36973527.154   192530802.140          39.000                                                  
C03  37009734.834   192719400.076          36.000                                                  
C07  37171513.105   193561819.5411         30.000                                                  
C08  38071634.295   198249004.361          48.000                                                  
C09  38958013.474   202864483.512          35.000    38958010.740   156867765.800          37.000  
C10  37311705.222   194291823.812          38.000    37311704.239   150238735.299          43.000  
C12  23134140.446   120465600.618          46.000                                                  
C19  22463806.707   116974987.509          47.000                                                  
C20  24990444.973   130131866.908          45.000                                                  
C22                                                                                                
C30  25136294.673   130891281.543          47.000                                                  
C36  22459971.908   116954971.968          46.000                                                  
C39  26021998.742   135503486.654          31.000                                                  
> 2026 06 07 17 15 03.0000000  0 14                     
C01  38580772.936   200900315.459          38.000                                                  
C02  36973724.625   192531829.860          40.000                                                  
C03  37009879.805   192720154.288          36.000                                                  
C07  37171365.704   193561048.735          33.000                                                  
C08  38066839.768   198224036.762          47.000                                                  
C09  38963629.672   202893732.629          35.000    38963628.207   156890383.066          37.000  
C10  37311551.173   194291022.741          38.000    37311550.744   150238115.858          43.000  
C12  23142170.374   120507413.036          46.000                                                  
C19  22468161.674   116997664.728          47.000                                                  
C20  24999926.134   130181238.855          43.000                                                  
C22                                                                                                
C30  25129294.394   130854830.550          48.000                                                  
C36  22458298.938   116946261.467          45.000                                                  
C39  26016360.011   135474132.249          32.000                                                  
> 2026 06 07 17 15 18.0000000  0 14                     
C01  38580748.348   200900187.610          38.000                                                  
C02  36973925.383   192532874.968          40.000                                                  
C03  37010028.154   192720925.816          37.000                                                  
C07  37171218.445   193560281.310          34.000                                                  
C08  38062052.032   198199105.139          46.000                                                  
C09  38969250.302   202923005.416          36.000    38969250.141   156913018.586          36.000  
C10  37311396.999   194290221.443          38.000    37311397.160   150237496.246          43.000  
C12  23150215.205   120549307.666          42.000                                                  
C19  22472542.194   117020472.213          48.000                                                  
C20  25009416.890   130230657.498          44.000                                                  
C22                                                                                                
C30  25122298.028   130818399.856          47.000                                                  
C36  22456637.351   116937609.559          43.000                                                  
C39  26010731.805   135444825.138          37.000                                                  
> 2026 06 07 17 15 33.0000000  0 14                     
C01  38580725.136   200900066.873          39.000                                                  
C02  36974127.625   192533927.299          40.000                                                  
C03  37010177.861   192721704.296          36.000                                                  
C07  37171069.543   193559507.072          35.000                                                  
C08  38057269.066   198174199.333          46.000                                                  
C09  38974873.701   202952291.588          36.000    38974874.648   156935664.489          36.000  
C10  37311241.003   194289409.660          39.000    37311241.449   150236868.546          43.000  
C12  23158272.633   120591274.019          40.000                                                  
C19  22476945.442   117043399.582          47.000                                                  
C20  25018914.919   130280112.261          44.000                                                  
C22  23260316.029   121122571.4991         33.000                                                  
C30  25115303.717   130781979.539          48.000                                                  
C36  22454985.074   116929005.936          42.000                                                  
C39  26005112.229   135415554.942          39.000                                                  
> 2026 06 07 17 15 48.0000000  0 14                     
C01  38580699.262   200899932.229          39.000                                                  
C02  36974327.133   192534965.761          40.000                                                  
C03  37010324.851   192722468.825          36.000                                                  
C07  37170915.119   193558705.007          35.000                                                  
C08  38052486.922   198149298.404          46.000                                                  
C09  38980495.725   202981569.966          38.000    38980497.833   156958304.398          36.000  
C10  37311079.091   194288566.383          39.000    37311079.574   150236216.496          43.000  
C12  23166341.051   120633290.926          43.000                                                  
C19  22481367.150   117066425.580          46.000                                                  
C20  25028415.682   130329581.900          45.000                                                  
C22  23255801.939   121099064.289          36.000                                                  
C30  25108307.727   130745548.892          47.000                                                  
C36  22453337.801   116920429.467          43.000                                                  
C39  25999495.566   135386300.794          39.000                                                  
> 2026 06 07 17 16 03.0000000  0 14                     
C01  38580675.317   200899807.640          39.000                                                  
C02  36974528.624   192536014.390          40.000                                                  
C03  37010473.700   192723243.417          36.000                                                  
C07  37170759.980   193557899.208          36.000                                                  
C08  38047710.551   198124426.352          46.000                                                  
C09  38986121.233   203010864.384          39.000    38986124.253   156980956.727          37.000  
C10  37310915.679   194287715.636          39.000    37310916.126   150235558.651          42.000  
C12  23174424.604   120675382.022          45.000                                                  
C19  22485812.552   117089574.065          46.000                                                  
C20  25037922.985   130379090.120          45.000                                                  
C22  23251310.542   121075677.314          37.000                                                  
C30  25101314.130   130709132.172          46.000                                                  
C36  22451700.891   116911904.011          43.000                                                  
C39  25993886.587   135357086.593          36.000                                                  
> 2026 06 07 17 16 18.0000000  0 14                     
C01  38580652.248   200899687.552          38.000                                                  
C02  36974730.990   192537067.632          40.000                                                  
C03  37010623.371   192724022.392          36.000                                                  
C07  37170602.875   193557084.035          35.000                                                  
C08  38042938.807   198099577.766          45.000                                                  
C09  38991748.778   203040169.392          39.000    38991752.923   157003617.242          37.000  
C10  37310749.730   194286851.888          39.000    37310750.158   150234890.742          42.000  
C12  23182521.916   120717541.538          46.000                                                  
C19  22490280.916   117112839.332          48.000                                                  
C20  25047436.399   130428631.043          45.000                                                  
C22  23246841.178   121052405.316          37.000                                                  
C30  25094321.607   130672724.161          44.000                                                  
C36  22450072.666   116903423.984          42.000                                                  
C39  25988283.291   135327906.875          32.000                                                  
> 2026 06 07 17 16 33.0000000  0 14                     
C01  38580625.642   200899549.142          39.000                                                  
C02  36974929.765   192538102.583          40.000                                                  
C03  37010769.486   192724782.981          36.000                                                  
C07  37170439.052   193556236.684          36.000                                                  
C08  38038166.920   198074729.782          44.000                                                  
C09  38997373.571   203069461.958          37.000    38997379.039   157026268.119          35.000  
C10  37310577.061   194285952.256          39.000    37310577.258   150234195.096          42.000  
C12  23190627.197   120759746.218          44.000                                                  
C19  22494767.381   117136198.301          48.000                                                  
C20  25056951.761   130478181.530          45.000                                                  
C22  23242389.593   121029225.598          34.000                                                  
C30  25087326.760   130636302.237          47.000                                                  
C36  22448447.728   116894966.425          41.000                                                  
C39  25982682.835   135298738.314          36.000                                                  
> 2026 06 07 17 16 48.0000000  0 14                     
C01  38580598.320   200899406.899          39.000                                                  
C02  36975127.915   192539133.816          40.000                                                  
C03  37010914.868   192725539.746          37.000                                                  
C07  37170271.941   193555371.686          37.000                                                  
C08  38033397.588   198049897.026          44.000                                                  
C09  39002998.400   203098756.515          35.000    39003005.315   157048920.432          34.000  
C10  37310400.462   194285031.295          40.000    37310400.390   150233482.993          42.000  
C12  23198742.521   120802010.396          43.000                                                  
C19  22499273.752   117159665.286          45.000                                                  
C20  25066472.145   130527755.861          46.000                                                  
C22  23237958.719   121006152.817          28.000                                                  
C30  25080333.038   130599881.249          46.000                                                  
C36  22446830.171   116886545.640          42.000                                                  
C39  25977088.223   135269595.697          35.000                                                  
> 2026 06 07 17 17 03.0000000  0 14                     
C01  38580574.643   200899283.688          39.000                                                  
C02  36975329.710   192540184.109          40.000                                                  
C03  37011063.825   192726315.309          37.000                                                  
C07  37170106.134   193554511.986          37.000                                                  
C08  38028635.887   198025102.405          44.000                                                  
C09  39008627.821   203128075.719          34.000    39008636.077   157071591.910          33.000  
C10  37310224.059   194284111.823          40.000    37310223.916   150232772.026          42.000  
C12  23206873.159   120844356.528          40.000                                                  
C19  22503805.139   117183262.943          46.000                                                  
C20  25076001.695   130577376.583          47.000                                                  
C22                                                                                                
C30  25073343.820   130563484.346          42.000                                                  
C36  22445224.978   116878184.436          44.000                                                  
C39  25971503.009   135240501.845          33.000                                                  
> 2026 06 07 17 17 18.0000000  0 14                     
C01  38580550.878   200899159.736          39.000                                                  
C02  36975531.344   192541233.759          41.000                                                  
C03  37011212.620   192727090.184          36.000                                                  
C07  37169937.665   193553637.880          36.000                                                  
C08  38023878.009   198000326.274          43.000                                                  
C09  39014257.939   203157399.822          33.000    39014267.017   157094267.211          33.000  
C10  37310044.028   194283174.165          40.000    37310043.939   150232046.978          42.000  
C12  23215017.484   120886764.699          43.000                                                  
C19  22508357.541   117206971.418          43.000                                                  
C20  25085536.033   130627023.645          45.000                                                  
C22  23229163.371   120960317.9831         33.000                                                  
C30  25066355.049   130527092.136          42.000                                                  
C36  22443627.488   116869863.001          43.000                                                  
C39                                                                                                
> 2026 06 07 17 17 33.0000000  0 14                     
C01  38580527.165   200899036.225          39.000                                                  
C02  36975733.032   192542283.915          40.000                                                  
C03  37011361.576   192727865.300          36.000                                                  
C07  37169766.551   193552750.426          35.000                                                  
C08  38019123.920   197975569.803          43.000                                                  
C09  39019888.808   203186729.898          32.000    39019898.189   157116946.990          32.000  
C10  37309860.656   194282219.398          41.000    37309860.764   150231308.694          42.000  
C12  23223174.497   120929235.742          43.000                                                  
C19  22512931.528   117230791.575          44.000                                                  
C20  25095075.072   130676697.797          45.000                                                  
C22  23224799.595   120937597.458          37.000                                                  
C30  25059368.225   130490705.963          43.000                                                  
C36  22442037.431   116861582.401          41.000                                                  
C39                                                                                                
> 2026 06 07 17 17 48.0000000  0 14                     
C01  38580502.381   200898907.649          39.000                                                  
C02  36975933.701   192543329.079          40.000                                                  
C03  37011509.496   192728635.330          37.000                                                  
C07  37169592.239   193551844.239          35.000                                                  
C08  38014372.457   197950827.592          43.000                                                  
C09  39025519.605   203216060.163          30.000    39025528.843   157139626.946          29.000  
C10  37309673.049   194281242.079          41.000    37309673.139   150230552.985          41.000  
C12  23231342.213   120971763.923          42.000                                                  
C19  22517527.066   117254717.930          45.000                                                  
C20  25104618.577   130726393.466          45.000                                                  
C22  23220456.636   120914983.360          39.000                                                  
C30  25052381.401   130454320.735          39.000                                                  
C36  22440453.753   116853337.118          42.000                                                  
C39                                                                                                
> 2026 06 07 17 18 03.0000000  0 14                     
C01  38580476.435   200898772.694          39.000                                                  
C02  36976133.173   192544367.973          40.000                                                  
C03  37011656.147   192729398.946          37.000                                                  
C07  37169414.389   193550918.055          36.000                                                  
C08  38009623.300   197926098.445          42.000                                                  
C09  39031151.028   203245389.433          31.000    39031159.801   157162327.2191         29.000  
C10  37309480.868   194280240.956          41.000    37309480.832   150229778.835          40.000  
C12  23239519.489   121014347.616          39.000                                                  
C19  22522141.920   117278748.804          43.000                                                  
C20  25114166.086   130776108.996          44.000                                                  
C22  23216133.852   120892474.672          38.000                                                  
C30  25045393.345   130417935.442          40.000                                                  
C36  22438877.222   116845125.582          44.000                                                  
C39  25949225.788   135124424.2391         28.000                                                  
> 2026 06 07 17 18 18.0000000  0 14                     
C01  38580449.078   200898630.565          39.000                                                  
C02  36976331.304   192545399.697          41.000                                                  
C03  37011801.422   192730155.257          37.000                                                  
C07  37169232.786   193549971.055          36.000                                                  
C08  38004875.965   197901381.584          42.000                                                  
C09  39036783.236   203274716.805          33.000    39036791.992   157185004.925          32.000  
C10  37309283.809   194279215.158          41.000    37309283.541   150228985.607          38.000  
C12  23247707.968   121056985.661          43.000                                                  
C19  22526776.054   117302883.236          41.000                                                  
C20  25123717.329   130825843.277          44.000                                                  
C22  23211831.062   120870070.760          35.000                                                  
C30  25038405.109   130381549.507          41.000                                                  
C36  22437307.089   116836946.905          43.000                                                  
C39  25943666.056   135095459.470          31.000                                                  
> 2026 06 07 17 18 33.0000000  0 14                     
C01  38580420.666   200898482.699          39.000                                                  
C02  36976528.453   192546425.806          41.000                                                  
C03  37011945.661   192730905.835          37.000                                                  
C07  37169047.305   193549004.730          36.000                                                  
C08  38000131.203   197876678.523          43.000                                                  
C09  39042416.249   203304043.551          35.000    39042423.558   157207682.376          31.000  
C10  37309082.121   194278166.226          40.000    37309081.442   150228174.511          37.000  
C12  23255908.027   121099679.460          44.000                                                  
C19  22531430.899   117327122.580          40.000                                                  
C20  25133272.324   130875597.529          44.000                                                  
C22  23207548.197   120847773.200          32.000                                                  
C30  25031417.088   130345164.750          42.000                                                  
C36  22435743.049   116828802.437          42.000                                                  
C39  25938103.268   135066518.506          34.000                                                  
> 2026 06 07 17 18 48.0000000  0 14                     
C01  38580393.237   200898340.058          39.000                                                  
C02  36976726.621   192547457.213          41.000                                                  
C03  37012090.793   192731661.524          37.000                                                  
C07  37168859.609   193548030.092          34.000                                                  
C08  37995391.713   197852000.292          45.000                                                  
C09  39048051.693   203333380.577          36.000                                                  
C10  37308878.057   194277105.073          39.000    37308876.752   150227353.940          36.000  
C12  23264120.112   121142439.465          44.000                                                  
C19  22536107.830   117351477.531          40.000                                                  
C20  25142832.502   130925382.423          42.000                                                  
C22  23203287.257   120825593.169          34.000                                                  
C30  25024431.944   130308792.377          42.000                                                  
C36  22434187.819   116820703.063          39.000                                                  
C39  25932546.735   135037612.177          39.000                                                  
> 2026 06 07 17 19 03.0000000  0 14                     
C01  38580368.864   200898213.271          38.000                                                  
C02  36976927.897   192548504.488          41.000                                                  
C03  37012238.892   192732432.947          38.000                                                  
C07  37168671.645   193547057.753          31.000                                                  
C08  37990659.531   197827357.517          45.000                                                  
C09  39053691.424   203362738.390          36.000    39053691.388   157253031.8821         29.000  
C10  37308673.689   194276042.291          39.000    37308671.723   150226532.156          36.000  
C12  23272346.849   121185276.059          44.000                                                  
C19  22540808.348   117375958.520          42.000                                                  
C20  25152400.559   130975208.215          41.000                                                  
C22  23199051.494   120803541.376          38.000                                                  
C30  25017451.589   130272443.281          41.000                                                  
C36  22432642.792   116812659.379          34.000                                                  
C39  25927000.619   135008750.950          39.000                                                  
> 2026 06 07 17 19 18.0000000  0 14                     
C01  38580344.955   200898088.961          39.000                                                  
C02  36977129.621   192549554.301          41.000                                                  
C03  37012387.472   192733206.746          38.000                                                  
C07  37168482.215   193546074.281          31.000                                                  
C08  37985931.584   197802736.991          45.000                                                  
C09  39059331.513   203392103.586          34.000    39059332.174   157275738.870          32.000  
C10  37308466.569   194274964.613          39.000    37308463.906   150225698.789          36.000  
C12  23280584.844   121228175.603          44.000                                                  
C19  22545531.613   117400552.039          45.000                                                  
C20  25161974.406   131025061.247          42.000                                                  
C22  23194838.247   120781604.722          39.000                                                  
C30  25010473.271   130236104.455          41.000                                                  
C36  22431104.358   116804657.915          38.000                                                  
C39  25921461.954   134979921.683          34.000                                                  
> 2026 06 07 17 19 33.0000000  0 14                     
C01  38580317.580   200897946.372          38.000                                                  
C02  36977327.770   192550585.926          41.000                                                  
C03  37012532.587   192733962.222          38.000                                                  
C07  37168288.283   193545059.096          33.000                                                  
C08  37981203.602   197778118.046          45.000                                                  
C09  39064967.260   203421455.176          31.000    39064968.922   157298435.442          32.000  
C10  37308252.694   194273851.279          38.000    37308249.478   150224837.880          37.000  
C12  23288831.148   121271117.092          44.000                                                  
C19  22550273.194   117425237.159          46.000                                                  
C20  25171549.612   131074920.537          43.000                                                  
C22  23190643.565   120759762.574          41.000                                                  
C30  25003493.041   130199755.443          41.000                                                  
C36  22429571.500   116796677.690          39.000                                                  
C39                                                                                                
> 2026 06 07 17 19 48.0000000  0 14                     
C01  38580292.277   200897814.839          39.000                                                  
C02  36977528.046   192551628.621          41.000                                                  
C03  37012679.738   192734728.592          37.000                                                  
C07  37168094.047   193544041.495          33.000                                                  
C08  37976481.677   197753529.943          46.000                                                  
C09  39070604.919   203450822.570          28.000    39070608.582   157321144.208          33.000  
C10  37308037.516   194272731.517          38.000    37308034.121   150223972.049          37.000  
C12  23297091.622   121314129.506          45.000                                                  
C19  22555037.344   117450042.914          44.000                                                  
C20  25181130.821   131124815.098          40.000                                                  
C22  23186472.953   120738044.509          40.000                                                  
C30  24996516.385   130163425.924          41.000                                                  
C36  22428047.772   116788747.996          42.000                                                  
C39                                                                                                
> 2026 06 07 17 20 03.0000000  0 14                     
C01  38580267.671   200897686.949          39.000                                                  
C02  36977729.001   192552675.038          40.000                                                  
C03  37012827.604   192735498.564          37.000                                                  
C07  37167897.255   193543014.063          31.000                                                  
C08  37971764.737   197728965.461          45.000                                                  
C09                                                  39076249.779   157343859.294          30.000  
C10  37307819.764   194271598.059          37.000    37307816.315   150223095.574          38.000  
C12  23305364.640   121357205.264          46.000                                                  
C19  22559822.990   117474961.831          45.000                                                  
C20  25190717.105   131174737.175          42.000                                                  
C22  23182324.785   120716443.282          41.000                                                  
C30  24989541.998   130127108.732          41.000                                                  
C36  22426533.516   116780861.268          45.000                                                  
C39                                                                                                
> 2026 06 07 17 20 18.0000000  0 14                     
C01  38580241.618   200897551.162          39.000                                                  
C02  36977928.295   192553713.601          41.000                                                  
C03  37012973.952   192736260.519          37.000                                                  
C07  37167696.765   193541940.3981         30.000                                                  
C08  37967050.049   197704413.130          45.000                                                  
C09  39081889.296   203509628.2851         32.000    39081891.119   157366576.5841         30.000  
C10  37307597.169   194270439.326          36.000    37307593.846   150222199.582          38.000  
C12  23313646.218   121400332.399          42.000                                                  
C19  22564627.577   117499982.057          45.000                                                  
C20  25200307.785   131224675.186          44.000                                                  
C22  23178196.772   120694947.580          42.000                                                  
C30  24982567.683   130090792.723          41.000                                                  
C36  22425025.763   116773005.894          45.000                                                  
C39                                                                                                
> 2026 06 07 17 20 33.0000000  0 14                     
C01  38580215.119   200897413.189          39.000                                                  
C02  36978127.177   192554750.055          40.000                                                  
C03  37013119.781   192737020.265          37.000                                                  
C07  37167494.755   193540876.110          31.000                                                  
C08  37962338.595   197679878.699          45.000                                                  
C09  39087530.779   203539002.562          34.000    39087534.567   157389290.739          33.000  
C10  37307370.983   194269261.025          36.000    37307367.785   150221288.487          39.000  
C12  23321937.766   121443516.414          41.000                                                  
C19  22569452.856   117525109.182          46.000                                                  
C20  25209902.110   131274634.401          44.000                                                  
C22  23174090.042   120673563.240          42.000                                                  
C30  24975594.207   130054483.853          42.000                                                  
C36  22423524.337   116765187.588          42.000                                                  
C39  25893840.108   134835979.5261         31.000                                                  
> 2026 06 07 17 20 48.0000000  0 14                     
C01  38580189.423   200897279.184          38.000                                                  
C02  36978326.684   192555790.465          40.000                                                  
C03  37013266.396   192737783.773          37.000                                                  
C07  37167290.030   193539802.523          31.000                                                  
C08  37957631.716   197655368.351          45.000                                                  
C09  39093173.424   203568385.190          35.000    39093177.480   157412011.249          34.000  
C10  37307142.367   194268069.289          35.000    37307139.186   150220366.993          40.000  
C12  23330243.127   121486763.143          45.000                                                  
C19  22574299.793   117550349.107          44.000                                                  
C20  25219501.653   131324620.629          46.000                                                  
C22  23170005.666   120652296.540          42.000                                                  
C30  24968623.966   130018188.489          43.000                                                  
C36  22422030.611   116757412.314          44.000                                                  
C39  25888340.469   134807315.827          36.000                                                  
> 2026 06 07 17 21 03.0000000  0 14                     
C01  38580166.193   200897158.293          38.000                                                  
C02  36978528.783   192556844.107          40.000                                                  
C03  37013415.531   192738560.357          37.000                                                  
C07  37167086.252   193538728.718          29.000                                                  
C08  37952931.037   197630891.375          45.000                                                  
C09  39098819.231   203597784.997          33.000    39098823.412   157434745.103          34.000  
C10  37306913.125   194266873.416          35.000    37306909.802   150219442.292          40.000  
C12  23338562.390   121530081.589          46.000                                                  
C19  22579170.281   117575710.796          44.000                                                  
C20  25229107.343   131374642.792          42.000                                                  
C22  23165945.413   120631156.869          41.000                                                  
C30  24961658.299   129981916.254          43.000                                                  
C36  22420547.500   116749689.206          48.000                                                  
C39  25882844.690   134778694.242          35.000                                                  
> 2026 06 07 17 21 18.0000000  0 14                     
C01  38580139.836   200897021.393          38.000                                                  
C02  36978727.844   192557881.763          40.000                                                  
C03  37013561.503   192739320.789          37.000                                                  
C07                                                                                                
C08  37948231.127   197606418.656          45.000                                                  
C09  39104462.804   203627173.051          32.000    39104466.968   157457469.878          33.000  
C10  37306677.469   194265644.149          35.000    37306673.913   150218491.750          41.000  
C12  23346889.015   121573442.131          45.000                                                  
C19  22584058.817   117601165.036          43.000                                                  
C20  25238714.462   131424671.430          43.000                                                  
C22  23161903.761   120610115.239          40.000                                                  
C30  24954691.882   129945638.102          44.000                                                  
C36  22419069.357   116741988.906          50.000                                                  
C39  25877349.948   134750085.779          32.000                                                  
> 2026 06 07 17 21 33.0000000  0 14                     
C01  38580110.031   200896866.696          38.000                                                  
C02  36978923.599   192558901.714          40.000                                                  
C03  37013704.151   192740063.402          37.000                                                  
C07                                                                                                
C08  37943531.967   197581948.484          46.000                                                  
C09  39110104.287   203656547.186          33.000    39110107.968   157480183.779          32.000  
C10  37306435.165   194264379.879          36.000    37306431.287   150217514.118          41.000  
C12  23355223.914   121616842.858          47.000                                                  
C19  22588964.203   117626709.723          42.000                                                  
C20  25248323.440   131474704.578          44.000                                                  
C22  23157880.658   120589170.019          41.000                                                  
C30  24947724.374   129909352.697          40.000                                                  
C36  22417595.287   116734309.580          51.000                                                  
C39  25871857.046   134721488.598          35.000                                                  
> 2026 06 07 17 21 48.0000000  0 14                     
C01  38580083.942   200896731.316          38.000                                                  
C02  36979123.017   192559940.972          40.000                                                  
C03  37013850.552   192740825.186          37.000                                                  
C07  37166435.497   193535383.4251         30.000                                                  
C08  37938840.544   197557517.995          45.000                                                  
C09  39115750.702   203685944.629          33.000    39115753.060   157502915.805          33.000  
C10  37306193.433   194263117.508          37.000    37306189.108   150216538.022          41.000  
C12  23363573.805   121660320.525          47.000                                                  
C19  22593894.088   117652381.758          40.000                                                  
C20  25257940.727   131524779.086          46.000                                                  
C22  23153883.393   120568358.540          42.000                                                  
C30  24940761.674   129873097.560          38.000                                                  
C36  22416132.118   116726688.264          50.000                                                  
C39  25866375.920   134692939.573          35.000                                                  
> 2026 06 07 17 22 03.0000000  0 14                     
C01  38580056.442   200896588.597          38.000                                                  
C02  36979321.006   192560972.945          40.000                                                  
C03  37013995.577   192741579.540          37.000                                                  
C07  37166214.065   193534234.783          31.000                                                  
C08  37934151.337   197533100.686          44.000                                                  
C09  39121397.027   203715338.463          32.000    39121397.349   157525644.963          34.000  
C10  37305946.786   194261830.557          38.000    37305942.140   150215542.904          41.000  
C12  23371932.666   121703848.110          44.000                                                  
C19  22598843.664   117678154.312          41.000                                                  
C20  25267560.605   131574867.950          46.000                                                  
C22  23149907.303   120547654.261          43.000                                                  
C30  24933799.634   129836846.162          41.000                                                  
C36  22414674.596   116719098.183          50.000                                                  
C39  25860898.064   134664412.141          31.000                                                  
> 2026 06 07 17 22 18.0000000  0 14                     
C01  38580029.245   200896447.003          38.000                                                  
C02  36979519.192   192562006.091          39.000                                                  
C03  37014140.745   192742334.930          37.000                                                  
C07  37165991.077   193533073.968          32.000                                                  
C08  37929465.972   197508705.128          45.000                                                  
C09  39127043.996   203744737.314          31.000    39127042.799   157548378.005          34.000  
C10  37305696.852   194260527.506          39.000    37305692.081   150214535.273          41.000  
C12  23380303.338   121747433.944          47.000                                                  
C19  22603813.576   117704035.744          38.000                                                  
C20  25277183.914   131624979.419          44.000                                                  
C22  23145953.818   120527065.923          44.000                                                  
C30  24926840.454   129800607.325          41.000                                                  
C36  22413224.775   116711547.753          50.000                                                  
C39  25855425.354   134635914.772          30.000                                                  
> 2026 06 07 17 22 33.0000000  0 14                     
C01  38580002.602   200896308.125          38.000                                                  
C02  36979717.877   192563041.985          38.000                                                  
C03  37014286.378   192743092.904          37.000                                                  
C07  37165765.892   193531902.735          33.000                                                  
C08  37924785.253   197484332.812          45.000                                                  
C09  39132692.590   203774142.311          32.000    39132688.784   157571115.871          31.000  
C10  37305443.916   194259209.853          39.000    37305439.199   150213516.387          41.000  
C12  23388686.000   121791079.293          47.000                                                  
C19  22608804.519   117730027.364          39.000                                                  
C20  25286811.118   131675114.575          43.000                                                  
C22  23142023.151   120506595.130          44.000                                                  
C30  24919883.936   129764382.911          43.000                                                  
C36  22411782.834   116704038.360          49.000                                                  
C39  25849959.255   134607448.784          32.000                                                  
> 2026 06 07 17 22 48.0000000  0 14                     
C01  38579982.232   200896201.776          39.000                                                  
C02  36979922.960   192564110.524          39.000                                                  
C03  37014438.211   192743883.339          36.000                                                  
C07  37165544.423   193530750.947          34.000                                                  
C08  37920114.969   197460013.789          45.000                                                  
C09  39138349.226   203803583.519          33.000                                                  
C10  37305193.929   194257907.552          39.000    37305189.301   150212509.338          40.000  
C12  23397084.691   121834813.682          46.000                                                  
C19  22613822.641   117756158.827          37.000                                                  
C20  25296448.829   131725303.172          43.000                                                  
C22  23138120.771   120486272.004          43.000                                                  
C30  24912936.085   129728203.178          43.000                                                  
C36  22410354.366   116696599.856          49.000                                                  
C39  25844505.308   134579044.206          34.000                                                  
> 2026 06 07 17 23 03.0000000  0 14                     
C01  38579957.983   200896075.271          39.000                                                  
C02  36980124.058   192565158.875          39.000                                                  
C03  37014586.202   192744653.535          37.000                                                  
C07  37165316.772   193529565.942          34.000                                                  
C08  37915444.936   197435695.371          46.000                                                  
C09  39144002.467   203833007.868          33.000                                                  
C10  37304936.740   194256567.825          39.000    37304932.201   150211473.365          40.000  
C12  23405489.744   121878584.074          45.000                                                  
C19  22618855.826   117782376.959          36.000                                                  
C20  25306086.647   131775492.203          44.000                                                  
C22  23134236.456   120466044.010          39.000                                                  
C30  24905986.232   129692015.649          42.000                                                  
C36  22408929.133   116689179.377          50.000                                                  
C39                                                                                                
> 2026 06 07 17 23 18.0000000  0 14                     
C01  38579935.790   200895959.701          39.000                                                  
C02  36980327.300   192566218.187          39.000                                                  
C03  37014736.177   192745434.527          37.000                                                  
C07  37165088.584   193528378.743          33.000                                                  
C08  37910781.103   197411408.656          46.000                                                  
C09  39149657.226   203862446.677          33.000                                                  
C10  37304678.318   194255221.759          38.000    37304673.779   150210432.500          40.000  
C12  23413907.948   121922421.342          44.000                                                  
C19  22623914.315   117808713.039          43.000                                                  
C20  25315729.862   131825712.332          41.000                                                  
C22  23130376.015   120445942.363          35.000                                                  
C30  24899040.686   129655851.676          43.000                                                  
C36  22407513.477   116681807.894          50.000                                                  
C39  25833629.399   134522429.0261         33.000                                                  
> 2026 06 07 17 23 33.0000000  0 14                     
C01  38579906.789   200895808.811          39.000                                                  
C02  36980524.020   192567242.206          39.000                                                  
C03  37014879.433   192746180.048          38.000                                                  
C07  37164851.319   193527143.187          33.000                                                  
C08  37906114.411   197387107.562          46.000                                                  
C09  39155304.713   203891853.149          33.000                                                  
C10  37304409.675   194253823.177          38.000    37304405.190   150209351.045          39.000  
C12  23422329.332   121966278.852          41.000                                                  
C19  22628987.205   117835120.430          44.000                                                  
C20  25325370.468   131875917.074          41.000                                                  
C22  23126530.887   120425921.103          37.000                                                  
C30  24892091.226   129619665.380          43.000                                                  
C36  22406098.340   116674439.089          49.000                                                  
C39  25828177.095   134494065.932          33.000                                                  
> 2026 06 07 17 23 48.0000000  0 14                     
C01  38579875.786   200895647.398          39.000                                                  
C02  36980718.775   192568255.759          39.000                                                  
C03  37015020.616   192746914.961          38.000                                                  
C07  37164609.408   193525884.105          33.000                                                  
C08  37901449.417   197362816.893          45.000                                                  
C09  39160950.556   203921252.459          33.000                                                  
C10  37304135.654   194252396.894          39.000    37304131.240   150208248.150          38.000  
C12  23430758.776   122010181.193          41.000                                                  
C19  22634077.339   117861623.701          42.000                                                  
C20  25335014.094   131926131.071          44.000                                                  
C22  23122706.898   120406004.856          40.000                                                  
C30  24885142.446   129583481.788          43.000                                                  
C36  22404688.296   116667097.669          49.000                                                  
C39  25822728.901   134465720.838          33.000                                                  
> 2026 06 07 17 24 03.0000000  0 14                     
C01  38579846.588   200895495.246          39.000                                                  
C02  36980915.209   192569278.600          39.000                                                  
C03  37015163.586   192747659.065          38.000                                                  
C07  37164366.872   193524621.248          32.000                                                  
C08  37896789.873   197338556.569          45.000                                                  
C09  39166598.561   203950663.906          33.000    39166595.720   157707555.2331         32.000  
C10  37303860.060   194250962.674          38.000    37303855.807   150207139.098          38.000  
C12  23439201.764   122054147.886          42.000                                                  
C19  22639189.685   117888242.515          42.000                                                  
C20  25344663.455   131976373.817          44.000                                                  
C22  23118907.300   120386213.899          42.000                                                  
C30  24878198.097   129547321.145          42.000                                                  
C36  22403287.293   116659803.318          50.000                                                  
C39  25817288.588   134437413.606          34.000                                                  
> 2026 06 07 17 24 18.0000000  0 14                     
C01  38579817.926   200895345.978          38.000                                                  
C02  36981112.072   192570304.331          38.000                                                  
C03  37015307.056   192748405.880          37.000                                                  
C07  37164122.424   193523348.385          33.000                                                  
C08  37892135.171   197314320.159          46.000                                                  
C09  39172247.442   203980081.374          33.000    39172245.387   157730302.715          34.000  
C10  37303581.732   194249514.135          38.000    37303577.729   150206019.043          38.000  
C12  23447656.599   122098172.206          42.000                                                  
C19  22644321.865   117914970.071          39.000                                                  
C20  25354316.623   132026638.517          45.000                                                  
C22  23115130.575   120366541.792          42.000                                                  
C30  24871256.893   129511177.279          41.000                                                  
C36  22401894.349   116652549.509          50.000                                                  
C39  25811856.387   134409137.745          31.000                                                  
> 2026 06 07 17 24 33.0000000  0 14                     
C01  38579796.698   200895235.212          39.000                                                  
C02  36981316.333   192571368.604          38.000                                                  
C03  37015457.889   192749191.156          37.000                                                  
C07  37163883.033   193522101.137          34.000                                                  
C08  37887492.459   197290143.443          48.000                                                  
C09  39177904.167   204009540.291          35.000    39177902.434   157753082.238          35.000  
C10  37303307.675   194248087.010          39.000    37303303.726   150204915.479          39.000  
C12  23456129.500   122142289.568          43.000                                                  
C19  22649483.332   117941842.080          41.000                                                  
C20  25363980.566   132076960.648          44.000                                                  
C22  23111383.244   120347024.466          41.000                                                  
C30  24864326.017   129475086.116          42.000                                                  
C36  22400516.022   116645371.823          51.000                                                  
C39                                                                                                
> 2026 06 07 17 24 48.0000000  0 14                     
C01  38579772.288   200895107.826          39.000                                                  
C02  36981517.377   192572416.274          38.000                                                  
C03  37015605.505   192749959.662          37.000                                                  
C07  37163638.281   193520824.312          35.000                                                  
C08  37882850.873   197265971.265          48.000                                                  
C09  39183557.890   204038985.186          36.000    39183556.836   157775850.946          36.000  
C10  37303027.149   194246626.055          39.000    37303023.236   150203785.810          39.000  
C12  23464609.406   122186444.400          43.000                                                  
C19  22654662.096   117968803.162          39.000                                                  
C20  25373644.384   132127284.663          43.000                                                  
C22  23107654.498   120327606.899          40.000                                                  
C30  24857394.426   129438992.822          40.000                                                  
C36  22399141.840   116638214.957          50.000                                                  
C39                                                                                                
> 2026 06 07 17 25 03.0000000  0 14                     
C01  38579743.644   200894958.564          38.000                                                  
C02  36981714.347   192573442.162          38.000                                                  
C03  37015748.939   192750706.259          38.000                                                  
C07  37163386.720   193519512.779          35.000                                                  
C08  37878209.091   197241798.573          48.000                                                  
C09  39189207.825   204068410.988          37.000    39189207.789   157798604.834          36.000  
C10  37302739.172   194245126.139          38.000    37302735.258   150202626.018          39.000  
C12  23473095.870   122230631.395          44.000                                                  
C19                                                                                                
C20  25383308.130   132177605.143          45.000                                                  
C22  23103943.280   120308284.070          37.000                                                  
C30  24850461.281   129402892.535          43.000                                                  
C36  22397770.714   116631073.714          49.000                                                  
C39                                                                                                
> 2026 06 07 17 25 18.0000000  0 14                     
C01  38579717.305   200894821.719          38.000                                                  
C02  36981913.676   192574480.356          38.000                                                  
C03  37015894.715   192751465.019          38.000                                                  
C07  37163134.749   193518200.821          34.000                                                  
C08  37873573.527   197217659.582          48.000                                                  
C09  39194860.422   204097851.798          38.000    39194862.227   157821370.315          36.000  
C10  37302450.319   194243621.475          38.000    37302446.477   150201462.534          39.000  
C12  23481594.413   122274884.294          43.000                                                  
C19  22665070.999   118022990.6581         36.000                                                  
C20  25392978.202   132227956.049          47.000                                                  
C22  23100256.365   120289090.265          35.000                                                  
C30  24843533.961   129366819.672          44.000                                                  
C36  22396408.988   116623982.127          48.000                                                  
C39                                                                                                
> 2026 06 07 17 25 33.0000000  0 14                     
C01  38579689.787   200894678.912          38.000                                                  
C02  36982111.862   192575512.702          38.000                                                  
C03  37016039.365   192752217.826          38.000                                                  
C07  37162878.829   193516870.173          33.000                                                  
C08  37868940.786   197193536.139          48.000                                                  
C09  39200512.269   204127289.197          38.000    39200516.862   157844133.148          36.000  
C10  37302157.106   194242093.854          37.000    37302153.246   150200281.260          40.000  
C12  23490101.712   122319184.622          41.000                                                  
C19  22670303.763   118050251.759          37.000                                                  
C20  25402650.508   132278318.752          47.000                                                  
C22  23096591.410   120270007.464          36.000                                                  
C30  24836608.589   129330756.339          46.000                                                  
C36  22395052.907   116616921.854          46.000                                                  
C39  25784800.489   134268233.1141         36.000                                                  
> 2026 06 07 17 25 48.0000000  0 14                     
C01  38579662.698   200894538.167          39.000                                                  
C02  36982310.512   192576547.101          38.000                                                  
C03  37016184.354   192752972.538          38.000                                                  
C07  37162620.658   193515528.707          32.000                                                  
C08  37864312.655   197169436.225          48.000                                                  
C09  39206164.885   204156730.911          37.000    39206175.660   157866899.416          36.000  
C10  37301860.873   194240551.083          37.000    37301857.049   150199088.319          39.000  
C12  23498619.643   122363539.921          40.000                                                  
C19  22675560.544   118077619.711          42.000                                                  
C20  25412326.334   132328700.949          47.000                                                  
C22  23092949.596   120251043.754          37.000                                                  
C30  24829687.130   129294710.785          47.000                                                  
C36  22393704.046   116609900.769          46.000                                                  
C39  25779404.776   134240135.788          39.000                                                  
> 2026 06 07 17 26 03.0000000  0 14                     
C01  38579635.876   200894399.025          39.000                                                  
C02  36982509.412   192577583.108          38.000                                                  
C03  37016329.593   192753728.687          38.000                                                  
C07  37162360.538   193514176.081          33.000                                                  
C08  37859688.956   197145359.489          47.000                                                  
C09  39211818.447   204186176.582          37.000    39211835.530   157889668.713          31.000  
C10  37301561.442   194238992.864          36.000    37301557.725   150197883.452          38.000  
C12  23507149.117   122407949.634          43.000                                                  
C19  22680837.874   118105093.823          43.000                                                  
C20  25422005.912   132379101.899          48.000                                                  
C22  23089330.422   120232198.824          37.000                                                  
C30  24822769.013   129258682.861          44.000                                                  
C36  22392363.369   116602918.232          47.000                                                  
C39  25774014.585   134212068.278          37.000                                                  
> 2026 06 07 17 26 18.0000000  0 14                     
C01  38579609.698   200894263.063          39.000                                                  
C02  36982708.776   192578622.398          37.000                                                  
C03  37016475.440   192754487.993          38.000                                                  
C07  37162098.721   193512814.058          32.000                                                  
C08  37855069.653   197121307.638          46.000                                                  
C09  39217473.278   204215627.755          37.000                                                  
C10  37301259.206   194237420.861          35.000    37301255.489   150196667.887          38.000  
C12  23515689.080   122452415.016          41.000                                                  
C19  22686134.949   118132675.424          41.000                                                  
C20  25431688.849   132429522.952          46.000                                                  
C22  23085733.977   120213474.493          37.000                                                  
C30  24815853.415   129222674.614          44.000                                                  
C36  22391030.447   116595975.794          45.000                                                  
C39  25768630.720   134184032.070          37.000                                                  
> 2026 06 07 17 26 33.0000000  0 14                     
C01  38579582.841   200894123.362          39.000                                                  
C02  36982907.212   192579657.888          37.000                                                  
C03  37016620.447   192755243.403          37.000                                                  
C07  37161833.616   193511435.588          31.000                                                  
C08  37850453.638   197097273.641          47.000                                                  
C09  39223127.787   204245077.137          36.000                                                  
C10  37300952.680   194235828.002          33.000    37300949.178   150195436.225          37.000  
C12  23524238.175   122496928.716          41.000                                                  
C19  22691450.912   118160357.343          40.000                                                  
C20  25441373.645   132479956.750          44.000                                                  
C22  23082158.993   120194863.879          38.000                                                  
C30  24808940.533   129186679.228          45.000                                                  
C36  22389703.279   116589066.434          43.000                                                  
C39  25763252.698   134156020.178          31.000                                                  
> 2026 06 07 17 26 48.0000000  0 14                     
C01  38579553.536   200893971.003          39.000                                                  
C02  36983103.414   192580680.778          37.000                                                  
C03  37016763.024   192755986.007          38.000                                                  
C07  37161563.741   193510031.728          30.000                                                  
C08  37845839.659   197073248.780          47.000                                                  
C09  39228780.706   204274515.952          37.000    39228834.010   157958188.1291         30.000  
C10  37300640.651   194234205.459          33.000    37300637.203   150194181.601          36.000  
C12  23532793.488   122541481.660          38.000                                                  
C19  22696783.708   118188130.481          42.000                                                  
C20  25451059.353   132530394.271          43.000                                                  
C22  23078604.702   120176358.248          39.000                                                  
C30  24802028.527   129150688.177          45.000                                                  
C36  22388380.525   116582181.168          42.000                                                  
C39                                                                                                
> 2026 06 07 17 27 03.0000000  0 14                     
C01  38579529.484   200893845.847          39.000                                                  
C02  36983304.726   192581730.876          37.000                                                  
C03  37016910.837   192756755.724          38.000                                                  
C07  37161291.863   193508591.7031         30.000                                                  
C08  37841235.348   197049272.979          48.000                                                  
C09  39234439.772   204303983.932          36.000    39234492.182   157980974.625          29.000  
C10  37300330.695   194232593.161          33.000    37300327.282   150192934.893          36.000  
C12  23541362.792   122586113.360          35.000                                                  
C19  22702142.967   118216034.606          44.000                                                  
C20  25460753.655   132580875.021          42.000                                                  
C22  23075078.858   120157997.627          40.000                                                  
C30  24795125.223   129114741.650          44.000                                                  
C36  22387070.404   116575359.740          43.000                                                  
C39                                                                                                
> 2026 06 07 17 27 18.0000000  0 14                     
C01  38579504.896   200893717.748          38.000                                                  
C02  36983505.574   192582778.008          38.000                                                  
C03  37017058.060   192757522.334          39.000                                                  
C07  37161024.579   193507186.935          29.000                                                  
C08  37836635.040   197025316.072          48.000                                                  
C09  39240098.767   204333450.699          36.000    39240096.980   158003596.2331         29.000  
C10  37300017.023   194230960.857          33.000    37300013.592   150191672.714          35.000  
C12  23549942.907   122630793.504          39.000                                                  
C19  22707521.311   118244039.215          44.000                                                  
C20  25470449.887   132631368.542          39.000                                                  
C22  23071574.707   120139751.933          40.000                                                  
C30  24788224.421   129078809.752          42.000                                                  
C36  22385767.037   116568571.849          45.000                                                  
C39                                                                                                
> 2026 06 07 17 27 33.0000000  0 14                     
C01  38579476.914   200893572.127          39.000                                                  
C02  36983703.170   192583807.603          38.000                                                  
C03  37017201.852   192758271.304          38.000                                                  
C07  37160749.574   193505752.093          30.000                                                  
C08  37832035.893   197001363.568          49.000                                                  
C09  39245755.045   204362901.776          34.000    39245752.400   158026369.658          29.000  
C10  37299696.881   194229294.070          33.000    37299693.147   150190383.855          34.000  
C12  23558530.778   122675507.143          43.000                                                  
C19  22712915.504   118272129.539          40.000                                                  
C20  25480145.226   132681859.984          40.000                                                  
C22  23068089.640   120121606.769          41.000                                                  
C30  24781323.279   129042878.278          42.000                                                  
C36  22384467.405   116561802.833          45.000                                                  
C39                                                                                                
> 2026 06 07 17 27 48.0000000  0 14                     
C01  38579450.718   200893435.555          39.000                                                  
C02  36983902.481   192584846.323          37.000                                                  
C03  37017347.341   192759029.214          38.000                                                  
C07  37160473.891   193504313.726          30.000                                                  
C08  37827442.696   196977442.154          47.000                                                  
C09  39251413.200   204392363.588          34.000    39251409.090   158049155.3401         29.000  
C10  37299375.274   194227619.354          31.000    37299371.040   150189088.834          33.000  
C12  23567129.727   122720280.496          40.000                                                  
C19  22718331.069   118300331.917          38.000                                                  
C20  25489845.729   132732375.551          38.000                                                  
C22  23064629.214   120103588.902          42.000                                                  
C30  24774427.838   129006974.013          44.000                                                  
C36  22383176.190   116555079.178          46.000                                                  
C39                                                                                                
> 2026 06 07 17 28 03.0000000  0 14                     
C01  38579425.719   200893305.121          39.000                                                  
C02  36984102.936   192585891.135          37.000                                                  
C03  37017494.010   192759793.112          38.000                                                  
C07  37160196.814   193502869.177          32.000                                                  
C08  37822854.503   196953549.006          46.000                                                  
C09  39257072.873   204421833.051          33.000                                                  
C10  37299051.684   194225933.707          30.000    37299046.878   150187785.479          32.000  
C12  23575738.254   122765110.358          32.000                                                  
C19  22723767.558   118328643.354          29.000                                                  
C20  25499552.039   132782912.352          43.000                                                  
C22  23061192.769   120085695.589          41.000                                                  
C30  24767537.310   128971094.466          45.000                                                  
C36  22381893.248   116548397.933          46.000                                                  
C39  25731096.159   133988566.4251         30.000                                                  
> 2026 06 07 17 28 18.0000000  0 14                     
C01  38579399.487   200893168.319          39.000                                                  
C02  36984302.122   192586929.599          37.000                                                  
C03  37017639.428   192760550.511          38.000                                                  
C07  37159916.360   193501405.669          32.000                                                  
C08  37818268.990   196929671.613          45.000                                                  
C09  39262731.492   204451297.632          34.000    39262720.306   158094689.9521         30.000  
C10  37298725.128   194224224.818          30.000    37298718.016   150186464.114          30.000  
C12  23584354.232   122809983.994          36.000                                                  
C19                                                                                                
C20  25509259.547   132833457.393          44.000                                                  
C22  23057777.337   120067914.432          40.000                                                  
C30  24760649.463   128935227.327          47.000                                                  
C36  22380615.577   116541746.493          45.000                                                  
C39  25725755.876   133960752.776          33.000                                                  
> 2026 06 07 17 28 33.0000000  0 14                     
C01  38579371.790   200893024.079          39.000                                                  
C02  36984499.699   192587960.648          36.000                                                  
C03  37017783.310   192761300.425          37.000                                                  
C07  37159631.670   193499922.281          30.000                                                  
C08  37813686.014   196905809.049          45.000                                                  
C09  39268389.272   204480756.263          36.000    39268392.828   158117469.218          33.000  
C10  37298394.801   194222491.551          31.000    37298384.419   150185123.898          29.000  
C12  23592984.470   122854900.275          39.000                                                  
C19  22734694.966   118385474.7501         37.000                                                  
C20  25518967.394   132884009.354          44.000                                                  
C22  23054383.295   120050244.570          41.000                                                  
C30  24753764.261   128899371.965          48.000                                                  
C36  22379343.088   116535123.706          43.000                                                  
C39  25720417.345   133932959.507          33.000                                                  
> 2026 06 07 17 28 48.0000000  0 14                     
C01  38579345.630   200892887.574          39.000                                                  
C02  36984698.760   192588999.392          36.000                                                  
C03  37017928.656   192762057.874          37.000                                                  
C07  37159349.161   193498469.2381         31.000                                                  
C08  37809108.685   196881976.459          45.000                                                  
C09  39274048.820   204510223.743          37.000    39274053.645   158140255.341          35.000  
C10  37298062.402   194220749.191          28.000                                                  
C12  23601627.430   122899873.738          36.000                                                  
C19  22740191.263   118414087.040          37.000                                                  
C20  25528678.958   132934583.103          44.000                                                  
C22  23051014.448   120032701.202          44.000                                                  
C30  24746884.633   128863543.706          48.000                                                  
C36  22378078.676   116528544.593          43.000                                                  
C39  25715086.211   133905201.445          33.000                                                  
> 2026 06 07 17 29 03.0000000  0 14                     
C01  38579319.684   200892752.542          39.000                                                  
C02  36984898.143   192590039.600          36.000                                                  
C03  37018074.253   192762816.697          38.000                                                  
C07  37159061.577   193496970.270          33.000                                                  
C08  37804536.110   196858167.726          46.000                                                  
C09  39279708.279   204539693.927          37.000    39279717.125   158163043.567          34.000  
C10                                                  37297709.560   150182385.3451         28.000  
C12  23610274.787   122944897.828          32.000                                                  
C19  22745703.821   118442802.576          39.000                                                  
C20  25538393.095   132985172.101          43.000                                                  
C22  23047669.206   120015278.302          45.000                                                  
C30  24740008.847   128827736.708          48.000                                                  
C36  22376822.233   116522002.721          46.000                                                  
C39                                                                                                
> 2026 06 07 17 29 18.0000000  0 14                     
C01  38579292.398   200892610.853          39.000                                                  
C02  36985096.257   192591073.203          35.000                                                  
C03  37018218.546   192763568.752          37.000                                                  
C07  37158770.634   193495452.396          35.000                                                  
C08  37799967.000   196834374.696          46.000                                                  
C09  39285366.202   204569158.472          37.000    39285379.889   158185827.446          32.000  
C10                                                  37297369.816   150181048.101          30.000  
C12  23618929.416   122989964.133          34.000                                                  
C19  22751235.946   118471613.105          38.000                                                  
C20  25548108.786   133035767.920          43.000                                                  
C22  23044345.407   119997967.841          45.000                                                  
C30  24733135.510   128791943.124          47.000                                                  
C36  22375572.063   116515489.978          47.000                                                  
C39                                                                                                
> 2026 06 07 17 29 33.0000000  0 14                     
C01  38579264.433   200892465.272          39.000                                                  
C02  36985293.745   192592102.839          35.000                                                  
C03  37018362.087   192764316.738          37.000                                                  
C07  37158476.599   193493918.332          38.000                                                  
C08  37795401.680   196810600.255          46.000                                                  
C09  39291023.159   204598620.148          37.000    39291043.101   158208609.132          30.000  
C10  37297048.013   194215517.4201         29.000    37297024.354   150179654.637          32.000  
C12  23627595.910   123035075.412          31.000                                                  
C19  22756788.280   118500521.205          41.000                                                  
C20  25557826.962   133086373.074          43.000                                                  
C22  23041043.765   119980772.704          44.000                                                  
C30  24726265.389   128756166.042          45.000                                                  
C36  22374327.825   116509008.960          48.000                                                  
C39  25699119.220   133822073.5231         33.000                                                  
> 2026 06 07 17 29 48.0000000  0 14                     
C01  38579235.825   200892316.563          38.000                                                  
C02  36985490.519   192593129.404          35.000                                                  
C03  37018505.075   192765061.401          37.000                                                  
C07  37158179.526   193492368.856          39.000                                                  
C08  37790839.700   196786845.276          44.000                                                  
C09  39296679.652   204628079.602          37.000                                                  
C10  37296693.706   194213695.344          32.000    37296676.462   150178245.710          34.000  
C12                                                                                                
C19  22762359.448   118529527.437          38.000                                                  
C20  25567547.263   133136988.000          45.000                                                  
C22  23037764.371   119963693.881          42.000                                                  
C30  24719397.644   128720406.647          41.000                                                  
C36  22373089.805   116502560.368          50.000                                                  
C39  25693805.580   133794413.421          35.000                                                  
> 2026 06 07 17 30 03.0000000  0 14                     
C01  38579209.664   200892180.665          39.000                                                  
C02  36985689.848   192594168.758          35.000                                                  
C03  37018650.440   192765818.800          36.000                                                  
C07  37157882.293   193490819.961          40.000                                                  
C08  37786284.028   196763125.693          45.000                                                  
C09  39302338.718   204657552.700          36.000                                                  
C10  37296342.955   194211869.278          33.000    37296327.552   150176833.734          35.000  
C12  23644939.994   123125340.7001         37.000                                                  
C19  22767950.129   118558647.348          37.000                                                  
C20  25577272.801   133187628.445          46.000                                                  
C22  23034509.778   119946747.403          40.000                                                  
C30  24712535.618   128684681.082          41.000                                                  
C36  22371861.256   116496160.069          49.000                                                  
C39  25688501.447   133766793.601          34.000                                                  
> 2026 06 07 17 30 18.0000000  0 14                     
C01  38579178.519   200892018.534          39.000                                                  
C02  36985884.352   192595181.855          35.000                                                  
C03  37018790.765   192766549.892          37.000                                                  
C07  37157577.340   193489232.629          40.000                                                  
C08  37781727.839   196739402.537          46.000                                                  
C09  39307992.745   204687000.183          34.000                                                  
C10  37295983.859   194210000.212          33.000    37295969.814   150175388.401          35.000  
C12  23653628.128   123170579.500          40.000                                                  
C19  22773557.197   118587841.866          42.000                                                  
C20  25586995.711   133238254.991          45.000                                                  
C22  23031272.644   119929894.374          39.000                                                  
C30  24705673.020   128648950.576          43.000                                                  
C36  22370633.976   116489768.883          46.000                                                  
C39  25683196.974   133739174.935          35.000                                                  
> 2026 06 07 17 30 33.0000000  0 14                     
C01  38579150.750   200891873.985          39.000                                                  
C02  36986082.359   192596212.558          35.000                                                  
C03  37018934.379   192767298.350          37.000                                                  
C07  37157273.227   193487650.723          40.000                                                  
C08  37777179.708   196715719.673          46.000                                                  
C09  39313650.471   204716465.813          33.000                                                  
C10  37295625.210   194208131.916          33.000    37295611.469   150173943.715          35.000  
C12  23662328.680   123215883.355          40.000                                                  
C19  22779187.618   118617154.559          39.000                                                  
C20  25596724.001   133288911.143          41.000                                                  
C22  23028062.242   119913178.657          41.000                                                  
C30  24698819.088   128613259.232          46.000                                                  
C36  22369416.167   116483430.523          44.000                                                  
C39  25677901.382   133711601.016          37.000                                                  
> 2026 06 07 17 30 48.0000000  0 14                     
C01  38579125.180   200891740.740          38.000                                                  
C02  36986282.670   192597254.547          35.000                                                  
C03  37019080.190   192768058.072          37.000                                                  
C07  37156969.007   193486067.994          41.000                                                  
C08  37772638.278   196692070.970          46.000                                                  
C09  39319311.288   204745943.424          34.000                                                  
C10  37295265.310   194206258.221          33.000    37295251.372   150172494.780          34.000  
C12  23671039.185   123261245.770          36.000                                                  
C19  22784837.946   118646578.603          32.000                                                  
C20  25606456.561   133339590.358          42.000                                                  
C22  23024877.482   119896594.228          42.000                                                  
C30  24691972.196   128577601.168          45.000                                                  
C36  22368207.095   116477138.747          45.000                                                  
C39  25672613.455   133684065.701          36.000                                                  
> 2026 06 07 17 31 03.0000000  0 14                     
C01  38579095.785   200891587.570          39.000                                                  
C02  36986479.069   192598276.617          36.000                                                  
C03  37019222.177   192768797.635          36.000                                                  
C07  37156658.855   193484453.203          41.000                                                  
C08  37768097.116   196668425.166          45.000                                                  
C09  39324968.781   204775401.453          34.000                                                  
C10  37294897.905   194204347.803          31.000    37294883.896   150171017.490          34.000  
C12  23679753.372   123306634.931          35.000                                                  
C19  22790503.177   118676082.784          34.000                                                  
C20  25616187.566   133390261.232          42.000                                                  
C22  23021711.966   119880109.884          43.000                                                  
C30  24685125.537   128541945.377          45.000                                                  
C36  22367001.847   116470862.055          46.000                                                  
C39  25667326.244   133656537.795          29.000                                                  
> 2026 06 07 17 31 18.0000000  0 14                     
C01  38579067.892   200891442.176          40.000                                                  
C02  36986676.897   192599306.448          36.000                                                  
C03  37019365.683   192769544.877          37.000                                                  
C07  37156348.112   193482834.142          41.000                                                  
C08  37763561.564   196644810.092          45.000                                                  
C09  39330627.365   204804867.642          32.000    39330640.213   158368144.8021         33.000  
C10  37294528.570   194202428.485          30.000    37294514.722   150169533.311          33.000  
C12  23688479.799   123352078.630          38.000                                                  
C19  22796191.280   118705694.705          37.000                                                  
C20  25625920.483   133440951.069          35.000                                                  
C22  23018571.378   119863753.541          45.000                                                  
C30  24678284.507   128506320.008          42.000                                                  
C36  22365805.087   116464628.191          44.000                                                  
C39  25662044.571   133629044.620          28.000                                                  
> 2026 06 07 17 31 33.0000000  0 14                     
C01  38579040.766   200891300.907          39.000                                                  
C02  36986875.457   192600340.317          34.000                                                  
C03  37019509.940   192770296.100          37.000                                                  
C07  37156035.923   193481207.115          40.000                                                  
C08  37759031.177   196621222.100          44.000                                                  
C09                                                  39336301.012   158390933.231          37.000  
C10  37294156.430   194200496.550          29.000    37294143.314   150168039.320          33.000  
C12  23697216.786   123397572.711          40.000                                                  
C19  22801898.628   118735410.316          36.000                                                  
C20  25635655.688   133491656.025          29.000                                                  
C22  23015454.914   119847521.679          47.000                                                  
C30  24671447.283   128470721.634          41.000                                                  
C36  22364615.368   116458433.320          42.000                                                  
C39                                                                                                
> 2026 06 07 17 31 48.0000000  0 14                     
C01  38579012.390   200891153.376          39.000                                                  
C02  36987072.982   192601367.965          36.000                                                  
C03  37019653.017   192771040.870          36.000                                                  
C07  37155719.838   193479561.820          38.000                                                  
C08  37754503.775   196597650.924          44.000                                                  
C09                                                  39341960.936   158413716.966          38.000  
C10  37293776.945   194198475.6431         30.000    37293767.868   150166527.588          34.000  
C12  23705961.367   123443106.618          41.000                                                  
C19  22807622.898   118765218.863          37.000                                                  
C20                                                                                                
C22  23012360.177   119831404.029          48.000                                                  
C30  24664613.275   128435140.158          43.000                                                  
C36  22363430.491   116452266.972          41.000                                                  
C39                                                                                                
> 2026 06 07 17 32 03.0000000  0 14                     
C01  38578982.603   200890998.537          39.000                                                  
C02  36987269.112   192602388.322          35.000                                                  
C03  37019794.611   192771778.234          37.000                                                  
C07  37155399.660   193477897.193          35.000                                                  
C08  37749979.838   196574095.584          45.000                                                  
C09                                                  39347618.268   158436495.065          37.000  
C10                                                  37293388.115   150164997.376          34.000  
C12  23714712.811   123488678.907          38.000                                                  
C19  22813366.288   118795119.513          41.000                                                  
C20                                                                                                
C22  23009287.009   119815399.707          48.000                                                  
C30  24657782.698   128399574.927          43.000                                                  
C36  22362250.117   116446128.044          39.000                                                  
C39                                                                                                
> 2026 06 07 17 32 18.0000000  0 14                     
C01  38578952.243   200890840.930          39.000                                                  
C02  36987464.617   192603405.818          36.000                                                  
C03  37019935.652   192772512.647          35.000                                                  
C07  37155076.839   193476217.871          34.000                                                  
C08  37745460.351   196550560.612          45.000                                                  
C09  39353260.930   204922767.3681         31.000    39353273.725   158459271.016          36.000  
C10                                                  37293004.628   150163452.043          35.000  
C12  23723472.170   123534293.751          38.000                                                  
C19  22819125.742   118825116.080          39.000                                                  
C20  25664932.045   133644015.2011         28.000                                                  
C22  23006236.231   119799513.291          47.000                                                  
C30  24650955.945   128364030.757          45.000                                                  
C36  22361076.158   116440020.903          41.000                                                  
C39                                                                                                
> 2026 06 07 17 32 33.0000000  0 14                     
C01  38578926.280   200890705.913          39.000                                                  
C02  36987664.500   192604445.951          35.000                                                  
C03  37020080.998   192773269.572          36.000                                                  
C07  37154756.268   193474549.272          35.000                                                  
C08  37740949.996   196527071.508          46.000                                                  
C09  39358920.282   204952244.077          32.000    39358932.755   158482064.378          34.000  
C10                                                  37292622.249   150161911.398          36.000  
C12  23732245.896   123579976.454          40.000                                                  
C19  22824909.177   118855233.955          43.000                                                  
C20                                                                                                
C22  23003212.846   119783770.366          46.000                                                  
C30  24644138.984   128328533.297          48.000                                                  
C36  22359915.511   116433970.819          39.000                                                  
C39  25635732.471   133492015.9581         31.000                                                  
> 2026 06 07 17 32 48.0000000  0 14                     
C01  38578900.334   200890570.897          39.000                                                  
C02  36987864.365   192605486.000          36.000                                                  
C03  37020226.255   192774026.233          36.000                                                  
C07  37154432.964   193472868.752          35.000                                                  
C08  37736444.107   196503605.672          46.000                                                  
C09  39364580.117   204981720.550          30.000    39364591.660   158504857.551          31.000  
C10                                                  37292236.779   150160357.860          37.000  
C12  23741027.020   123625703.978          40.000                                                  
C19  22830712.088   118885450.192          44.000                                                  
C20                                                                                                
C22  23000212.798   119768148.374          45.000                                                  
C30  24637327.545   128293060.211          49.000                                                  
C36  22358759.224   116427955.419          30.000                                                  
C39  25630483.838   133464695.112          32.000                                                  
> 2026 06 07 17 33 03.0000000  0 13                     
C01  38578873.494   200890431.620          39.000                                                  
C02  36988063.444   192606521.885          36.000                                                  
C03  37020370.691   192774778.639          35.000                                                  
C07  37154105.907   193471172.189          34.000                                                  
C08  37731941.774   196480159.044          46.000                                                  
C09  39370238.825   205011192.610          30.000    39370250.011   158527647.134          31.000  
C10                                                  37291847.323   150158788.221          38.000  
C12  23749815.559   123671471.809          41.000                                                  
C19  22836532.905   118915760.405          44.000                                                  
C22  22997235.193   119752643.336          42.000                                                  
C30  24630519.822   128257607.735          49.000                                                  
C36  22357610.228   116421969.820          39.000                                                  
C39  25625239.745   133437396.891          34.000                                                  
> 2026 06 07 17 33 18.0000000  0 13                     
C01  38578846.262   200890289.660          38.000                                                  
C02  36988261.861   192607554.955          36.000                                                  
C03  37020514.465   192775528.097          36.000                                                  
C07  37153776.546   193469461.096          34.000                                                  
C08  37727443.158   196456733.120          46.000                                                  
C09  39375897.730   205040661.299          30.000    39375907.951   158550434.239          31.000  
C10                                                  37291454.348   150157203.616          38.000  
C12  23758612.372   123717281.110          41.000                                                  
C19  22842371.733   118946165.842          42.000                                                  
C22  22994279.550   119737256.796          40.000                                                  
C30  24623715.977   128222177.529          48.000                                                  
C36  22356468.666   116416015.702          37.000                                                  
C39  25620000.190   133410122.510          36.000                                                  
> 2026 06 07 17 33 33.0000000  0 13                     
C01  38578818.905   200890147.292          39.000                                                  
C02  36988460.225   192608587.636          36.000                                                  
C03  37020658.185   192776277.022          35.000                                                  
C07  37153445.379   193467737.870          35.000                                                  
C08  37722948.992   196433330.290          48.000                                                  
C09  39381556.743   205070129.218          30.000                                                  
C10  37291062.087   194184364.2941         30.000    37291058.138   150155605.896          39.000  
C12  23767417.280   123763134.052          38.000                                                  
C19  22848227.501   118976668.421          36.000                                                  
C22  22991347.171   119721991.216          39.000                                                  
C30  24616916.564   128186772.313          46.000                                                  
C36  22355332.785   116410095.470          36.000                                                  
C39  25614766.764   133382874.376          33.000                                                  
> 2026 06 07 17 33 48.0000000  0 13                     
C01  38578789.367   200889993.358          39.000                                                  
C02  36988656.516   192609608.677          36.000                                                  
C03  37020799.672   192777014.227          36.000                                                  
C07  37153109.459   193465991.337          35.000                                                  
C08  37718457.363   196409939.422          48.000                                                  
C09  39387212.146   205099584.869          30.000    39387264.877   158596213.9411         27.000  
C10  37290660.302   194182269.980          33.000    37290656.460   150153986.426          39.000  
C12  23776227.333   123809019.034          35.000                                                  
C19  22854101.317   119007256.931          39.000                                                  
C22  22988436.308   119706835.497          38.000                                                  
C30  24610119.295   128151381.252          46.000                                                  
C36  22354201.194   116404197.683          34.000                                                  
C39                                                                                                
> 2026 06 07 17 34 03.0000000  0 12                     
C01  38578762.206   200889851.811          39.000                                                  
C02  36988855.113   192610642.107          36.000                                                  
C03  37020943.447   192777763.658          35.000                                                  
C07  37152773.664   193464245.537          35.000                                                  
C08  37713972.846   196386584.575          48.000                                                  
C10  37290257.623   194180171.476          34.000    37290253.799   150152363.741          40.000  
C12  23785048.216   123854959.842          35.000                                                  
C19  22859996.254   119037954.977          38.000                                                  
C22  22985551.622   119691813.708          38.000                                                  
C30  24603329.477   128116028.582          47.000                                                  
C36  22353076.839   116398345.932          32.000                                                  
C39  25604316.709   133328346.4501         33.000                                                  
> 2026 06 07 17 34 18.0000000  0 12                     
C01  38578735.045   200889710.443          38.000                                                  
C02  36989053.691   192611675.686          36.000                                                  
C03  37021087.221   192778513.131          35.000                                                  
C07  37152436.297   193462488.225          34.000                                                  
C08  37709492.921   196363253.604          48.000                                                  
C10  37289851.586   194178056.706          34.000    37289847.976   150150728.428          40.000  
C12  23793878.104   123900943.793          36.000                                                  
C19  22865910.829   119068750.261          42.000                                                  
C22  22982690.809   119676913.824          40.000                                                  
C30  24596545.217   128080702.349          47.000                                                  
C36  22351960.293   116392528.357          39.000                                                  
C39  25599098.544   133301179.046          34.000                                                  
> 2026 06 07 17 34 33.0000000  0 13                     
C01  38578703.471   200889546.085          39.000                                                  
C02  36989247.928   192612686.210          35.000                                                  
C03  37021226.545   192779239.416          35.000                                                  
C07  37152092.658   193460696.212          33.000                                                  
C08  37705012.924   196339923.378          47.000                                                  
C09  39404203.728   205188080.3861         31.000                                                  
C10  37289437.828   194175902.315          33.000    37289434.594   150149062.602          40.000  
C12  23802712.799   123946947.630          40.000                                                  
C19  22871839.575   119099619.240          44.000                                                  
C22  22979849.027   119662112.813          41.000                                                  
C30  24589761.921   128045379.720          47.000                                                  
C36  22350845.820   116386721.758          40.000                                                  
C39                                                                                                
> 2026 06 07 17 34 48.0000000  0 13                     
C01  38578672.879   200889386.881          39.000                                                  
C02  36989443.075   192613701.862          36.000                                                  
C03  37021366.692   192779970.767          35.000                                                  
C07  37151747.983   193458897.834          30.000                                                  
C08  37700538.021   196316622.145          46.000                                                  
C09  39409859.202   205217527.406          32.000    39409869.245   158687201.5701         28.000  
C10  37289021.605   194173736.665          32.000    37289018.943   150147387.950          39.000  
C12  23811557.215   123992999.144          41.000                                                  
C19  22877787.404   119130589.759          43.000                                                  
C22  22977031.225   119647438.964          41.000                                                  
C30  24582984.915   128010089.166          47.000                                                  
C36  22349738.673   116380953.937          40.000                                                  
C39                                                                                                
> 2026 06 07 17 35 03.0000000  0 12                     
C01  38578646.004   200889246.962          39.000                                                  
C02  36989642.118   192614736.799          36.000                                                  
C03  37021510.538   192780721.173          35.000                                                  
C08  37696071.087   196293364.089          46.000                                                  
C09  39415509.727   205246930.5371         26.000    39415504.027   158709903.0101         28.000  
C10  37288605.811   194171573.853          32.000    37288603.827   150145715.526          39.000  
C12  23820413.299   124039111.973          41.000                                                  
C19  22883757.713   119161675.873          43.000                                                  
C22  22974240.173   119632906.486          40.000                                                  
C30  24576216.898   127974845.159          47.000                                                  
C36  22348641.748   116375239.058          41.000                                                  
C39                                                                                                
> 2026 06 07 17 35 18.0000000  0 13                     
C01  38578621.059   200889117.150          38.000                                                  
C02  36989842.984   192615781.786          36.000                                                  
C03  37021656.349   192781481.561          34.000                                                  
C07                                                                                                
C08  37691610.871   196270140.078          47.000                                                  
C09                                                  39421180.568   158732768.288          30.000  
C10  37288188.694   194169404.649          31.000    37288187.497   150144038.206          38.000  
C12  23829280.320   124085276.959          42.000                                                  
C19  22889746.962   119192867.972          38.000                                                  
C22  22971474.227   119618506.250          39.000                                                  
C30  24569456.010   127939638.832          46.000                                                  
C36  22347552.363   116369567.725          43.000                                                  
C39                                                                                                
> 2026 06 07 17 35 33.0000000  0 13                     
C01  38578590.288   200888956.796          39.000                                                  
C02  36990037.989   192616796.182          36.000                                                  
C03  37021796.246   192782211.293          33.000                                                  
C07                                                                                                
C08  37687149.888   196246909.527          48.000                                                  
C09  39426839.474   205305943.899          33.000    39426823.570   158755535.049          29.000  
C10  37287762.250   194167188.561          30.000    37287762.196   150142324.615          36.000  
C12  23838148.251   124131452.945          39.000                                                  
C19  22895750.329   119224125.351          43.000                                                  
C22  22968725.918   119604197.795          39.000                                                  
C30  24562694.533   127904429.873          47.000                                                  
C36  22346463.085   116363899.187          44.000                                                  
C39                                                                                                
> 2026 06 07 17 35 48.0000000  0 13                     
C01  38578562.020   200888809.674          39.000                                                  
C02  36990235.566   192617823.803          36.000                                                  
C03  37021938.680   192782954.066          34.000                                                  
C07                                                                                                
C08  37682696.284   196223716.254          47.000                                                  
C09  39432494.144   205335398.192          34.000    39432514.050   158778380.0881         27.000  
C10  37287331.928   194164926.3611         29.000    37287336.396   150140608.533          34.000  
C12  23847025.796   124177683.370          35.000                                                  
C19  22901774.691   119255491.513          43.000                                                  
C22  22966004.501   119590024.944          39.000                                                  
C30  24555941.239   127869262.285          47.000                                                  
C36  22345383.278   116358277.119          45.000                                                  
C39                                                                                                
> 2026 06 07 17 36 03.0000000  0 13                     
C01  38578532.589   200888656.292          38.000                                                  
C02  36990431.929   192618845.094          37.000                                                  
C03  37022079.988   192783690.398          34.000                                                  
C07  37150006.253   193449818.0091         30.000                                                  
C08  37678245.861   196200540.861          46.000                                                  
C09  39438149.368   205364844.750          33.000                                                  
C10  37286902.875   194162649.390          32.000    37286906.646   150138874.937          32.000  
C12  23855910.060   124223948.512          34.000                                                  
C19  22907815.046   119286946.518          40.000                                                  
C22  22963305.743   119575968.377          40.000                                                  
C30  24549192.073   127834116.925          46.000                                                  
C36  22344308.670   116352681.993          44.000                                                  
C39                                                                                                
> 2026 06 07 17 36 18.0000000  0 13                     
C01  38578503.266   200888503.349          38.000                                                  
C02  36990628.381   192619866.789          37.000                                                  
C03  37022221.368   192784427.026          34.000                                                  
C07  37149650.231   193447956.933          32.000                                                  
C08  37673799.565   196177390.137          45.000                                                  
C09  39443806.790   205394290.314          29.000                                                  
C10  37286469.623   194160391.543          35.000    37286473.911   150137129.070          29.000  
C12  23864803.133   124270254.847          36.000                                                  
C19  22913872.842   119318496.948          40.000                                                  
C22  22960630.482   119562034.944          42.000                                                  
C30  24542448.179   127799000.797          46.000                                                  
C36  22343240.031   116347120.432          42.000                                                  
C39                                                                                                
> 2026 06 07 17 36 33.0000000  0 13                     
C01  38578472.710   200888344.116          39.000                                                  
C02  36990823.618   192620882.168          37.000                                                  
C03  37022361.461   192785157.238          34.000                                                  
C07  37149289.205   193446078.271          34.000                                                  
C08  37669356.361   196154257.383          46.000                                                  
C09                                                                                                
C10  37286032.421   194158111.106          36.000                                                  
C12  23873702.318   124316595.303          35.000                                                  
C19  22919948.470   119350135.879          39.000                                                  
C22  22957977.253   119548217.995          43.000                                                  
C30  24535708.984   127763907.506          46.000                                                  
C36  22342176.110   116341585.614          41.000                                                  
C39  25552352.518   133057794.7881         30.000                                                  
> 2026 06 07 17 36 48.0000000  0 13                     
C01  38578445.263   200888201.037          39.000                                                  
C02  36991021.911   192621913.630          37.000                                                  
C03  37022504.735   192785903.415          33.000                                                  
C07  37148929.198   193444204.399          35.000                                                  
C08  37664921.216   196131165.015          47.000                                                  
C09  39455128.156   205453247.9301         33.000    39455092.222   158869358.613          29.000  
C10  37285595.059   194155830.453          38.000                                                  
C12  23882612.581   124362991.974          36.000                                                  
C19  22926046.096   119381885.384          40.000                                                  
C22  22955350.614   119534540.012          44.000                                                  
C30  24528978.688   127728859.742          46.000                                                  
C36  22341121.927   116336099.853          42.000                                                  
C39  25547188.710   133030887.761          37.000                                                  
> 2026 06 07 17 37 03.0000000  0 13                     
C01  38578417.674   200888057.271          38.000                                                  
C02  36991219.989   192622944.351          37.000                                                  
C03  37022647.687   192786648.700          34.000                                                  
C07  37148567.457   193442318.569          35.000                                                  
C08  37660491.307   196108096.357          49.000                                                  
C09  39460783.041   205482697.286          36.000    39460745.427   158892130.830          29.000  
C10  37285154.213   194153532.787          38.000                                                  
C12  23891530.760   124409427.886          37.000                                                  
C19  22932162.126   119413728.504          39.000                                                  
C22  22952747.223   119520984.274          45.000                                                  
C30  24522253.860   127693841.041          45.000                                                  
C36  22340074.159   116330646.286          43.000                                                  
C39  25542027.064   133004006.049          36.000                                                  
> 2026 06 07 17 37 18.0000000  0 13                     
C01  38578391.370   200887920.216          39.000                                                  
C02  36991419.300   192623981.687          37.000                                                  
C03  37022791.979   192787400.450          33.000                                                  
C07  37148204.180   193440428.140          34.000                                                  
C08  37656067.669   196085058.783          49.000                                                  
C09  39466437.014   205512151.428          35.000    39466401.383   158914906.578          29.000  
C10  37284711.239   194151225.531          38.000    37284704.950   150130048.6961         29.000  
C12  23900457.963   124455909.956          39.000                                                  
C19  22938297.134   119445672.259          39.000                                                  
C22  22950168.669   119507558.252          45.000                                                  
C30  24515535.304   127658859.147          43.000                                                  
C36  22339034.057   116325232.082          45.000                                                  
C39  25536871.011   132977156.785          34.000                                                  
> 2026 06 07 17 37 33.0000000  0 13                     
C01  38578363.137   200887772.882          39.000                                                  
C02  36991616.663   192625008.796          37.000                                                  
C03  37022934.359   192788141.824          34.000                                                  
C07  37147836.239   193438516.193          34.000                                                  
C08  37651646.623   196062035.525          49.000                                                  
C09  39472085.770   205541593.284          34.000    39472055.142   158937672.837          29.000  
C10  37284263.120   194148891.757          37.000    37284256.687   150128244.200          30.000  
C12  23909390.277   124502421.037          39.000                                                  
C19  22944447.437   119477699.462          38.000                                                  
C22  22947611.844   119494245.194          44.000                                                  
C30  24508820.447   127623897.366          45.000                                                  
C36  22337998.761   116319840.315          46.000                                                  
C39  25531717.192   132950323.171          33.000                                                  
> 2026 06 07 17 37 48.0000000  0 13                     
C01  38578334.404   200887622.835          39.000                                                  
C02  36991813.437   192626033.079          38.000                                                  
C03  37023076.222   192788880.375          34.000                                                  
C07  37147466.029   193436590.396          36.000                                                  
C08  37647229.382   196039034.060          48.000                                                  
C09  39477732.988   205571030.256          33.000    39477708.365   158960435.463          31.000  
C10  37283811.284   194146539.029          35.000    37283804.941   150126424.944          30.000  
C12  23918329.863   124548968.258          41.000                                                  
C19  22950615.109   119509817.460          37.000                                                  
C22  22945077.963   119481052.661          44.000                                                  
C30  24502111.665   127588963.505          45.000                                                  
C36  22336969.148   116314478.361          47.000                                                  
C39                                                                                                
> 2026 06 07 17 38 03.0000000  0 13                     
C01  38578302.954   200887458.810          39.000                                                  
C02  36992007.584   192627043.367          37.000                                                  
C03  37023215.350   192789604.791          34.000                                                  
C07  37147091.047   193434639.560          37.000                                                  
C08  37642813.804   196016043.263          48.000                                                  
C09  39483377.956   205600451.001          32.000    39483359.586   158983185.459          35.000  
C10  37283353.712   194144156.079          34.000    37283347.440   150124582.320          30.000  
C12  23927274.881   124595540.253          43.000                                                  
C19  22956797.398   119542014.625          38.000                                                  
C22  22942565.239   119467969.593          44.000                                                  
C30  24495405.850   127554046.722          45.000                                                  
C36  22335942.930   116309134.987          47.000                                                  
C39                                                                                                
> 2026 06 07 17 38 18.0000000  0 13                     
C01  38578272.506   200887300.299          39.000                                                  
C02  36992202.749   192628059.040          37.000                                                  
C03  37023355.568   192790334.429          34.000                                                  
C07  37146714.958   193432683.054          38.000                                                  
C08  37638404.051   195993082.583          48.000                                                  
C09  39489025.103   205629874.943          33.000    39489011.326   159005937.965          37.000  
C10  37282894.800   194141762.427          34.000                                                  
C12  23936227.405   124642156.046          40.000                                                  
C19  22963000.450   119574310.369          41.000                                                  
C22  22940077.442   119455015.444          45.000                                                  
C30  24488707.092   127519166.676          45.000                                                  
C36  22334924.074   116303829.377          45.000                                                  
C39                                                                                                
> 2026 06 07 17 38 33.0000000  0 13                     
C01  38578246.989   200887167.350          38.000                                                  
C02  36992402.721   192629100.269          37.000                                                  
C03  37023500.682   192791089.519          34.000                                                  
C07  37146341.906   193430741.041          39.000                                                  
C08  37634004.322   195970172.218          49.000                                                  
C09  39494678.129   205659322.089          34.000    39494667.068   159028708.397          38.000  
C10  37282438.300   194139378.133          34.000    37282430.241   150120870.7451         29.000  
C12  23945190.167   124688835.329          37.000                                                  
C19  22969225.321   119606724.358          34.000                                                  
C22  22937618.450   119442210.470          46.000                                                  
C30  24482019.289   127484343.834          46.000                                                  
C36  22333915.904   116298581.684          44.000                                                  
C39  25511164.188   132843364.3161         30.000                                                  
> 2026 06 07 17 38 48.0000000  0 13                     
C01  38578219.238   200887022.845          38.000                                                  
C02  36992600.567   192630129.955          37.000                                                  
C03  37023643.563   192791832.940          34.000                                                  
C07  37145964.655   193428776.518          40.000                                                  
C08  37629607.434   195947275.165          48.000                                                  
C09  39500329.101   205688755.297          34.000    39500319.809   159051468.019          36.000  
C10  37281976.439   194136966.171          34.000    37281966.343   150119017.7641         30.000  
C12  23954158.612   124735540.893          38.000                                                  
C19                                                                                                
C22  22935180.973   119429517.727          45.000                                                  
C30  24475335.828   127449541.425          48.000                                                  
C36  22332912.290   116293354.665          44.000                                                  
C39  25506035.993   132816661.723          35.000                                                  
> 2026 06 07 17 39 03.0000000  0 13                     
C01  38578189.325   200886867.413          38.000                                                  
C02  36992796.322   192631148.510          37.000                                                  
C03  37023784.425   192792565.100          34.000                                                  
C07  37145583.241   193426789.975          39.000                                                  
C08  37625213.227   195924391.971          48.000                                                  
C09  39505977.249   205718174.941          33.000    39505969.297   159074217.111          35.000  
C10  37281508.682   194134527.162          32.000    37281499.122   150117144.770          31.000  
C12  23963133.150   124782272.921          39.000                                                  
C19  22981767.946   119672094.8611         33.000                                                  
C22  22932764.902   119416937.710          43.000                                                  
C30  24468656.798   127414760.193          48.000                                                  
C36  22331912.733   116288148.745          45.000                                                  
C39  25500909.120   132789973.587          31.000                                                  
> 2026 06 07 17 39 18.0000000  0 13                     
C01  38578161.771   200886723.938          39.000                                                  
C02  36992994.293   192632179.033          37.000                                                  
C03  37023927.716   192793309.210          35.000                                                  
C07  37145201.809   193424804.462          38.000                                                  
C08  37620825.918   195901545.694          48.000                                                  
C09  39511627.112   205747603.911          34.000    39511620.572   159096973.470          34.000  
C10  37281039.245   194132084.052          31.000    37281029.363   150115255.618          33.000  
C12  23972117.427   124829054.067          39.000                                                  
C19  22988048.478   119704774.975          32.000                                                  
C22  22930374.706   119404493.593          43.000                                                  
C30  24461986.184   127380023.535          48.000                                                  
C36  22330921.359   116282986.813          45.000                                                  
C39  25495773.545   132763144.0181         33.000                                                  
> 2026 06 07 17 39 33.0000000  0 13                     
C01  38578133.538   200886576.979          39.000                                                  
C02  36993191.639   192633206.014          38.000                                                  
C03  37024070.186   192794049.500          35.000                                                  
C07  37144817.232   193422804.461          35.000                                                  
C08  37616442.575   195878720.908          47.000                                                  
C09  39517276.171   205777026.538          34.000    39517270.507   159119724.912          33.000  
C10  37280565.358   194129621.344          31.000    37280557.121   150113351.289          35.000  
C12  23981108.387   124875868.501          38.000                                                  
C19  22994344.932   119737543.409          33.000                                                  
C22  22928007.310   119392169.931          41.000                                                  
C30  24455321.003   127345316.250          48.000                                                  
C36  22329935.847   116277853.314          46.000                                                  
C39  25490660.002   132736515.131          35.000                                                  
> 2026 06 07 17 39 48.0000000  0 13                     
C01  38578103.393   200886419.899          39.000                                                  
C02  36993386.947   192634222.769          38.000                                                  
C03  37024210.494   192794779.615          34.000                                                  
C07  37144427.508   193420783.563          33.000                                                  
C08  37612062.002   195855911.012          48.000                                                  
C09  39522923.051   205806436.060          33.000    39522917.690   159142466.215          32.000  
C10  37280086.272   194127132.472          32.000    37280080.089   150111426.736          36.000  
C12  23990104.135   124922709.451          34.000                                                  
C19  23000615.244   119770215.0991         36.000                                                  
C22  22925661.554   119379960.171          41.000                                                  
C30  24448660.146   127310632.042          48.000                                                  
C36  22328954.498   116272741.513          46.000                                                  
C39  25485549.087   132709901.550          34.000                                                  
> 2026 06 07 17 40 03.0000000  0 13                     
C01  38578075.875   200886276.441          39.000                                                  
C02  36993584.775   192635253.108          37.000                                                  
C03  37024353.410   192795523.045          35.000                                                  
C07  37144037.142   193418765.273          31.000                                                  
C08  37607688.969   195833139.849          47.000                                                  
C09  39528572.521   205835856.338          33.000    39528566.588   159165215.760          29.000  
C10  37279606.810   194124641.040          32.000    37279602.539   150109500.259          37.000  
C12                                                                                                
C19                                                                                                
C22  22923342.923   119367888.229          43.000                                                  
C30  24442008.670   127275994.911          49.000                                                  
C36  22327981.851   116267675.075          45.000                                                  
C39  25480445.318   132683326.742          38.000                                                  
> 2026 06 07 17 40 18.0000000  0 13                     
C01  38578055.290   200886169.019          39.000                                                  
C02  36993789.518   192636319.403          38.000                                                  
C03  37024503.492   192796302.441          35.000                                                  
C07  37143652.475   193416772.359          31.000                                                  
C08  37603327.891   195810429.885          48.000                                                  
C09  39534228.889   205865309.473          32.000    39534221.687   159187990.977          28.000  
C10  37279131.494   194122169.746          32.000    37279128.617   150107589.264          37.000  
C12  24008131.728   125016664.5381         31.000                                                  
C19  23013299.445   119836281.482          33.000                                                  
C22  22921055.528   119355976.624          44.000                                                  
C30  24435370.614   127241427.665          47.000                                                  
C36  22327021.624   116262676.421          46.000                                                  
C39  25475354.487   132656813.175          38.000                                                  
> 2026 06 07 17 40 33.0000000  0 13                     
C01  38578024.019   200886006.003          39.000                                                  
C02  36993983.630   192637330.051          37.000                                                  
C03  37024642.638   192797026.026          35.000                                                  
C07  37143255.586   193414713.049          31.000                                                  
C08  37598961.059   195787689.538          48.000                                                  
C09  39539874.356   205894704.023          29.000    39539861.526   159210599.5731         30.000  
C10  37278642.473   194119626.737          31.000    37278640.739   150105622.888          38.000  
C12  24017145.739   125063607.446          35.000                                                  
C19                                                                                                
C22  22918781.569   119344133.721          44.000                                                  
C30  24428728.252   127206838.948          47.000                                                  
C36  22326057.054   116257653.670          47.000                                                  
C39  25470257.492   132630269.201          33.000                                                  
> 2026 06 07 17 40 48.0000000  0 13                     
C01  38577994.517   200885852.555          38.000                                                  
C02  36994179.510   192638350.173          38.000                                                  
C03  37024783.678   192797758.996          36.000                                                  
C07  37142859.591   193412652.486          32.000                                                  
C08  37594600.714   195764984.061          47.000                                                  
C09                                                  39545511.104   159233334.075          33.000  
C10  37278152.057   194117077.284          30.000    37278151.200   150103651.553          37.000  
C12  24026167.344   125110595.285          35.000                                                  
C19  23026053.871   119902712.755          34.000                                                  
C22  22916533.539   119332424.831          45.000                                                  
C30  24422094.359   127172294.244          46.000                                                  
C36  22325100.454   116252671.960          47.000                                                  
C39  25465166.178   132603759.858          38.000                                                  
> 2026 06 07 17 41 03.0000000  0 13                     
C01  38577963.979   200885693.560          39.000                                                  
C02  36994374.336   192639364.706          38.000                                                  
C03  37024923.486   192798486.242          36.000                                                  
C07  37142461.416   193410575.720          33.000                                                  
C08  37590243.907   195742298.336          46.000                                                  
C09                                                  39551157.947   159256061.795          36.000  
C10  37277658.336   194114506.372          30.000    37277657.175   150101663.531          37.000  
C12  24035194.363   125157612.254          31.000                                                  
C19                                                                                                
C22  22914308.488   119320834.924          45.000                                                  
C30  24415465.631   127137778.744          47.000                                                  
C36  22324148.535   116247716.128          45.000                                                  
C39  25460079.385   132577269.887          37.000                                                  
> 2026 06 07 17 41 18.0000000  0 13                     
C01  38577929.903   200885516.230          38.000                                                  
C02  36994565.624   192640360.784          38.000                                                  
C03  37025059.790   192799194.959          36.000                                                  
C07  37142057.647   193408469.880          33.000                                                  
C08  37585888.279   195719619.706          46.000                                                  
C09                                                  39556800.485   159278772.603          38.000  
C10  37277158.325   194111901.107          30.000    37277156.306   150099649.090          37.000  
C12  24044227.333   125204646.004          37.000                                                  
C19  23038817.928   119969179.709          32.000                                                  
C22  22912103.933   119309351.306          45.000                                                  
C30  24408840.351   127103279.881          47.000                                                  
C36  22323198.886   116242773.280          45.000                                                  
C39  25454993.272   132550786.616          34.000                                                  
> 2026 06 07 17 41 33.0000000  0 13                     
C01  38577898.185   200885351.377          39.000                                                  
C02  36994759.235   192641369.228          37.000                                                  
C03  37025198.365   192799915.990          36.000                                                  
C07  37141654.057   193406366.017          32.000                                                  
C08  37581540.031   195696978.971          47.000                                                  
C09                                                  39562443.593   159301490.365          38.000  
C10  37276658.064   194109292.449          32.000    37276654.830   150097631.933          37.000  
C12  24053268.022   125251726.467          34.000                                                  
C19  23045247.435   120002654.392          36.000                                                  
C22  22909925.557   119298004.855          44.000                                                  
C30  24402224.023   127068828.890          44.000                                                  
C36  22322258.010   116237874.124          47.000                                                  
C39  25449914.824   132524340.616          35.000                                                  
> 2026 06 07 17 41 48.0000000  0 13                     
C01  38577868.255   200885195.462          38.000                                                  
C02  36994954.543   192642386.625          38.000                                                  
C03  37025338.547   192800645.742          36.000                                                  
C07  37141250.182   193404260.395          33.000                                                  
C08  37577198.609   195674372.733          47.000                                                  
C09                                                  39568087.131   159324212.214          39.000  
C10  37276156.409   194106676.874          33.000    37276152.192   150095609.359          38.000  
C12  24062317.503   125298850.168          38.000                                                  
C19  23051699.171   120036227.093          37.000                                                  
C22  22907772.643   119286792.165          43.000                                                  
C30  24395615.737   127034422.537          45.000                                                  
C36  22321325.086   116233015.013          46.000                                                  
C39  25444844.256   132497928.326          34.000                                                  
> 2026 06 07 17 42 03.0000000  0 13                     
C01  38577839.092   200885043.865          38.000                                                  
C02  36995150.656   192643408.186          38.000                                                  
C03  37025479.623   192801379.640          37.000                                                  
C07  37140845.145   193402148.542          33.000                                                  
C08  37572862.851   195651796.355          47.000                                                  
C09                                                  39573730.151   159346934.590          39.000  
C10  37275652.646   194104049.734          35.000    37275647.624   150093577.919          39.000  
C12  24071374.471   125346012.043          38.000                                                  
C19  23058164.291   120069893.072          34.000                                                  
C22  22905643.567   119275708.682          40.000                                                  
C30  24389015.885   127000056.434          46.000                                                  
C36  22320398.595   116228191.256          46.000                                                  
C39                                                                                                
> 2026 06 07 17 42 18.0000000  0 13                     
C01  38577812.343   200884904.647          38.000                                                  
C02  36995349.145   192644442.062          37.000                                                  
C03  37025623.004   192802125.693          36.000                                                  
C07  37140440.501   193400038.663          32.000                                                  
C08  37568534.563   195629258.022          47.000                                                  
C09  39579366.845   206100110.8361         31.000    39579374.296   159369663.590          38.000  
C10  37275147.935   194101419.082          35.000    37275142.681   150091543.802          40.000  
C12  24080441.159   125393219.837          42.000                                                  
C19  23064648.530   120103660.114          38.000                                                  
C22  22903539.900   119264762.445          39.000                                                  
C30  24382425.664   126965739.015          46.000                                                  
C36  22319480.646   116223410.812          47.000                                                  
C39                                                                                                
> 2026 06 07 17 42 33.0000000  0 13                     
C01  38577785.414   200884764.859          39.000                                                  
C02  36995547.544   192645475.318          37.000                                                  
C03  37025766.010   192802871.074          36.000                                                  
C07  37140033.909   193397917.746          30.000                                                  
C08  37564211.170   195606744.839          47.000                                                  
C09  39585011.651   206129499.844          35.000    39585017.030   159392389.116          36.000  
C10  37274639.651   194098772.094          35.000    37274634.683   150089496.974          41.000  
C12  24089515.478   125440460.437          42.000                                                  
C19  23071149.942   120137515.240          40.000                                                  
C22  22901461.090   119253940.696          41.000                                                  
C30  24375842.412   126931457.664          46.000                                                  
C36  22318568.825   116218660.662          47.000                                                  
C39                                                                                                
> 2026 06 07 17 42 48.0000000  0 13                     
C01  38577756.698   200884615.519          38.000                                                  
C02  36995744.068   192646498.924          37.000                                                  
C03  37025907.247   192803606.636          36.000                                                  
C07  37139623.922   193395776.736          29.000                                                  
C08  37559890.959   195584247.832          48.000                                                  
C09  39590654.474   206158875.284          36.000    39590656.922   159415104.101          35.000  
C10  37274126.220   194096099.756          36.000    37274121.878   150087430.579          41.000  
C12  24098597.659   125487724.389          36.000                                                  
C19  23077667.114   120171449.051          44.000                                                  
C22  22899405.384   119243234.493          43.000                                                  
C30  24369264.503   126897203.698          45.000                                                  
C36  22317661.025   116213931.736          48.000                                                  
C39                                                                                                
> 2026 06 07 17 43 03.0000000  0 13                     
C01  38577723.283   200884441.680          38.000                                                  
C02  36995935.963   192647497.967          37.000                                                  
C03  37026043.587   192804317.539          36.000                                                  
C07                                                                                                
C08  37555571.248   195561752.095          48.000                                                  
C09  39596291.347   206188222.202          36.000    39596291.258   159437796.988          33.000  
C10  37273604.873   194093387.133          37.000    37273601.174   150085333.001          41.000  
C12  24107665.331   125534925.0861         34.000                                                  
C19  23084195.562   120205446.240          42.000                                                  
C22  22897369.477   119232628.975          43.000                                                  
C30  24362688.810   126862962.498          44.000                                                  
C36  22316754.619   116209208.945          48.000                                                  
C39                                                                                                
> 2026 06 07 17 43 18.0000000  0 13                     
C01  38577695.908   200884299.197          38.000                                                  
C02  36996133.773   192648528.191          37.000                                                  
C03  37026186.093   192805059.507          36.000                                                  
C07  37138812.025   193391548.0481         29.000                                                  
C08  37551262.579   195539313.604          48.000                                                  
C09  39601931.883   206217596.284          34.000    39601930.846   159460510.786          31.000  
C10  37273086.672   194090690.155          39.000    37273083.312   150083247.490          40.000  
C12  24116759.341   125582260.874          39.000                                                  
C19  23090746.900   120239562.485          43.000                                                  
C22  22895363.554   119222180.119          43.000                                                  
C30  24356126.554   126828790.154          45.000                                                  
C36  22315859.703   116204548.124          47.000                                                  
C39  25414519.149   132340067.1521         33.000                                                  
> 2026 06 07 17 43 33.0000000  0 13                     
C01  38577670.873   200884168.972          38.000                                                  
C02  36996333.960   192649570.688          37.000                                                  
C03  37026330.796   192805813.701          37.000                                                  
C07  37138398.947   193389395.116          31.000                                                  
C08  37546960.844   195516913.358          47.000                                                  
C09  39607572.669   206246978.368          31.000    39607572.436   159483230.907          32.000  
C10  37272568.113   194087989.643          40.000    37272564.557   150081159.331          40.000  
C12  24125858.748   125629641.056          43.000                                                  
C19  23097317.857   120273778.533          43.000                                                  
C22  22893383.648   119211868.884          44.000                                                  
C30  24349573.876   126794668.018          43.000                                                  
C36  22314973.221   116199930.112          47.000                                                  
C39  25409484.051   132313852.850          38.000                                                  
> 2026 06 07 17 43 48.0000000  0 13                     
C01  38577640.174   200884009.225          38.000                                                  
C02  36996528.375   192650583.535          37.000                                                  
C03  37026469.906   192806538.085          36.000                                                  
C07  37137977.399   193387202.346          33.000                                                  
C08  37542657.948   195494509.542          46.000                                                  
C09                                                  39613208.148   159505924.727          34.000  
C10  37272041.012   194085243.945          41.000    37272036.831   150079036.115          39.000  
C12  24134958.834   125677023.477          45.000                                                  
C19  23103900.269   120308052.173          44.000                                                  
C22  22891421.969   119201653.505          44.000                                                  
C30  24343021.913   126760554.495          43.000                                                  
C36  22314086.899   116195312.975          46.000                                                  
C39  25404448.757   132287633.456          36.000                                                  
> 2026 06 07 17 44 03.0000000  0 13                     
C01  38577611.530   200883860.213          38.000                                                  
C02  36996724.809   192651606.907          37.000                                                  
C03  37026610.929   192807272.934          36.000                                                  
C07  37137556.029   193385010.037          34.000                                                  
C08  37538361.949   195472142.425          46.000                                                  
C09  39618899.324   206305954.4461         31.000    39618845.270   159528623.453          36.000  
C10  37271513.018   194082493.196          41.000    37271507.961   150076909.048          38.000  
C12  24144066.532   125724448.034          43.000                                                  
C19  23110501.015   120342423.417          43.000                                                  
C22  22889486.164   119191574.337          43.000                                                  
C30  24336479.528   126726490.081          42.000                                                  
C36  22313207.850   116190736.913          44.000                                                  
C39  25399419.163   132261449.033          31.000                                                  
> 2026 06 07 17 44 18.0000000  0 13                     
C01  38577579.741   200883695.168          38.000                                                  
C02  36996918.241   192652614.235          37.000                                                  
C03  37026748.913   192807991.590          36.000                                                  
C07  37137129.406   193382791.401          31.000                                                  
C08  37534067.951   195449785.392          46.000                                                  
C09  39624545.703   206335288.389          34.000    39624478.980   159551306.305          36.000  
C10  37270979.020   194079710.840          41.000    37270973.070   150074757.520          37.000  
C12  24153175.767   125771887.746          39.000                                                  
C19  23117115.162   120376865.248          44.000                                                  
C22  22887571.337   119181604.742          42.000                                                  
C30  24329941.824   126692448.502          40.000                                                  
C36  22312331.411   116186175.134          44.000                                                  
C39                                                                                                
> 2026 06 07 17 44 33.0000000  0 14                     
C01  38577555.261   200883567.991          38.000                                                  
C02  36997119.018   192653659.349          37.000                                                  
C03  37026894.206   192808747.942          36.000                                                  
C07                                                                                                
C08  37529786.390   195427492.428          46.000                                                  
C09  39630188.758   206364655.455          31.000    39630119.391   159574014.716          36.000  
C10  37270449.275   194076950.733          41.000    37270442.646   150072623.201          37.000  
C11  25713758.989   133898110.663          29.000                                                  
C12  24162298.367   125819396.213          39.000                                                  
C19  23123753.022   120411431.395          42.000                                                  
C22  22885687.621   119171798.701          39.000                                                  
C30  24323418.559   126658483.994          40.000                                                  
C36  22311468.176   116181681.359          46.000                                                  
C39                                                                                                
> 2026 06 07 17 44 48.0000000  0 14                     
C01  38577529.047   200883431.791          37.000                                                  
C02  36997317.918   192654695.339          37.000                                                  
C03  37027037.302   192809495.018          37.000                                                  
C07  37136252.609   193378208.4971         27.000                                                  
C08  37525508.225   195405216.612          46.000                                                  
C09  39635758.068   206393793.6031         35.000    39635757.461   159596712.529          37.000  
C10  37269914.724   194074165.952          41.000    37269907.790   150070469.809          37.000  
C11  25705922.761   133857478.6751         35.000                                                  
C12  24171426.722   125866926.252          40.000                                                  
C19  23130405.481   120446074.487          42.000                                                  
C22  22883826.383   119162109.256          37.000                                                  
C30  24316901.511   126624549.819          42.000                                                  
C36  22310609.087   116177208.642          47.000                                                  
C39  25384361.188   132183028.1631         28.000                                                  
> 2026 06 07 17 45 03.0000000  0 14                     
C01  38577490.396   200883230.896          38.000                                                  
C02  36997504.417   192655666.529          37.000                                                  
C03  37027167.853   192810177.246          36.000                                                  
C07  37135823.449   193375971.604          29.000                                                  
C08  37521222.983   195382902.414          46.000                                                  
C09  39641381.289   206423077.318          36.000    39641382.254   159619356.546          39.000  
C10  37269364.536   194071300.930          39.000    37269357.657   150068254.390          37.000  
C11  25698145.841   133816976.005          39.000                                                  
C12  24180548.787   125914421.916          38.000                                                  
C19  23137061.817   120480738.876          40.000                                                  
C22  22881977.065   119152480.926          35.000                                                  
C30  24310380.801   126590590.609          41.000                                                  
C36  22309743.547   116172701.261          50.000                                                  
C39  25379344.370   132156882.609          28.000                                                  
> 2026 06 07 17 45 18.0000000  0 14                     
C01  38577456.499   200883054.810          38.000                                                  
C02  36997695.615   192656662.432          36.000                                                  
C03  37027303.264   192810883.985          36.000                                                  
C07                                                                                                
C08  37516947.980   195360639.316          47.000                                                  
C09  39647008.477   206452380.790          34.000    39647010.710   159642015.910          41.000  
C10  37268815.922   194068445.147          39.000    37268809.399   150066046.083          37.000  
C11  25690369.957   133776482.645          42.000                                                  
C12  24189680.644   125961972.382          31.000                                                  
C19  23143737.612   120515513.416          38.000                                                  
C22  22880157.462   119143003.237          35.000                                                  
C30  24303871.509   126556696.379          41.000                                                  
C36  22308888.711   116168248.544          50.000                                                  
C39                                                                                                
> 2026 06 07 17 45 33.0000000  0 14                     
C01  38577424.567   200882888.579          38.000                                                  
C02  36997888.672   192657668.105          36.000                                                  
C03  37027440.427   192811600.431          36.000                                                  
C07                                                                                                
C08  37512680.035   195338412.458          48.000                                                  
C09  39652636.093   206481689.049          30.000    39652640.060   159664679.032          40.000  
C10  37268266.253   194065583.676          38.000    37268260.159   150063833.383          37.000  
C11  25682593.322   133735983.946          41.000                                                  
C12                                                                                                
C19  23150433.814   120550383.230          43.000                                                  
C22  22878363.483   119133661.197          33.000                                                  
C30  24297372.528   126522852.217          45.000                                                  
C36  22308041.380   116163835.527          50.000                                                  
C39  25369334.251   132104767.043          33.000                                                  
> 2026 06 07 17 45 48.0000000  0 14                     
C01  38577394.136   200882730.387          38.000                                                  
C02  36998083.194   192658681.728          36.000                                                  
C03  37027579.001   192812324.777          36.000                                                  
C07  37134525.622   193369192.658          32.000                                                  
C08  37508418.559   195316220.144          48.000                                                  
C09  39658264.317   206511000.402          30.000    39658269.982   159687344.519          38.000  
C10  37267715.333   194062714.743          37.000    37267709.400   150061614.970          37.000  
C11  25674814.830   133695478.402          40.000                                                  
C12  24207976.450   126057276.4091         37.000                                                  
C19  23157148.421   120585346.102          44.000                                                  
C22  22876595.254   119124453.215          36.000                                                  
C30  24290883.696   126489056.830          44.000                                                  
C36  22307201.053   116159460.328          49.000                                                  
C39  25364334.927   132078742.292          29.000                                                  
> 2026 06 07 17 46 03.0000000  0 14                     
C01  38577366.457   200882586.386          37.000                                                  
C02  36998280.451   192659709.410          36.000                                                  
C03  37027720.256   192813063.055          36.000                                                  
C07  37134090.958   193366924.683          36.000                                                  
C08  37504164.785   195294068.470          49.000                                                  
C09  39663894.882   206540320.629          33.000    39663901.404   159710016.900          38.000  
C10  37267164.252   194059844.458          36.000    37267158.194   150059395.447          36.000  
C11  25667036.033   133654972.353          41.000                                                  
C12  24217128.875   126104947.225          38.000                                                  
C19  23163882.255   120620407.817          44.000                                                  
C22  22874854.561   119115385.539          38.000                                                  
C30  24284405.049   126455316.651          43.000                                                  
C36  22306369.125   116155128.943          49.000                                                  
C39  25359342.322   132052755.383          33.000                                                  
> 2026 06 07 17 46 18.0000000  0 14                     
C01  38577337.330   200882434.847          38.000                                                  
C02  36998476.188   192660729.459          36.000                                                  
C03  37027859.813   192813793.598          36.000                                                  
C07  37133652.434   193364639.271          37.000                                                  
C08  37499914.673   195271935.812          49.000                                                  
C09  39669523.267   206569628.036          34.000    39669529.718   159732679.256          36.000  
C10  37266608.740   194056951.229          36.000    37266602.236   150057158.210          36.000  
C11  25659253.019   133614444.416          40.000                                                  
C12  24226284.783   126152639.099          33.000                                                  
C19  23170632.511   120655546.513          44.000                                                  
C22  22873136.937   119106436.464          40.000                                                  
C30  24277932.460   126421610.277          41.000                                                  
C36  22305541.486   116150819.600          49.000                                                  
C39  25354354.327   132026784.568          37.000                                                  
> 2026 06 07 17 46 33.0000000  0 14                     
C01  38577309.419   200882289.761          38.000                                                  
C02  36998673.122   192661755.815          36.000                                                  
C03  37028000.817   192814530.311          36.000                                                  
C07  37133212.945   193362350.427          38.000                                                  
C08  37495670.870   195249836.227          49.000                                                  
C09  39675151.187   206598936.464          30.000    39675157.441   159755342.404          33.000  
C10  37266051.655   194054048.993          36.000    37266044.222   150054913.979          35.000  
C11  25651468.290   133573908.868          38.000                                                  
C12  24235448.948   126200365.963          36.000                                                  
C19  23177398.849   120690775.722          34.000                                                  
C22  22871444.383   119097620.040          41.000                                                  
C30  24271468.913   126387951.968          40.000                                                  
C36  22304720.869   116146546.187          49.000                                                  
C39  25349372.944   132000843.960          37.000                                                  
> 2026 06 07 17 46 48.0000000  0 14                     
C01  38577279.881   200882136.103          37.000                                                  
C02  36998868.484   192662773.553          35.000                                                  
C03  37028140.017   192815258.306          36.000                                                  
C07  37132769.418   193360043.238          37.000                                                  
C08  37491430.515   195227754.773          49.000                                                  
C09                                                  39680781.555   159777994.684          29.000  
C10  37265490.032   194051122.786          36.000    37265481.651   150052651.250          35.000  
C11  25643679.790   133533351.004          40.000                                                  
C12  24244617.454   126248112.576          39.000                                                  
C19  23184176.659   120726080.195          37.000                                                  
C22  22869774.202   119088921.328          41.000                                                  
C30  24265011.620   126354326.939          41.000                                                  
C36  22303904.379   116142293.644          47.000                                                  
C39  25344394.455   131974918.454          35.000                                                  
> 2026 06 07 17 47 03.0000000  0 14                     
C01  38577250.183   200881981.525          38.000                                                  
C02  36999063.525   192663790.235          35.000                                                  
C03  37028279.074   192815985.156          37.000                                                  
C07  37132322.514   193357725.299          35.000                                                  
C08  37487195.127   195205699.142          49.000                                                  
C09                                                                                                
C10  37264925.299   194048180.290          35.000    37264915.989   150050375.858          36.000  
C11  25635889.272   133492778.713          39.000                                                  
C12  24253790.892   126295886.034          36.000                                                  
C19  23190972.355   120761467.415          41.000                                                  
C22  22868127.875   119080347.949          38.000                                                  
C30  24258562.475   126320743.268          40.000                                                  
C36  22303093.072   116138069.547          46.000                                                  
C39  25339420.398   131949015.684          31.000                                                  
> 2026 06 07 17 47 18.0000000  0 14                     
C01  38577223.540   200881842.857          37.000                                                  
C02  36999261.585   192664822.700          35.000                                                  
C03  37028421.043   192816727.711          36.000                                                  
C07  37131876.271   193355413.467          34.000                                                  
C08  37482967.888   195183686.220          49.000                                                  
C09                                                  39692024.888   159823333.0291         31.000  
C10  37264360.781   194045238.291          34.000    37264350.721   150048100.936          38.000  
C11  25628098.896   133452209.143          39.000                                                  
C12  24262972.872   126343703.012          35.000                                                  
C19  23197788.566   120796953.950          43.000                                                  
C22  22866509.084   119071916.796          35.000                                                  
C30  24252124.213   126287218.071          38.000                                                  
C36  22302290.110   116133890.582          47.000                                                  
C39                                                                                                
> 2026 06 07 17 47 33.0000000  0 14                     
C01  38577190.751   200881672.077          37.000                                                  
C02  36999453.534   192665822.982          35.000                                                  
C03  37028557.044   192817437.905          35.000                                                  
C07  37131422.987   193353059.820          36.000                                                  
C08  37478739.559   195161668.047          50.000                                                  
C09  39697653.630   206716151.9621         31.000    39697663.440   159846044.0251         30.000  
C10  37263787.310   194042248.893          32.000    37263776.482   150045789.307          38.000  
C11  25620299.853   133411594.515          40.000                                                  
C12  24272153.815   126391515.402          35.000                                                  
C19  23204614.121   120832491.493          43.000                                                  
C22                                                                                                
C30  24245686.933   126253703.718          38.000                                                  
C36  22301486.861   116129708.680          48.000                                                  
C39                                                                                                
> 2026 06 07 17 47 48.0000000  0 14                     
C01  38577158.283   200881503.191          37.000                                                  
C02  36999645.894   192666825.062          35.000                                                  
C03  37028693.331   192818149.812          35.000                                                  
C07  37130969.007   193350698.515          37.000                                                  
C08  37474516.752   195139678.623          50.000                                                  
C09  39703271.454   206745408.128          33.000    39703266.326   159868666.933          31.000  
C10  37263210.981   194039246.011          29.000    37263199.848   150043467.295          39.000  
C11  25612498.113   133370969.139          37.000                                                  
C12  24281338.546   126439356.596          27.000                                                  
C19  23211455.688   120868113.638          43.000                                                  
C22  22863333.116   119055386.0321         32.000                                                  
C30  24239259.070   126220234.350          41.000                                                  
C36  22300689.921   116125557.691          49.000                                                  
C39                                                                                                
> 2026 06 07 17 48 03.0000000  0 14                     
C01  38577129.889   200881355.444          37.000                                                  
C02  36999842.114   192667848.097          34.000                                                  
C03  37028833.710   192818882.625          36.000                                                  
C07  37130517.510   193348348.611          37.000                                                  
C08  37470303.111   195117737.282          50.000                                                  
C09  39708891.494   206774679.566          32.000    39708887.760   159891301.479          30.000  
C10                                                  37262624.466   150041149.843          40.000  
C11  25604697.302   133330352.478          40.000                                                  
C12                                                                                                
C19  23218317.464   120903839.451          41.000                                                  
C22  22861784.372   119047325.186          35.000                                                  
C30  24232844.323   126186829.556          43.000                                                  
C36  22299902.451   116121456.849          48.000                                                  
C39                                                                                                
> 2026 06 07 17 48 18.0000000  0 14                     
C01  38577101.066   200881205.520          37.000                                                  
C02  37000038.066   192668868.870          34.000                                                  
C03  37028973.625   192819613.081          35.000                                                  
C07  37130063.744   193345987.061          35.000                                                  
C08  37466094.224   195095820.843          51.000                                                  
C09  39714509.497   206803942.737          30.000    39714507.817   159913929.596          33.000  
C10                                                  37262045.849   150038818.929          41.000  
C11  25596894.650   133289721.571          42.000                                                  
C12  24299750.180   126535162.4951         34.000                                                  
C19  23225193.017   120939645.273          39.000                                                  
C22  22860258.965   119039388.782          33.000                                                  
C30  24226437.939   126153466.398          42.000                                                  
C36  22299120.056   116117382.770          49.000                                                  
C39  25314611.529   131819788.0591         30.000                                                  
> 2026 06 07 17 48 33.0000000  0 14                     
C01  38577069.045   200881038.672          36.000                                                  
C02  37000230.729   192669872.636          35.000                                                  
C03  37029110.269   192820326.383          35.000                                                  
C07  37129604.689   193343598.917          32.000                                                  
C08  37461887.195   195073914.503          51.000                                                  
C09  39720123.533   206833182.756          31.000    39720123.748   159936539.949          38.000  
C10                                                  37261461.193   150036463.078          42.000  
C11  25589086.905   133249061.956          41.000                                                  
C12  24308955.961   126583084.880          34.000                                                  
C19  23232080.239   120975515.943          41.000                                                  
C22  22858754.357   119031562.011          34.000                                                  
C30  24220036.147   126120130.413          42.000                                                  
C36  22298339.983   116113320.549          48.000                                                  
C39  25309664.490   131794013.377          32.000                                                  
> 2026 06 07 17 48 48.0000000  0 14                     
C01  38577037.542   200880874.912          36.000                                                  
C02  37000423.804   192670879.301          34.000                                                  
C03  37029247.610   192821042.527          36.000                                                  
C07  37129144.097   193341204.437          32.000                                                  
C08  37457686.026   195052038.395          51.000                                                  
C09  39725737.641   206862419.769          34.000    39725738.981   159959147.889          40.000  
C10  37260885.202   194027197.7171         32.000    37260874.195   150034097.911          42.000  
C11  25581277.052   133208393.912          42.000                                                  
C12  24318170.373   126631036.348          29.000                                                  
C19  23238985.634   121011471.574          46.000                                                  
C22  22857274.945   119023865.090          33.000                                                  
C30  24213643.236   126086841.985          41.000                                                  
C36  22297566.022   116109290.235          47.000                                                  
C39  25304719.917   131768264.963          32.000                                                  
> 2026 06 07 17 49 03.0000000  0 14                     
C01  38577007.272   200880717.386          37.000                                                  
C02  37000618.219   192671892.101          34.000                                                  
C03  37029386.077   192821764.666          35.000                                                  
C07  37128682.487   193338806.796          31.000                                                  
C08  37453491.434   195030195.669          52.000                                                  
C09  39731351.945   206891656.624          37.000    39731353.875   159981755.714          41.000  
C10  37260296.615   194024130.094          33.000    37260285.429   150031725.827          42.000  
C11  25573466.270   133167720.834          41.000                                                  
C12  24327366.898   126678878.0541         35.000                                                  
C19  23245907.789   121047514.784          46.000                                                  
C22  22855820.174   119016300.970          29.000                                                  
C30  24207259.313   126053604.536          43.000                                                  
C36  22296798.548   116105294.797          47.000                                                  
C39  25299780.633   131742546.005          35.000                                                  
> 2026 06 07 17 49 18.0000000  0 14                     
C01  38576976.501   200880557.322          37.000                                                  
C02  37000812.044   192672902.281          34.000                                                  
C03  37029524.008   192822484.110          35.000                                                  
C07  37128218.768   193336397.068          30.000                                                  
C08  37449301.827   195008377.629          53.000                                                  
C09  39736964.194   206920884.582          37.000    39736966.606   160004356.688          40.000  
C10  37259704.257   194021044.791          33.000    37259693.196   150029340.064          42.000  
C11  25565652.879   133127034.352          39.000                                                  
C12  24336588.976   126726883.808          38.000                                                  
C19  23252845.062   121083636.542          45.000                                                  
C22                                                                                                
C30  24200883.681   126020409.546          45.000                                                  
C36  22296036.255   116101325.378          46.000                                                  
C39  25294845.370   131716847.419          38.000                                                  
> 2026 06 07 17 49 33.0000000  0 14                     
C01  38576946.696   200880402.431          38.000                                                  
C02  37001006.853   192673917.419          34.000                                                  
C03  37029662.994   192823208.430          35.000                                                  
C07  37127754.942   193333983.178          31.000                                                  
C08  37445118.510   194986592.031          52.000                                                  
C09  39742575.818   206950111.022          36.000    39742578.784   160026956.535          39.000  
C10  37259110.040   194017949.547          33.000    37259098.943   150026946.571          42.000  
C11  25557838.487   133086342.237          40.000                                                  
C12  24345816.289   126774919.701          36.000                                                  
C19  23259800.580   121119844.373          39.000                                                  
C22                                                                                                
C30  24194518.289   125987265.006          44.000                                                  
C36  22295280.485   116097389.648          44.000                                                  
C39  25289914.985   131691176.968          37.000                                                  
> 2026 06 07 17 49 48.0000000  0 14                     
C01  38576916.175   200880243.510          38.000                                                  
C02  37001200.714   192674928.492          34.000                                                  
C03  37029801.085   192823928.557          35.000                                                  
C07  37127289.132   193331555.951          33.000                                                  
C08  37440939.464   194964829.786          52.000                                                  
C09  39748185.208   206979326.808          34.000    39748188.764   160049548.068          38.000  
C10  37258511.857   194014835.204          34.000    37258500.885   150024538.371          41.000  
C11  25550021.415   133045635.792          37.000                                                  
C12  24355048.963   126822976.251          35.000                                                  
C19  23266773.162   121156128.856          35.000                                                  
C22                                                                                                
C30  24188160.919   125954162.160          45.000                                                  
C36  22294529.432   116093478.274          44.000                                                  
C39  25284988.066   131665525.372          34.000                                                  
> 2026 06 07 17 50 03.0000000  0 14                     
C01  38576886.727   200880090.482          37.000                                                  
C02  37001395.879   192675945.305          35.000                                                  
C03  37029940.249   192824654.308          34.000                                                  
C07  37126823.501   193329125.345          35.000                                                  
C08  37436766.583   194943100.849          52.000                                                  
C09  39753794.973   207008541.847          33.000    39753798.565   160072139.090          38.000  
C10  37257911.600   194011711.714          35.000    37257900.915   150022123.038          41.000  
C11  25542201.895   133004925.318          37.000                                                  
C12  24364290.071   126871062.989          33.000                                                  
C19  23273758.449   121192499.423          36.000                                                  
C22  22850283.672   118987393.3271         31.000                                                  
C30  24181813.663   125921111.137          45.000                                                  
C36  22293785.080   116089601.173          44.000                                                  
C39  25280066.723   131639902.664          31.000                                                  
> 2026 06 07 17 50 18.0000000  0 14                     
C01  38576855.671   200879928.961          37.000                                                  
C02  37001589.311   192676953.441          34.000                                                  
C03  37030077.859   192825371.388          34.000                                                  
C07  37126355.261   193326676.946          35.000                                                  
C08  37432597.168   194921390.862          51.000                                                  
C09  39759402.844   207037741.526          33.000    39759405.453   160094718.274          37.000  
C10  37257306.841   194008564.641          36.000    37257296.316   150019689.506          40.000  
C11  25534379.927   132964196.422          40.000                                                  
C12                                                                                                
C19  23280755.904   121228941.333          39.000                                                  
C22  22848953.341   118980459.579          36.000                                                  
C30  24175473.966   125888097.871          47.000                                                  
C36  22293044.641   116085743.869          45.000                                                  
C39  25275148.542   131614294.263          33.000                                                  
> 2026 06 07 17 50 33.0000000  0 14                     
C01  38576823.274   200879760.439          38.000                                                  
C02  37001781.278   192677954.491          34.000                                                  
C03  37030213.949   192826081.201          35.000                                                  
C07  37125884.377   193324212.298          33.000                                                  
C08  37428431.577   194899701.363          51.000                                                  
C09  39765008.839   207066927.371          35.000    39765009.840   160117286.794          36.000  
C10  37256697.954   194005395.507          36.000    37256687.447   150017238.915          40.000  
C11  25526555.135   132923451.011          40.000                                                  
C12  24382780.847   126967558.8471         33.000                                                  
C19  23287770.372   121265455.997          37.000                                                  
C22  22847640.575   118973645.886          39.000                                                  
C30  24169142.346   125855124.162          47.000                                                  
C36  22292307.759   116081907.753          45.000                                                  
C39  25270236.062   131588701.441          34.000                                                  
> 2026 06 07 17 50 48.0000000  0 14                     
C01  38576791.378   200879594.399          38.000                                                  
C02  37001973.567   192678958.006          34.000                                                  
C03  37030350.361   192826793.323          35.000                                                  
C07  37125413.117   193321740.971          27.000                                                  
C08  37424271.793   194878042.006          51.000                                                  
C09  39770614.227   207096108.805          37.000    39770613.405   160139851.754          34.000  
C10  37256086.619   194002213.940          35.000    37256076.184   150014778.755          39.000  
C11  25518728.842   132882698.894          41.000                                                  
C12  24392024.385   127015703.752          33.000                                                  
C19  23294803.387   121302052.446          30.000                                                  
C22  22846351.790   118966961.771          39.000                                                  
C30  24162819.696   125822199.968          46.000                                                  
C36  22291576.773   116078102.288          47.000                                                  
C39  25265329.461   131563133.850          30.000                                                  
> 2026 06 07 17 51 03.0000000  0 14                     
C01  38576758.285   200879422.524          37.000                                                  
C02  37002164.837   192679955.395          33.000                                                  
C03  37030485.844   192827499.414          34.000                                                  
C07                                                                                                
C08  37420116.370   194856404.367          51.000                                                  
C09  39776216.612   207125277.348          37.000    39776214.450   160162406.857          30.000  
C10  37255471.246   193999011.605          33.000    37255460.953   150012302.461          38.000  
C11  25510899.512   132841932.000          41.000                                                  
C12  24401271.068   127063866.089          33.000                                                  
C19  23301809.616   121338615.6971         28.000                                                  
C22  22845086.985   118960398.764          39.000                                                  
C30  24156504.605   125789317.077          47.000                                                  
C36  22290850.165   116074318.902          46.000                                                  
C39                                                                                                
> 2026 06 07 17 51 18.0000000  0 14                     
C01  38576725.942   200879254.469          38.000                                                  
C02  37002356.661   192680956.477          34.000                                                  
C03  37030621.828   192828209.000          34.000                                                  
C07                                                                                                
C08  37415967.147   194834798.205          51.000                                                  
C09  39781817.353   207154442.396          35.000                                                  
C10  37254853.353   193995798.052          29.000    37254843.489   150009817.552          37.000  
C11  25503069.235   132801160.253          42.000                                                  
C12  24410523.738   127112054.861          30.000                                                  
C19                                                                                                
C22  22843848.411   118953966.739          38.000                                                  
C30  24150199.877   125756485.501          47.000                                                  
C36  22290129.507   116070567.272          45.000                                                  
C39                                                                                                
> 2026 06 07 17 51 33.0000000  0 14                     
C01  38576694.385   200879090.255          38.000                                                  
C02  37002549.146   192681961.318          34.000                                                  
C03  37030758.704   192828922.175          34.000                                                  
C07  37123975.393   193314257.0011         30.000                                                  
C08  37411823.910   194813223.610          50.000                                                  
C09  39787416.773   207183603.923          33.000                                                  
C10                                                  37254223.827   150007324.100          36.000  
C11  25495238.940   132760383.970          44.000                                                  
C12                                                                                                
C19  23315961.507   121412397.285          34.000                                                  
C22  22842636.159   118947665.752          37.000                                                  
C30  24143904.728   125723705.610          47.000                                                  
C36  22289414.585   116066847.357          43.000                                                  
C39                                                                                                
> 2026 06 07 17 51 48.0000000  0 14                     
C01  38576660.541   200878914.137          38.000                                                  
C02  37002739.379   192682954.116          33.000                                                  
C03  37030893.204   192829623.224          33.000                                                  
C07  37123492.465   193311739.333          33.000                                                  
C08  37407683.550   194791664.943          49.000                                                  
C09  39793012.493   207212746.410          32.000                                                  
C10                                                  37253598.876   150004809.837          34.000  
C11  25487404.963   132719587.800          42.000                                                  
C12  24429032.382   127208431.3201         35.000                                                  
C19  23323049.166   121449298.265          40.000                                                  
C22  22841446.707   118941479.930          32.000                                                  
C30  24137616.762   125690961.935          48.000                                                  
C36  22288702.826   116063143.359          45.000                                                  
C39                                                                                                
> 2026 06 07 17 52 03.0000000  0 14                     
C01  38576631.647   200878763.937          38.000                                                  
C02  37002934.509   192683972.633          33.000                                                  
C03  37031032.654   192830350.042          32.000                                                  
C07  37123011.895   193309238.655          33.000                                                  
C08  37403553.430   194770159.986          49.000                                                  
C09  39798611.876   207241907.172          32.000                                                  
C10                                                  37252976.194   150002304.255          33.000  
C11  25479573.971   132678809.688          42.000                                                  
C12  24438300.884   127256704.684          33.000                                                  
C19  23330157.660   121486303.087          36.000                                                  
C22  22840282.505   118935361.1821         29.000                                                  
C30  24131343.251   125658292.554          49.000                                                  
C36  22288002.057   116059492.931          48.000                                                  
C39  25240842.163   131435663.0981         33.000                                                  
> 2026 06 07 17 52 18.0000000  0 14                     
C01  38576606.130   200878631.142          37.000                                                  
C02  37003133.034   192685008.512          33.000                                                  
C03  37031175.481   192831093.946          33.000                                                  
C07  37122532.380   193306746.430          33.000                                                  
C08  37399432.100   194748700.381          50.000                                                  
C09  39804213.207   207271077.884          31.000                                                  
C10                                                  37252354.227   149999800.663          32.000  
C11  25471744.730   132638041.596          42.000                                                  
C12  24447577.659   127305017.284          30.000                                                  
C19  23337284.362   121523402.897          29.000                                                  
C22  22839152.057   118929473.075          33.000                                                  
C30  24125082.339   125625689.403          49.000                                                  
C36  22287310.132   116055887.646          49.000                                                  
C39  25235964.241   131410263.553          34.000                                                  
> 2026 06 07 17 52 33.0000000  0 14                     
C01  38576574.573   200878466.812          37.000                                                  
C02  37003325.305   192686012.627          32.000                                                  
C03  37031312.215   192831806.135          34.000                                                  
C07  37122044.270   193304213.767          31.000                                                  
C08  37395310.360   194727237.130          49.000                                                  
C09                                                                                                
C10                                                  37251723.665   149997261.161          31.000  
C11  25463907.984   132597234.737          44.000                                                  
C12  24456853.701   127353319.566          32.000                                                  
C19                                                                                                
C22  22838040.496   118923680.820          39.000                                                  
C30  24118824.768   125593103.702          48.000                                                  
C36  22286617.243   116052278.383          49.000                                                  
C39  25231085.015   131384854.813          34.000                                                  
> 2026 06 07 17 52 48.0000000  0 14                     
C01  38576545.715   200878316.657          37.000                                                  
C02  37003520.309   192687030.751          32.000                                                  
C03  37031451.629   192832532.203          32.000                                                  
C07  37121556.821   193301686.463          29.000                                                  
C08  37391196.768   194705816.060          49.000                                                  
C09                                                  39815437.402   160320268.4711         28.000  
C10                                                  37251093.300   149994721.252          31.000  
C11  25456073.025   132556435.087          44.000                                                  
C12  24466135.765   127401657.222          36.000                                                  
C19  23351579.491   121597776.6871         33.000                                                  
C22  22836956.061   118918030.127          40.000                                                  
C30  24112579.241   125560581.576          48.000                                                  
C36  22285932.181   116048710.725          48.000                                                  
C39  25226213.294   131359482.084          27.000                                                  
