     3.04           OBSERVATION DATA    M: Mixed            RINEX VERSION / TYPE
CONVBIN EX 2.5.0                        20260619 115038 UTC PGM / RUN BY / DATE 
format: RTCM 3                                              COMMENT             
log: base_0608.rtcm3                                        COMMENT             
0000                                                        MARKER NAME         
                                                            MARKER NUMBER       
                                                            MARKER TYPE         
                                                            OBSERVER / AGENCY   
                    NONE                                    REC # / TYPE / VERS 
NONE                NONE                                    ANT # / TYPE        
  -493099.6505  5551400.7556  3092551.4870                  APPROX POSITION XYZ 
        0.0000        0.0000        0.0000                  ANTENNA: DELTA H/E/N
C   10 C2I L2I C7I L7I C5P L5P C6I L6I C1P L1P              SYS / # / OBS TYPES 
  2026    06    07    17    00   18.0000000     GPS         TIME OF FIRST OBS   
  2026    06    07    18    00   03.0000000     GPS         TIME OF LAST OBS    
C L2I                                                       SYS / PHASE SHIFT   
C L7I                                                       SYS / PHASE SHIFT   
C L5P  0.00000                                              SYS / PHASE SHIFT   
C L6I                                                       SYS / PHASE SHIFT   
C L1P  0.00000                                              SYS / PHASE SHIFT   
  0                                                         GLONASS SLOT / FRQ #
 C1C    0.000 C1P    0.000 C2C    0.000 C2P    0.000        GLONASS COD/PHS/BIS 
                                                            END OF HEADER       
> 2026 06 07 17 00 18.0000000  0 12                     
C01  38581984.884   200906514.345                                                                    38581981.275   163252991.114                                  
C02  36961954.657   192470585.510                                                                    36961938.146   156398048.729                                  
C03  37001014.536   192673992.224                                                                    37001000.706   156563345.422                                  
C07                                                                                                  37175285.131   157300787.975                                  
C08  38354962.611   199724374.987                                                                    38354960.645   162292453.349                                  
C09  38634601.599   201180515.654    38634606.763   155565501.153                                    38634606.030   163475606.389                                  
C12  22691269.881   118159375.662                                                                    22691266.843    96014184.904                                  
C19  22249296.770   115857942.736                                    22249296.699    87311002.060    22249291.320    94144022.896    22249291.320   116920832.275  
C20  24451595.580   127325787.560                                    24451597.260    95953266.958    24451593.168   103462624.051    24451590.791   128493886.618  
C22  23574426.685   122758220.702                                    23574418.269    92511071.836    23574416.286    99751068.779                                  
C36  22571319.204   117534853.005                                    22571325.976    88574793.256    22571322.206    95506723.948    22571314.630   118613007.540  
C39  26358965.075   137258089.527                                    26358961.948   103438245.473    26358961.055   111533387.058    26358966.701   138517456.460  
> 2026 06 07 17 00 33.0000000  0 12                     
C01  38581961.637   200906393.379                                                                    38581958.045   163252892.836                                  
C02  36962155.272   192471629.822                                                                    36962138.672   156398897.336                                  
C03  37001164.368   192674772.615                                                                    37001150.555   156563979.567                                  
C07  37175312.917   193581609.050                                                                    37175304.054   157300868.991                                  
C08  38349989.269   199698476.050                                                                    38349987.053   162271408.400                                  
C09  38640122.180   201209260.523    38640126.986   155587728.498                                    38640125.968   163498963.990                                  
C12  22698491.540   118196980.302                                                                    22698487.591    96044741.721                                  
C19  22252347.942   115873830.149                                    22252346.977    87322974.857    22252342.152    94156932.706    22252342.849   116936865.447  
C20  24460662.161   127372998.085                                    24460662.983    95988844.979    24460660.231   103500986.448    24460656.497   128541530.249  
C22                                                                  23568692.176    92488597.477    23568689.675    99726835.401                                  
C36  22569158.661   117523603.215                                    22569165.379    88566315.400    22569162.127    95497582.596    22569154.479   118601654.511  
C39  26352990.157   137226971.815                                    26352985.100   103414795.104    26352983.724   111508101.424    26352990.907   138486053.246  
> 2026 06 07 17 00 48.0000000  0 12                     
C01  38581939.551   200906278.286                                                                    38581935.941   163252799.339                                  
C02  36962357.031   192472680.193                                                                    36962340.342   156399750.868                                  
C03  37001315.343   192675558.871                                                                    37001301.548   156564618.481                                  
C07  37175329.375   193581697.3881                                                                   37175320.387   157300942.424                                  
C08  38345019.893   199672597.426                                                                    38345017.195   162250379.969                                  
C09  38645646.227   201238023.054    38645650.677   155609969.528                                    38645649.497   163522335.891                                  
C12  22705729.638   118234671.117                                                                    22705726.939    96075368.570                                  
C19  22255423.272   115889844.564                                    22255422.432    87335043.377    22255417.214    94169945.721    22255418.519   116953026.775  
C20  24469738.446   127420260.077                                    24469739.053    96024461.789    24469735.944   103539390.674    24469732.620   128589225.831  
C22                                                                  23562984.935    92466200.564    23562982.577    99702685.691                                  
C36  22567008.427   117512406.308                                    22567014.914    88557877.414    22567012.305    95488484.211    22567004.300   118590354.895  
C39  26347022.403   137195891.609                                    26347015.506   103391373.060    26347013.487   111482846.339    26347018.937   138454687.972  
> 2026 06 07 17 01 03.0000000  0 12                     
C01  38581918.394   200906168.201                                                                    38581914.802   163252709.896                                  
C02  36962559.773   192473735.749                                                                    36962543.048   156400608.617                                  
C03  37001467.284   192676350.131                                                                    37001453.489   156565261.470                                  
C07                                                                                                  37175336.147   157301007.676                                  
C08  38340053.949   199646738.325                                                                    38340051.001   162229367.383                                  
C09  38651173.527   201266802.154    38651177.565   155632223.351                                    38651176.011   163545721.250                                  
C12  22712983.907   118272447.024                                                                    22712981.548    96106064.582                                  
C19  22258522.743   115905985.006                                    22258522.350    87347206.890    22258517.365    94183061.158    22258517.972   116969315.317  
C20  24478824.540   127467572.394                                    24478824.951    96060116.494    24478821.216   103577835.762    24478820.823   128636972.218  
C22                                                                  23557297.243    92443880.742    23557294.349    99678619.100                                  
C36  22564868.183   117501261.372                                    22564874.562    88549478.566    22564871.453    95479428.054    22564863.930   118579107.694  
C39  26341061.387   137164847.984                                    26341054.221   103367978.496    26341052.756   111457620.848    26341059.939   138423359.554  
> 2026 06 07 17 01 18.0000000  0 12                     
C01  38581895.915   200906051.288                                                                    38581892.287   163252614.885                                  
C02  36962761.247   192474784.647                                                                    36962744.485   156401460.949                                  
C03  37001617.902   192677134.569                                                                    37001604.125   156565898.896                                  
C07                                                                                                  37175348.227   157301055.000                                  
C08  38335089.094   199620887.000                                                                    38335086.486   162208361.097                                  
C09  38656701.631   201295585.877    38656705.223   155654480.756                                    38656703.346   163569110.411                                  
C12  22720251.918   118310295.885                                                                    22720248.612    96136819.861                                  
C19  22261644.337   115922239.562                                    22261644.462    87359456.394    22261639.047    94196269.315    22261639.298   116985718.986  
C20  24487917.603   127514922.891                                    24487918.193    96095799.998    24487913.994   103616311.919    24487915.727   128684757.190  
C22  23551630.762   122639517.0871                                   23551626.670    92421629.315    23551624.454    99654626.276                                  
C36  22562735.569   117490156.426                                    22562741.894    88541109.876    22562739.107    95470404.414    22562731.566   118567900.880  
C39  26335105.194   137133829.042                                    26335098.422   103344602.581    26335096.492   111432415.514    26335103.014   138392056.029  
> 2026 06 07 17 01 33.0000000  0 12                     
C01  38581873.811   200905936.129                                                                    38581870.147   163252521.323                                  
C02  36962963.095   192475835.469                                                                    36962946.245   156402314.851                                  
C03  37001768.877   192677920.760                                                                    37001755.046   156566537.769                                  
C07                                                                                                  37175357.393   157301091.470                                  
C08  38330127.474   199595052.022                                                                    38330125.348   162187368.130                                  
C09  38662231.897   201324382.891    38662235.596   155676748.448                                    38662233.755   163592510.335                                  
C12  22727535.564   118348226.071                                                                    22727533.187    96167641.236                                  
C19  22264789.517   115938616.684                                    22264788.981    87371798.238    22264783.156    94209577.052    22264783.960   117002246.325  
C20  24497019.726   127562319.897                                    24497019.994    96131518.566    24497015.795   103654825.838    24497016.099   128732588.975  
C22  23545978.754   122610089.822                                    23545975.216    92399452.770                                                                  
C36  22560612.032   117479100.003                                    22560617.875    88532777.750    22560615.624    95461420.178    22560608.172   118556743.013  
C39  26329154.881   137102843.415                                    26329147.430   103321251.774    26329145.554   111407237.198    26329149.967   138360786.197  
> 2026 06 07 17 01 48.0000000  0 12                     
C01  38581852.886   200905827.207                                                                    38581849.241   163252432.840                                  
C02  36963166.212   192476892.732                                                                    36963149.272   156403173.992                                  
C03  37001921.014   192678713.204                                                                    37001907.219   156567181.713                                  
C07                                                                                                  37175363.933   157301120.719                                  
C08  38325170.143   199569238.056                                                                    38325168.302   162166392.208                                  
C09  38667765.236   201353197.538    38667769.185   155699029.790                                    38667767.023   163615924.629                                  
C12  22734836.150   118386241.853                                                                    22734835.292    96198532.147                                  
C19  22267958.856   115955120.751                                    22267958.052    87384235.763    22267952.816    94222987.946    22267953.013   117018901.811  
C20  24506131.641   127609767.643                                    24506131.445    96167275.362    24506127.746   103693380.974    24506125.888   128780472.002  
C22  23540347.296   122580766.695                                    23540343.329    92377354.853                                                                  
C36  22558498.770   117468096.503                                    22558504.863    88524485.494    22558501.611    95452478.941    22558495.250   118545638.537  
C39  26323212.073   137071895.568                                    26323202.585   103297929.426    26323201.691   111382089.602    26323206.927   138329554.420  
> 2026 06 07 17 02 03.0000000  0 12                     
C01  38581830.317   200905709.526                                                                    38581826.708   163252337.218                                  
C02  36963367.650   192477941.382                                                                    36963350.585   156404026.121                                  
C03  37002071.435   192679496.854                                                                    37002057.694   156567818.514                                  
C07  37175370.956   193581910.030                                                                    37175365.417   157301130.499                                  
C08  38320213.955   199543430.123                                                                    38320212.275   162145421.217                                  
C09  38673299.255   201382014.555    38673303.311   155721312.933                                    38673301.131   163639340.797                                  
C12  22742150.423   118424327.924                                                                    22742148.868    96229480.176                                  
C19  22271149.585   115971736.610                                    22271149.656    87396757.555    22271144.295    94236489.700    22271143.402   117035670.118  
C20  24515250.043   127657250.815                                    24515250.204    96203058.821    24515246.844   103731964.943    24515243.271   128828390.799  
C22  23534732.920   122551533.035                                    23534728.685    92355324.307    23534725.701    99583103.3411                                 
C36  22556393.120   117457130.712                                    22556399.642    88516221.673    22556395.979    95443568.391    22556389.475   118534572.172  
C39  26317273.357   137040970.475                                    26317264.315   103274624.256    26317261.796   111356960.468    26317268.282   138298345.545  
> 2026 06 07 17 02 18.0000000  0 12                     
C01  38581805.515   200905580.424                                                                    38581801.870   163252232.338                                  
C02  36963566.889   192478978.764                                                                    36963549.735   156404869.117                                  
C03  37002219.730   192680269.068                                                                    37002206.007   156568446.027                                  
C07  37175368.847   193581895.544                                                                    37175362.182   157301118.836                                  
C08  38315258.124   199517625.673                                                                    38315256.534   162124453.000                                  
C09  38678833.202   201410831.427    38678837.348   155743595.982                                    38678835.275   163662756.880                                  
C12  22749477.795   118462481.414                                                                    22749474.167    96260482.972                                  
C19  22274361.416   115988461.537                                    22274361.524    87409361.532    22274355.984    94250080.063    22274355.127   117052548.473  
C20  24524374.538   127704766.481                                    24524375.699    96238866.808    24524371.143   103770575.285    24524367.319   128876342.351  
C22  23529135.306   122522386.411                                    23529131.053    92333359.306    23529129.498    99559419.467    23529129.784   123646388.704  
C36  22554294.135   117446199.966                                    22554300.622    88507984.263    22554297.798    95434686.297    22554290.401   118523541.169  
C39  26311336.821   137010065.547                                    26311330.334   103251334.146    26311326.064   111331847.633    26311333.926   138267157.057  
> 2026 06 07 17 02 33.0000000  0 13                     
C01  38581782.482   200905460.711                                                                    38581778.730   163252135.061                                  
C02  36963767.970   192480025.719                                                                    36963750.815   156405719.879                                  
C03  37002369.794   192681050.689                                                                    37002356.089   156569081.172                                  
C07  37175364.684   193581875.489                                                                    37175358.144   157301102.561                                  
C08  38310307.047   199491845.516                                                                    38310304.992   162103504.583                                  
C09  38684371.098   201439668.705    38684375.315   155765894.815                                    38684373.368   163686189.561                                  
C10                                                                                                  37315132.322   157892535.480                                  
C12  22756821.767   118500722.819                                                                    22756817.567    96291557.215                                  
C19  22277598.122   116005316.182                                    22277597.925    87422063.274    22277593.530    94263775.855    22277592.118   117069557.777  
C20  24533509.558   127752335.148                                    24533511.380    96274714.742    24533505.216   103809228.719    24533502.750   128924347.474  
C22  23523558.562   122493347.854                                    23523554.077    92311475.746    23523554.113    99535823.235    23523554.202   123617083.791  
C36  22552205.639   117435324.969                                    22552212.322    88499788.846    22552209.946    95425849.491    22552202.066   118512566.376  
C39  26305407.825   136979201.380                                    26305403.465   103228074.871    26305398.015   111306768.028    26305407.522   138236009.744  
> 2026 06 07 17 02 48.0000000  0 12                     
C01  38581760.128   200905344.258                                                                    38581756.393   163252040.447                                  
C02  36963969.675   192481076.087                                                                    36963952.485   156406573.406                                  
C03  37002520.484   192681835.549                                                                    37002506.760   156569718.964                                  
C07  37175358.001   193581843.582                                                                    37175352.426   157301076.556                                  
C08  38305360.044   199466083.619                                                                    38305357.024   162082571.014                                  
C09  38689911.728   201468520.261    38689915.945   155788204.715                                    38689913.801   163709633.827                                  
C12  22764181.392   118539045.774                                                                    22764178.372    96322697.711                                  
C19  22280858.790   116022294.349                                    22280856.931    87434858.064    22280853.358    94277571.995    22280852.553   117086691.684  
C20  24542653.798   127799950.463                                    24542655.156    96310597.828    24542648.741   103847920.032    24542648.384   128972399.680  
C22  23518001.368   122464411.446                                    23517997.294    92289669.187    23517996.793    99512310.045    23517997.204   123587881.962  
C36  22550126.614   117424499.475                                    22550133.154    88491630.728    22550130.903    95417052.902    22550122.915   118501641.554  
C39  26299487.479   136948371.889                                    26299483.387   103204841.711    26299477.025   111281716.671    26299488.086   138204897.364  
> 2026 06 07 17 03 03.0000000  0 13                     
C01  38581737.470   200905226.301                                                                    38581733.771   163251944.624                                  
C02  36964171.148   192482125.078                                                                    36964153.923   156407425.832                                  
C03  37002670.870   192682618.894                                                                    37002657.164   156570355.524                                  
C07  37175348.566   193581795.185                                                                    37175342.651   157301037.244                                  
C08  38300415.685   199440335.336                                                                    38300412.004   162061648.482                                  
C09  38695454.181   201497381.182    38695458.362   155810521.819                                    38695456.379   163733085.671                                  
C10                                                                                                  37315164.468   157892677.936                                  
C12  22771555.669   118577445.271                                                                    22771553.239    96353900.429                                  
C19  22284141.973   116039391.087                                    22284139.828    87447742.233    22284136.058    94291464.490    22284135.844   117103945.261  
C20  24551806.169   127847607.369                                    24551806.240    96346512.188    24551801.094   103886645.120    24551799.360   129020493.755  
C22  23512463.043   122435572.685                                    23512459.255    92267936.217    23512458.147    99488876.201    23512459.058   123558778.619  
C36  22548056.363   117413718.618                                    22548062.206    88483506.269    22548059.472    95408292.611    22548052.074   118490761.793  
C39  26293573.297   136917572.199                                    26293569.294   103181631.082    26293564.040   111256689.563    26293573.976   138173815.149  
> 2026 06 07 17 03 18.0000000  0 13                     
C01  38581714.544   200905107.001                                                                    38581710.863   163251847.680                                  
C02  36964372.389   192483172.855                                                                    36964355.128   156408277.261                                  
C03  37002821.005   192683400.866                                                                    37002807.317   156570990.969                                  
C07  37175336.594   193581730.382                                                                                                                                  
C08  38295473.667   199414600.877                                                                    38295470.004   162040737.197                                  
C09  38700998.492   201526251.554    38701002.477   155832846.222                                    38701000.118   163756545.223                                  
C10                                                                                                  37315174.761   157892724.706                                  
C12  22778944.493   118615921.182                                                                    22778941.830    96385165.241                                  
C19  22287447.903   116056606.482                                    22287447.009    87460715.835    22287442.881    94305453.403    22287442.131   117121318.601  
C20  24560966.259   127895305.707                                    24560965.865    96382457.826    24560961.684   103925403.917    24560960.898   129068629.722  
C22  23506943.641   122406831.956                                    23506939.978    92246277.116    23506938.656    99465522.005    23506939.478   123529774.170  
C36  22545994.421   117402982.477                                    22546000.961    88475415.481    22545997.280    95399568.659    22545989.918   118479927.143  
C39  26287664.082   136886802.642                                    26287660.723   103158443.119    26287658.668   111231686.837    26287663.099   138142763.379  
> 2026 06 07 17 03 33.0000000  0 13                     
C01  38581690.993   200904984.392                                                                    38581687.294   163251748.081                                  
C02  36964573.040   192484217.536                                                                    36964555.690   156409126.181                                  
C03  37002970.533   192684179.509                                                                    37002956.845   156571623.695                                  
C07  37175321.084   193581647.249                                                                                                                                  
C08  38290533.740   199388878.365                                                                    38290530.399   162019835.606                                  
C09  38706544.000   201555129.390    38706548.092   155855176.390                                    38706545.859   163780010.837                                  
C10                                                                                                  37315180.890   157892754.290                                  
C12  22786347.361   118654471.353                                                                    22786345.574    96416490.383                                  
C19  22290776.348   116073938.455                                    22290775.579    87473777.285    22290771.469    94319537.066    22290770.862   117138809.595  
C20  24570133.568   127943043.280                                    24570133.711    96418433.028    24570128.993   103964194.570    24570128.940   129116805.283  
C22  23501442.805   122378187.510                                    23501439.357    92224690.533    23501437.677    99442246.022    23501438.356   123500866.954  
C36  22543940.698   117392288.972                                    22543947.989    88467356.831    22543944.862    95390879.322    22543936.445   118469135.510  
C39  26281759.085   136856061.221                                    26281757.602   103135276.292    26281755.582   111206706.886    26281758.727   138111739.806  
> 2026 06 07 17 03 48.0000000  0 12                     
C01  38581667.477   200904862.155                                                                    38581663.796   163251648.773                                  
C02  36964773.799   192485262.723                                                                    36964756.377   156409975.511                                  
C03  37003120.133   192684958.492                                                                    37003106.445   156572256.708                                  
C07  37175302.410   193581549.589                                                                                                                                  
C08  38285596.511   199363171.536                                                                    38285593.813   161998946.734                                  
C09  38712091.278   201584018.118    38712095.852   155877515.001                                    38712093.547   163803485.312                                  
C12  22793765.400   118693099.177                                                                    22793763.756    96447878.628                                  
C19  22294127.897   116091390.569                                    22294126.575    87486929.258    22294122.501    94333718.340    22294122.197   117156421.782  
C20  24579309.472   127990823.507                                    24579309.972    96454440.374    24579304.129   104003019.897    24579303.861   129165023.861  
C22  23495961.250   122349643.288                                    23495958.016    92203179.510    23495956.032    99419051.511    23495956.801   123472060.859  
C36  22541896.107   117381641.719                                    22541902.504    88459333.040    22541900.645    95382227.564    22541891.693   118458390.578  
C39  26275861.307   136825351.388                                    26275859.788   103112133.324    26275856.786   111181752.730    26275860.377   138080748.257  
> 2026 06 07 17 04 03.0000000  0 12                     
C01  38581645.713   200904748.947                                                                    38581641.996   163251556.801                                  
C02  36964976.309   192486317.084                                                                    36964958.833   156410832.280                                  
C03  37003271.465   192685746.449                                                                    37003257.742   156572897.004                                  
C08  38280663.857   199337489.097                                                                    38280661.748   161978077.720                                  
C09  38717642.325   201612926.335    38717647.525   155899868.688                                    38717644.952   163826975.620                                  
C10                                                                                                  37315184.928   157892757.8371                                 
C12  22801200.021   118731813.016                                                                    22801198.234    96479336.795                                  
C19  22297504.035   116108971.305                                    22297503.034    87500178.183    22297498.210    94348004.131    22297499.103   117174163.829  
C20  24588495.257   128038654.745                                    24588496.008    96490486.148    24588489.504   104041886.651    24588489.575   129213293.903  
C22  23490500.709   122321208.137                                    23490497.314    92181750.632    23490494.669    99395945.631    23490495.724   123443364.811  
C36  22539861.897   117371049.204                                    22539867.133    88451350.531    22539865.775    95373620.294    22539857.448   118447700.910  
C39  26269972.248   136794681.925                                    26269969.729   103089020.772    26269965.262   111156831.353    26269970.980   138049797.400  
> 2026 06 07 17 04 18.0000000  0 11                     
C01  38581622.358   200904627.483                                                                    38581618.623   163251458.130                                  
C02  36965177.228   192487363.309                                                                    36965159.716   156411682.459                                  
C03  37003421.226   192686526.177                                                                    37003407.449   156573530.604                                  
C08  38275732.775   199311813.889                                                                    38275730.916   161957214.544                                  
C09  38723194.052   201641836.735    38723199.520   155922224.063                                    38723197.144   163850467.716                                  
C12  22808647.991   118770595.388                                                                    22808646.954    96510850.618                                  
C19  22300901.151   116126663.267                                    22300901.204    87513510.959    22300895.969    94362380.329    22300896.916   117192018.135  
C20  24597687.297   128086519.413                                    24597688.566    96526557.152    24597681.526   104080780.589    24597680.972   129261597.668  
C22  23485058.198   122292865.102                                    23485054.267    92160391.118    23485050.639    99372914.513    23485051.658   123414761.654  
C36  22537834.835   117360494.124                                    22537840.732    88443396.207    22537838.016    95365043.437    22537830.690   118437048.995  
C39  26264087.372   136764035.510                                    26264084.620   103065925.588    26264080.706   111131928.661    26264085.013   138018869.866  
> 2026 06 07 17 04 33.0000000  0 12                     
C01  38581599.396   200904508.032                                                                    38581595.626   163251361.097                                  
C02  36965378.594   192488411.718                                                                    36965361.029   156412534.398                                  
C03  37003571.343   192687307.861                                                                    37003557.566   156574165.810                                  
C08  38270805.195   199286156.218                                                                    38270803.497   161936365.643                                  
C09  38728748.191   201670759.560    38728753.874   155944589.019                                    38728751.032   163873969.850                                  
C10  37315182.284   194309958.283                                                                                                                                  
C12  22816111.042   118809456.273                                                                    22816110.095    96542428.256                                  
C19  22304322.282   116144476.668                                    22304322.211    87526935.215    22304316.904    94376855.172    22304318.262   117209994.974  
C20  24606887.664   128134427.539                                    24606889.326    96562660.857    24606882.018   104119709.834    24606882.965   129309945.323  
C22  23479635.235   122264624.524                                    23479630.929    92139108.938    23479626.265    99349966.752                                  
C36  22535816.994   117349986.624                                    22535823.569    88435477.733    22535820.156    95356505.241    22535812.741   118426445.078  
C39  26258208.695   136733422.380                                    26258204.853   103042855.453    26258202.155   111107052.997    26258206.051   137987975.876  
> 2026 06 07 17 04 48.0000000  0 12                     
C01  38581577.042   200904391.646                                                                    38581573.236   163251266.533                                  
C02  36965580.550   192489463.351                                                                    36965562.949   156413388.955                                  
C03  37003722.033   192688092.617                                                                    37003708.256   156574803.505                                  
C08  38265881.404   199260517.230                                                                    38265879.885   161915531.919                                  
C09  38734304.886   201699695.609    38734310.800   155966964.222                                    38734307.888   163897482.794                                  
C10  37315171.562   194309911.541                                                                                                                                  
C12  22823589.407   118848396.484                                                                    22823587.048    96574070.332                                  
C19  22307766.929   116162412.394                                    22307766.286    87540451.651    22307761.783    94391429.414    22307763.177   117228095.250  
C20  24616096.322   128182379.839                                    24616098.663    96598797.900    24616090.961   104158675.016    24616091.533   129358337.576  
C22  23474231.946   122236487.760                                    23474227.265    92117904.917    23474222.011    99327103.342    23474236.038   123357948.2791 
C36  22533808.623   117339527.616                                    22533815.556    88427595.805    22533812.321    95348006.474    22533804.406   118415890.137  
C39  26252337.310   136702843.503                                    26252329.447   103019811.185    26252327.106   111082205.249    26252335.719   137957116.401  
> 2026 06 07 17 05 03.0000000  0 12                     
C01  38581555.742   200904280.793                                                                    38581551.936   163251176.484                                  
C02  36965783.631   192490520.640                                                                    36965765.959   156414248.115                                  
C03  37003873.830   192688882.897                                                                    37003859.999   156575445.691                                  
C08  38260961.758   199234899.451                                                                    38260960.471   161894715.435                                  
C09  38739865.100   201728647.399    38739870.854   155989351.593                                    38739867.512   163921008.513                                  
C10  37315160.287   194309852.635                                                                                                                                  
C12  22831083.121   118887418.172                                                                    22831079.922    96605778.626                                  
C19  22311235.360   116180472.758                                    22311234.824    87554062.026    22311230.000    94406104.958    22311231.411   117246321.303  
C20  24625314.022   128230378.530                                    24625316.809    96634969.909    24625308.858   104197677.870    24625307.625   129406776.607  
C22  23468849.028   122208457.374                                    23468844.132    92096781.203    23468838.879    99304326.440    23468848.725   123329660.778  
C36  22531809.901   117329119.504                                    22531816.673    88419752.225    22531813.618    95339549.044    22531805.720   118405386.552  
C39  26246472.982   136672301.329                                    26246462.439   102996794.592    26246462.082   111057387.339    26246471.177   137926294.049  
> 2026 06 07 17 05 18.0000000  0 12                     
C01  38581530.725   200904150.559                                                                    38581526.901   163251070.668                                  
C02  36965982.996   192491558.688                                                                    36965965.288   156415091.631                                  
C03  37004021.911   192689653.753                                                                    37004007.991   156576072.091                                  
C08  38256041.594   199209278.017                                                                    38256040.200   161873895.975                                  
C09  38745423.564   201757589.889    38745429.246   156011731.758                                    38745425.511   163944526.631                                  
C10  37315140.792   194309736.5861                                                                                                                                 
C12  22838587.485   118926496.171                                                                    22838584.394    96637532.690                                  
C19  22314723.126   116198632.757                                    22314722.304    87567747.484    22314716.461    94420861.433    22314718.533   117264647.887  
C20  24634535.635   128278398.433                                    24634538.387    96671157.872    24634531.364   104236697.948    24634529.291   129455237.048  
C22  23463481.889   122180508.931                                    23463476.456    92075719.101    23463471.900    99281616.046    23463481.442   123301455.854  
C36  22529815.932   117318737.291                                    22529822.401    88411928.168    22529819.202    95331112.636    22529811.930   118394909.062  
C39  26240609.923   136641771.073                                    26240600.310   102973786.892    26240602.186   111032579.010    26240607.297   137895483.664  
> 2026 06 07 17 05 33.0000000  0 11                     
C01  38581506.995   200904026.938                                                                    38581503.153   163250970.247                                  
C02  36966183.665   192492603.515                                                                    36966165.885   156415940.664                                  
C03  37004171.224   192690431.218                                                                    37004157.286   156576703.874                                  
C08  38251125.969   199183679.051                                                                    38251123.914   161853094.773                                  
C09  38750985.082   201786548.974    38750990.836   156034124.773                                    38750986.780   163968058.248                                  
C12  22846107.824   118965656.332                                                                    22846104.197    96669353.486                                  
C19  22318234.818   116216918.253                                    22318233.406    87581527.511    22318228.420    94435719.896    22318229.868   117283101.131  
C20  24643766.397   128326465.267                                    24643768.523    96707381.229    24643762.573   104275756.170    24643759.464   129503744.845  
C22  23458135.227   122152668.551                                    23458129.902    92054738.460    23458125.989    99258993.435    23458135.263   123273359.963  
C36  22527831.917   117308406.877                                    22527838.654    88404143.137    22527834.937    95322718.350    22527828.111   118384483.848  
C39  26234753.012   136611278.644                                    26234745.310   102950807.701    26234747.579   111007801.398    26234749.277   137864711.515  
> 2026 06 07 17 05 48.0000000  0 12                     
C01  38581482.926   200903901.770                                                                    38581479.138   163250868.547                                  
C02  36966384.048   192493646.922                                                                    36966366.215   156416788.539                                  
C03  37004320.252   192691207.099                                                                    37004306.278   156577334.369                                  
C08  38246213.077   199158094.391                                                                    38246210.308   161832305.210                                  
C09  38756548.210   201815516.387    38756553.856   156056524.268                                    38756550.461   163991596.703                                  
C10                                  37315093.814   150252432.444                                                                                                  
C12  22853642.137   119004890.098                                                                    22853639.617    96701234.116                                  
C19  22321769.096   116235320.940                                    22321767.488    87595395.864    22321762.127    94450673.592    22321764.289   117301672.659  
C20  24653005.057   128374570.612                                    24653005.611    96743633.583    24653000.590   104314845.684    24652999.482   129552291.535  
C22  23452803.736   122124904.3361                                   23452802.413    92033833.239    23452799.572    99236452.130    23452808.292   123245365.070  
C36  22525856.568   117298119.931                                    22525863.823    88396390.874    22525859.731    95314359.395    22525852.083   118374102.558  
C39  26228902.854   136580815.733                                    26228894.778   102927850.819    26228895.403   110983047.862    26228898.584   137833969.144  
> 2026 06 07 17 06 03.0000000  0 11                     
C01  38581458.034   200903772.133                                                                    38581454.264   163250763.216                                  
C02  36966583.609   192494686.014                                                                    36966565.722   156417632.903                                  
C03  37004468.422   192691978.516                                                                    37004454.412   156577961.234                                  
C08  38241302.152   199132521.302                                                                    38241299.114   161811524.994                                  
C09  38762112.302   201844489.240    38762117.841   156078927.898                                    38762115.197   164015139.514                                  
C12  22861190.030   119044194.348                                                                    22861189.029    96733171.996                                  
C19  22325325.174   116253837.761                                    22325322.923    87609350.209    22325318.366    94465720.011    22325320.207   117320359.350  
C20  24662250.204   128422711.228                                    24662249.239    96779912.492    24662245.343   104353963.838    24662245.897   129600873.817  
C22  23447496.028   122097272.335                                    23447493.580    92013001.419    23447491.525    99213989.986    23447499.245   123217468.586  
C36  22523888.867   117287873.522                                    22523896.014    88388669.159    22523892.494    95306033.348    22523884.257   118363762.158  
C39  26223057.968   136550379.430                                    26223050.303   102904913.942    26223048.015   110958315.937    26223054.001   137803253.601  
> 2026 06 07 17 06 18.0000000  0 12                     
C01  38581434.554   200903650.068                                                                    38581430.802   163250664.046                                  
C02  36966784.636   192495732.815                                                                    36966766.731   156418483.526                                  
C03  37004618.039   192692757.456                                                                    37004603.940   156578594.225                                  
C08  38236395.657   199106971.791                                                                    38236392.870   161790763.971                                  
C09  38767679.914   201873479.237    38767685.060   156101344.846                                    38767683.220   164038696.269                                  
C10                                  37315035.579   150252187.189                                                                                                  
C12  22868753.594   119083580.824                                                                    22868752.844    96765176.741                                  
C19  22328905.144   116272480.604                                    22328903.768    87623399.543    22328899.444    94480868.863    22328900.498   117339173.252  
C20  24671503.731   128470898.866                                    24671502.784    96816226.902    24671499.121   104393120.231    24671498.799   129649503.529  
C22  23442204.350   122069691.1581                                   23442205.993    91992252.246    23442204.189    99191616.953    23442211.283   123189682.696  
C36  22521930.958   117277679.558                                    22521937.087    88380986.961    22521934.585    95297749.915    22521926.812   118353474.645  
C39  26217220.302   136519981.865                                    26217214.083   102882006.270    26217211.117   110933615.456    26217215.852   137772577.223  
> 2026 06 07 17 06 33.0000000  0 12                     
C01  38581410.735   200903526.267                                                                    38581407.000   163250563.455                                  
C02  36966985.359   192496778.008                                                                    36966967.436   156419332.857                                  
C03  37004767.281   192693534.625                                                                    37004753.218   156579225.752                                  
C08  38231491.879   199081436.686                                                                    38231489.413   161770014.635                                  
C09  38773248.938   201902477.126    38773253.691   156123767.875                                    38773252.065   164062259.436                                  
C10                                  37315001.646   150252048.991                                                                                                  
C12  22876331.865   119123040.050                                                                    22876329.703    96797240.561                                  
C19  22332507.449   116291240.035                                    22332507.128    87637536.748    22332502.446    94496112.460    22332503.232   117358104.808  
C20  24680764.138   128519123.991                                    24680764.245    96852569.499    24680759.581   104432307.065    24680759.134   129698171.080  
C22  23436939.903   122042258.476                                    23436937.973    91971578.901    23436936.419    99169325.657    23436941.869   123161998.329  
C36  22519981.698   117267528.580                                    22519988.166    88373337.187    22519984.503    95289501.459    22519977.391   118343230.565  
C39  26211386.923   136489613.709                                    26211382.349   102859120.659    26211379.686   110908938.811    26211385.387   137741930.337  
> 2026 06 07 17 06 48.0000000  0 12                     
C01  38581388.667   200903411.424                                                                    38581384.878   163250470.167                                  
C02  36967187.850   192497832.296                                                                    36967169.892   156420189.574                                  
C03  37004918.257   192694320.732                                                                    37004904.176   156579864.555                                  
C08  38226593.033   199055926.756                                                                    38226590.764   161749285.788                                  
C09  38778821.375   201931493.474    38778825.717   156146205.165                                    38778824.091   164085837.605                                  
C10                                  37314965.586   150251903.951                                                                                                  
C12  22883925.699   119162582.385                                                                    22883922.822    96829371.917                                  
C19  22336134.522   116310126.660                                    22336132.860    87651769.790    22336128.768    94511459.383    22336129.429   117377164.658  
C20  24690033.389   128567396.905                                    24690034.658    96888948.190    24690029.226   104471532.799    24690030.387   129746886.906  
C22  23431693.790   122014937.194                                    23431691.449    91950989.551    23431689.841    99147124.950    23431694.076   123134426.487  
C36  22518042.784   117257431.244                                    22518049.699    88365727.821    22518045.911    95281296.586    22518038.048   118333040.625  
C39  26205562.247   136459285.430                                    26205557.977   102836265.204    26205554.135   110884294.673    26205563.016   137711323.861  
> 2026 06 07 17 07 03.0000000  0 12                     
C01  38581364.097   200903283.645                                                                    38581360.326   163250366.347                                  
C02  36967387.858   192498873.772                                                                    36967369.882   156421035.880                                  
C03  37005066.748   192695093.871                                                                    37005052.632   156580492.807                                  
C08  38221694.508   199030420.159                                                                    38221692.954   161728559.629                                  
C09  38784392.829   201960506.254    38784397.046   156168639.691                                    38784395.206   164109412.837                                  
C10                                  37314923.630   150251735.152                                                                                                  
C12  22891530.863   119202185.627                                                                    22891528.486    96861552.790                                  
C19  22339781.786   116329118.409                                    22339779.552    87666082.026    22339775.728    94526891.716    22339776.586   117396330.635  
C20  24699308.431   128615695.570                                    24699310.164    96925346.268    24699304.285   104510779.393    24699306.162   129795628.707  
C22  23426465.028   121987705.782                                    23426462.205    91930467.886    23426460.418    99124997.232    23426464.170   123106945.283  
C36  22516109.623   117247365.562                                    22516116.592    88358142.305    22516113.412    95273117.412    22516105.138   118322882.562  
C39  26199741.645   136428975.243                                    26199737.053   102813423.399    26199733.872   110859665.199    26199741.717   137680735.625  
> 2026 06 07 17 07 18.0000000  0 13                     
C01  38581341.975   200903168.585                                                                    38581338.222   163250272.884                                  
C02  36967590.350   192499928.098                                                                    36967572.338   156421892.632                                  
C03  37005217.652   192695879.658                                                                    37005203.553   156581131.357                                  
C07  37174742.127   193578621.0381                                                                                                                                 
C08  38216801.237   199004942.627                                                                    38216800.969   161707857.076                                  
C09  38789968.322   201989541.054    38789972.485   156191091.272                                    38789970.484   164133006.057                                  
C10                                  37314880.601   150251562.347                                                                                                  
C12  22899152.984   119241875.229                                                                    22899150.554    96893803.820                                  
C19  22343453.959   116348240.762                                    22343452.244    87680492.700    22343447.795    94542430.206    22343449.206   117415628.439  
C20  24708593.676   128664045.246                                    24708595.373    96961782.781    24708589.280   104550067.479    24708591.031   129844421.953  
C22                                                                  23421255.279    91910033.412    23421253.117    99102963.514    23421256.690   123079580.780  
C36  22514187.488   117237357.036                                    22514193.600    88350599.892    22514190.866    95264984.702    22514183.218   118312782.208  
C39  26193929.370   136398708.769                                    26193922.973   102790614.514    26193923.456   110835071.228    26193929.352   137650191.521  
> 2026 06 07 17 07 33.0000000  0 13                     
C01  38581317.637   200903042.021                                                                    38581313.813   163250170.067                                  
C02  36967790.626   192500971.052                                                                    36967772.596   156422740.134                                  
C03  37005366.322   192696653.937                                                                    37005352.224   156581760.534                                  
C07  37174678.496   193578296.813                                                                                                                                  
C08  38211908.985   198979470.001                                                                    38211909.825   161687158.514                                  
C09  38795543.618   202018573.659    38795547.406   156213541.090                                    38795545.387   164156597.415                                  
C10                                  37314831.944   150251367.027                                                                                                  
C12  22906786.756   119281626.701                                                                    22906784.147    96926105.111                                  
C19  22347146.593   116367469.428                                    22347145.574    87694983.510    22347139.910    94558055.065    22347141.876   117435033.495  
C20  24717884.406   128712421.540                                    24717885.317    96998239.286    24717879.510   104589377.131    24717881.315   129893242.048  
C22                                                                  23416066.061    91889667.990    23416063.470    99081004.281    23416067.437   123052308.861  
C36  22512271.893   117227381.376                                    22512277.647    88343082.250    22512274.824    95256878.706    22512267.426   118302715.040  
C39  26188121.187   136368461.715                                    26188113.271   102767820.307    26188115.219   110810493.081    26188120.794   137619666.995  
> 2026 06 07 17 07 48.0000000  0 13                     
C01  38581293.514   200902916.539                                                                    38581289.708   163250068.114                                  
C02  36967991.170   192502015.204                                                                    36967973.087   156423588.612                                  
C03  37005515.189   192697429.242                                                                    37005501.144   156582390.561                                  
C07  37174613.470   193577959.104                                                                                                                                  
C08  38207020.556   198954014.918                                                                    38207021.360   161666474.211                                  
C09  38801121.058   202047616.415    38801124.310   156235998.780                                    38801122.255   164180197.023                                  
C10                                  37314780.034   150251158.767                                                                                                  
C12  22914434.590   119321452.343                                                                    22914432.875    96958466.708                                  
C19  22350862.188   116386816.813                                    22350861.188    87709563.778    22350855.702    94573776.388    22350856.881   117454558.361  
C20  24727182.391   128760836.708                                    24727182.981    97034725.110    24727177.495   104628718.379    24727179.729   129942101.366  
C22                                                                  23410896.749    91869381.356    23410893.926    99059129.979                                  
C36  22510365.072   117217451.065                                    22510371.487    88335598.779    22510368.145    95248809.560    22510360.319   118292693.641  
C39  26182319.169   136338246.741                                    26182313.916   102745050.225    26182312.307   110785940.975    26182318.490   137589174.763  
> 2026 06 07 17 08 03.0000000  0 13                     
C01  38581270.570   200902797.166                                                                    38581266.746   163249971.140                                  
C02  36968192.894   192503065.607                                                                    36968174.792   156424442.172                                  
C03  37005665.271   192698210.641                                                                    37005651.190   156583025.536                                  
C07  37174547.194   193577612.867                                                                                                                                  
C08  38202136.791   198928582.477                                                                    38202136.345   161645808.329                                  
C09  38806701.411   202076674.390    38806704.359   156258468.237                                    38806701.875   164203808.990                                  
C10                                  37314727.088   150250942.3381                                                                                                 
C12  22922097.864   119361356.943                                                                    22922095.969    96990892.455                                  
C19  22354601.228   116406287.804                                    22354599.673    87724237.207    22354595.242    94589598.164    22354596.242   117474208.008  
C20  24736488.757   128809295.437                                    24736489.954    97071243.796    24736484.147   104668095.054    24736485.434   129991004.703  
C22  23405750.560   121879915.3221                                   23405748.416    91849177.466    23405745.181    99037344.913                                  
C36  22508467.686   117207571.062                                    22508474.672    88328153.165    22508471.152    95240781.251    22508463.022   118282722.969  
C39  26176523.852   136308068.756                                    26176520.886   102722307.996    26176515.042   110761418.904    26176523.155   137558719.884  
> 2026 06 07 17 08 18.0000000  0 13                     
C01  38581247.466   200902676.941                                                                    38581243.570   163249873.493                                  
C02  36968394.492   192504115.286                                                                    36968376.337   156425295.148                                  
C03  37005815.156   192698991.148                                                                    37005801.058   156583659.785                                  
C07  37174478.005   193577251.175                                                                                                                                  
C08  38197256.011   198903165.858                                                                    38197253.974   161625155.279                                  
C09  38812282.872   202105740.458    38812286.195   156280943.980                                    38812283.747   164227427.560                                  
C10                                  37314670.479   150250717.636                                                                                                  
C12  22929775.182   119401333.278                                                                    22929771.412    97023376.478                                  
C19  22358362.693   116425875.330                                    22358361.013    87738998.432    22358357.225    94605514.631    22358357.261   117493975.216  
C20  24745802.271   128857790.587                                    24745804.147    97107789.902    24745798.018   104707501.295    24745797.571   130039944.723  
C22  23400621.829   121853208.544                                    23400619.613    91829051.186    23400616.146    99015643.554                                  
C36  22506578.447   117197734.286                                    22506585.220    88320740.138    22506581.896    95232788.060    22506574.105   118272795.932  
C39  26170734.163   136277920.753                                    26170731.394   102699588.382    26170723.567   110736921.241    26170734.146   137528295.329  
> 2026 06 07 17 08 33.0000000  0 12                     
C01  38581225.129   200902560.974                                                                    38581221.216   163249779.252                                  
C02  36968596.930   192505169.336                                                                    36968578.775   156426151.671                                  
C03  37005965.828   192699775.880                                                                    37005951.712   156584297.449                                  
C07  37174406.761   193576879.109                                                                                                                                  
C08  38192378.965   198877770.215                                                                    38192375.802   161604519.298                                  
C09  38817866.709   202134819.602    38817870.390   156303429.838                                    38817868.192   164251056.763                                  
C12  22937467.260   119441386.192                                                                    22937463.472    97055922.721                                  
C19  22362147.477   116445584.334                                    22362146.923    87753851.217    22362142.259    94621529.811    22362142.777   117513865.048  
C20  24755123.700   128906326.956                                    24755125.576    97144367.066    24755119.483   104746941.040    24755118.500   130088926.357  
C22  23395514.040   121826610.108                                    23395511.485    91809006.547    23395508.322    98994030.159    23395511.038   122944211.0301 
C36  22504698.590   117187945.712                                    22504705.345    88313363.447    22504701.521    95224834.070    22504694.159   118262917.549  
C39  26164950.747   136247807.902                                    26164947.584   102676895.155    26164942.045   110712452.086    26164950.604   137497906.190  
> 2026 06 07 17 08 48.0000000  0 13                     
C01  38581200.363   200902432.270                                                                    38581196.593   163249674.705                                  
C02  36968796.938   192506210.810                                                                    36968778.747   156426997.966                                  
C03  37006114.034   192700547.835                                                                    37006099.935   156584924.761                                  
C07  37174330.103   193576479.802                                                                                                                                  
C08  38187502.687   198852378.594                                                                    38187498.970   161583886.590                                  
C09  38823450.189   202163894.852    38823453.727   156325912.698                                    38823452.083   164274682.821                                  
C10                                  37314544.806   150250198.801                                                                                                  
C12  22945170.793   119481498.405                                                                    22945167.505    97088517.155                                  
C19  22365951.988   116465397.660                                    22365952.256    87768782.645    22365947.021    94637629.782    22365947.718   117533860.177  
C20  24764449.168   128954887.254                                    24764450.651    97180962.264    24764445.022   104786400.220    24764444.165   130137932.171  
C22  23390423.763   121800103.257                                    23390420.922    91789030.880    23390417.973    98972491.188    23390421.297   122917460.985  
C36  22502824.791   117178188.277                                    22502831.885    88306010.223    22502827.579    95216905.381    22502820.038   118253070.623  
C39  26159171.351   136217713.082                                    26159166.419   102654215.590    26159164.328   110687997.594    26159170.350   137467535.280  
> 2026 06 07 17 09 03.0000000  0 12                     
C01  38581176.025   200902305.607                                                                    38581172.309   163249571.805                                  
C02  36968997.375   192507254.424                                                                    36968979.166   156427846.014                                  
C03  37006262.615   192701321.782                                                                    37006248.534   156585553.678                                  
C07  37174250.961   193576068.021                                                                                                                                  
C08  38182630.054   198827005.908                                                                    38182626.159   161563269.258                                  
C09  38829035.742   202192980.780    38829039.083   156348403.782                                    38829038.261   164298317.489                                  
C12  22952887.995   119521684.407                                                                    22952884.403    97121171.567                                  
C19  22369779.515   116485329.966                                    22369778.979    87783803.732    22369774.851    94653826.424    22369775.227   117553975.360  
C20  24773781.408   129003485.943                                    24773782.802    97217586.424    24773777.834   104825890.638    24773777.673   130186976.749  
C22  23385353.946   121773702.930                                    23385350.837    91769135.507    23385348.085    98951038.795    23385352.105   122890818.450  
C36  22500959.462   117168476.660                                    22500966.716    88298691.516    22500962.982    95209013.894    22500955.173   118243269.885  
C39  26153398.459   136187651.085                                    26153392.813   102631560.785    26153391.544   110663569.761    26153396.923   137437197.514  
> 2026 06 07 17 09 18.0000000  0 12                     
C01  38581152.939   200902185.412                                                                    38581149.222   163249474.153                                  
C02  36969199.080   192508304.626                                                                    36969180.782   156428699.406                                  
C03  37006412.429   192702102.170                                                                    37006398.401   156586187.819                                  
C07  37174170.372   193575648.121                                                                                                                                  
C08  38177761.854   198801656.627                                                                    38177758.262   161542670.959                                  
C09  38834624.708   202222081.799    38834627.513   156370906.568                                    38834626.673   164321964.505                                  
C12  22960620.010   119561948.397                                                                    22960616.365    97153889.361                                  
C19  22373631.040   116505385.559                                    22373630.254    87798917.687    22373626.752    94670123.238    22373627.252   117574214.941  
C20  24783121.797   129052127.214                                    24783123.494    97254242.670    24783119.009   104865415.636    24783119.223   130236064.293  
C22  23380305.464   121747413.822                                    23380302.087    91749323.947    23380298.906    98929676.768    23380304.071   122864288.143  
C36  22499103.960   117158815.161                                    22499110.536    88291410.599    22499107.748    95201163.142    22499099.618   118233519.734  
C39  26147632.179   136157626.322                                    26147627.640   102608933.958    26147625.049   110639172.158    26147629.481   137406897.239  
> 2026 06 07 17 09 33.0000000  0 12                     
C01  38581129.173   200902061.631                                                                    38581125.456   163249373.576                                  
C02  36969400.089   192509351.381                                                                    36969381.809   156429549.991                                  
C03  37006561.599   192702878.903                                                                    37006547.626   156586818.996                                  
C07  37174086.227   193575210.141                                                                                                                                  
C08  38172896.458   198776320.736                                                                    38172893.224   161522083.565                                  
C09  38840214.656   202251187.697    38840216.783   156393413.074                                    38840215.943   164345615.429                                  
C12  22968364.963   119602280.056                                                                    22968361.407    97186662.114                                  
C19  22377504.097   116525554.186                                    22377504.365    87814116.853    22377498.933    94686511.897    22377500.363   117594568.607  
C20  24792468.457   129100800.763                                    24792470.887    97290923.198    24792466.188   104904966.870    24792465.348   130285184.383  
C22  23375276.317   121721226.070                                    23375272.672    91729588.738    23375269.080    98908397.093    23375275.156   122837860.107  
C36  22497256.393   117149193.671                                    22497262.950    88284159.849    22497259.609    95193344.923    22497251.979   118223810.002  
C39  26141871.063   136127628.727                                    26141867.811   102586327.627    26141863.808   110614796.636    26141868.830   137376624.509  
> 2026 06 07 17 09 48.0000000  0 12                     
C01  38581104.585   200901933.482                                                                    38581100.868   163249269.461                                  
C02  36969600.258   192510393.840                                                                    36969582.031   156430397.096                                  
C03  37006709.912   192703651.248                                                                    37006696.046   156587446.613                                  
C07  37173998.919   193574753.289                                                                                                                                  
C08  38168033.582   198750997.546                                                                    38168030.723   161501506.453                                  
C09  38845805.302   202280297.658    38845807.106   156415922.751                                    38845806.231   164369269.640                                  
C12  22976122.835   119642678.259                                                                    22976120.226    97219488.947                                  
C19  22381398.865   116545834.893                                    22381399.008    87829400.483    22381393.112    94702991.623    22381394.755   117615035.387  
C20  24801821.479   129149505.458                                    24801824.427    97327627.247    24801818.888   104944543.422    24801817.673   130334335.919  
C22  23370266.540   121695139.087                                    23370262.770    91709929.511    23370258.821    98887199.330    23370265.236   122811533.765  
C36  22495416.205   117139611.258                                    22495422.816    88276938.538    22495419.117    95185558.437    22495411.952   118214139.662  
C39  26136114.415   136097657.505                                    26136110.501   102563741.131    26136108.518   110590442.504    26136112.860   137346378.213  
> 2026 06 07 17 10 03.0000000  0 11                     
C01  38581081.981   200901815.584                                                                    38581078.157   163249173.692                                  
C02  36969802.392   192511446.718                                                                    36969784.255   156431252.658                                  
C03  37006860.173   192704433.790                                                                    37006846.306   156588082.507                                  
C08  38163175.728   198725701.765                                                                    38163173.137   161480951.613                                  
C09  38851399.092   202309426.164    38851401.022   156438446.733                                    38851399.771   164392938.952                                  
C12  22983896.343   119683157.467                                                                    22983894.735    97252381.593                                  
C19  22385318.007   116566242.204                                    22385317.917    87844779.510    22385312.932    94719574.230    22385313.450   117635629.912  
C20  24811183.578   129198255.721                                    24811187.063    97364365.612    24811180.112   104984156.970    24811179.611   130383533.429  
C22  23365278.974   121669167.764                                    23365275.043    91690357.396    23365270.879    98866095.512    23365277.402   122785324.176  
C36  22493586.417   117130082.502                                    22493592.242    88269757.656    22493588.936    95177815.569    22493581.985   118204523.493  
C39  26130366.450   136067727.198                                    26130360.518   102541185.553    26130360.536   110566121.652    26130364.681   137316173.311  
> 2026 06 07 17 10 18.0000000  0 11                     
C01  38581057.554   200901688.459                                                                    38581053.587   163249070.400                                  
C02  36970002.811   192512490.457                                                                    36969984.674   156432100.802                                  
C03  37007008.646   192705207.036                                                                    37006994.780   156588710.838                                  
C08  38158319.392   198700413.939                                                                    38158316.979   161460403.254                                  
C09  38856992.454   202338553.650    38856994.866   156460969.975                                    38856993.651   164416607.420                                  
C12  22991681.840   119723697.825                                                                    22991679.839    97285323.960                                  
C19  22389258.019   116586756.512                                    22389256.786    87860239.141    22389252.033    94736243.746    22389252.908   117656332.381  
C20  24820550.860   129247031.711                                    24820554.809    97401123.368    24820546.750   105023791.434    24820544.105   130432756.847  
C22  23360309.920   121643292.702                                    23360305.846    91670857.882    23360301.969    98845069.945    23360307.580   122759211.749  
C36  22491763.080   117120587.767                                    22491768.994    88262602.423    22491766.225    95170100.349    22491758.773   118194941.653  
C39  26124623.578   136037818.199                                    26124617.610   102518646.041    26124615.144   110541818.178    26124622.506   137285989.953  
> 2026 06 07 17 10 33.0000000  0 12                     
C01  38581031.572   200901553.437                                                                    38581027.552   163248960.688                                  
C02  36970201.729   192513526.411                                                                    36970183.574   156432942.598                                  
C03  37007155.565   192705972.333                                                                    37007141.735   156589332.730                                  
C08  38153464.825   198675135.482                                                                    38153462.788   161439862.506                                  
C09  38862585.940   202367681.260    38862588.871   156483493.314                                    38862587.227   164440276.017                                  
C10  37313992.403   194303750.8661                                                                                                                                 
C12  22999479.489   119764300.471                                                                    22999477.630    97318316.916                                  
C19  22393218.295   116607378.897                                    22393217.401    87875780.254    22393211.916    94753001.115    22393213.470   117677143.970  
C20  24829923.144   129295834.494                                    24829926.807    97437901.325    24829918.641   105063447.664    24829917.962   130482007.411  
C22  23355359.808   121617515.568                                    23355355.895    91651432.133    23355352.196    98824123.903    23355356.520   122733198.113  
C36  22489946.515   117111128.294                                    22489952.858    88255473.771    22489950.303    95162413.777    22489942.030   118185395.396  
C39  26118884.960   136007931.957                                    26118880.189   102496123.606    26118874.274   110517533.146    26118883.334   137255829.537  
> 2026 06 07 17 10 48.0000000  0 12                     
C01  38581008.789   200901434.794                                                                    38581004.769   163248864.314                                  
C02  36970403.828   192514578.842                                                                    36970385.691   156433797.805                                  
C03  37007305.630   192706753.977                                                                    37007291.853   156589967.882                                  
C08  38148616.887   198649890.782                                                                    38148614.904   161419349.164                                  
C09  38868184.448   202396833.392    38868187.432   156506035.630                                    38868185.288   164463964.515                                  
C10  37313901.379   194303275.366                                                                                                                                  
C12  23007293.684   119804989.402                                                                    23007291.718    97351379.973                                  
C19  22397203.784   116628133.544                                    22397203.391    87891421.035    22397198.977    94769865.969    22397199.334   117698089.045  
C20  24839305.257   129344688.090                                    24839308.027    97474717.545    24839300.843   105103145.173    24839299.110   130531309.182  
C22  23350433.211   121591860.788                                    23350429.298    91632098.633    23350425.992    98803277.294    23350429.030   122707307.979  
C36  22488141.118   117101728.294                                    22488147.640    88248389.891    22488144.477    95154775.512    22488136.990   118175909.120  
C39  26113154.453   135978092.698                                    26113149.897   102473636.587    26113144.375   110493286.307    26113153.631   137225716.482  
> 2026 06 07 17 11 03.0000000  0 11                     
C01  38580984.720   200901309.637                                                                    38580980.753   163248762.616                                  
C02  36970604.693   192515624.872                                                                    36970586.449   156434647.806                                  
C03  37007454.443   192707529.064                                                                    37007440.773   156590597.711                                  
C08  38143771.130   198624656.997                                                                    38143768.789   161398844.709                                  
C09  38873783.170   202425986.966    38873786.208   156528579.018                                    38873783.903   164487654.151                                  
C12  23015119.673   119845741.408                                                                    23015116.814    97384494.299                                  
C19  22401210.251   116648997.413                                    22401210.269    87907144.134    22401205.659    94786819.574    22401205.695   117719144.302  
C20  24848692.623   129393569.277                                    24848695.089    97511554.607    24848688.370   105142865.123    24848687.012   130580638.859  
C22  23345525.716   121566305.695                                    23345521.696    91612840.243    23345518.837    98782511.721    23345521.177   122681518.432  
C36  22486342.833   117092364.761                                    22486349.427    88241333.520    22486345.621    95147166.897    22486338.348   118166459.709  
C39  26107428.968   135948277.400                                    26107423.768   102451167.662    26107420.963   110469058.953    26107427.521   137195627.707  
> 2026 06 07 17 11 18.0000000  0 11                     
C01  38580959.256   200901177.095                                                                    38580955.182   163248654.934                                  
C02  36970804.112   192516663.667                                                                    36970786.010   156435491.922                                  
C03  37007601.862   192708296.744                                                                    37007588.157   156591221.524                                  
C08  38138927.338   198599433.309                                                                    38138924.390   161378348.462                                  
C09  38879381.982   202455140.959    38879384.948   156551122.714                                    38879382.482   164511344.166                                  
C12  23022957.276   119886555.434                                                                    23022954.310    97417659.001                                  
C19  22405237.536   116669969.469                                    22405237.464    87922948.774    22405232.568    94803861.101    22405233.104   117740308.783  
C20  24858085.171   129442476.990                                    24858087.441    97548411.616    24858080.525   105182606.612    24858079.542   130629995.257  
C22  23340637.198   121540849.634                                    23340632.838    91593656.506    23340630.480    98761826.589    23340632.713   122655828.848  
C36  22484551.660   117083036.694                                    22484558.164    88234303.873    22484554.662    95139587.126    22484547.372   118157046.086  
C39  26101708.683   135918485.241                                    26101702.250   102428716.212    26101701.500   110444850.417    26101705.752   137165562.291  
> 2026 06 07 17 11 33.0000000  0 11                     
C01  38580934.919   200901050.538                                                                    38580930.809   163248552.093                                  
C02  36971004.709   192517708.549                                                                    36970986.733   156436340.991                                  
C03  37007750.336   192709070.325                                                                    37007736.630   156591850.138                                  
C08  38134087.907   198574233.199                                                                    38134084.762   161357871.384                                  
C09  38884983.456   202484308.755    38884986.315   156573677.100                                    38884983.885   164535045.396                                  
C12  23030808.872   119927444.455                                                                    23030806.799    97450884.689                                  
C19  22409288.282   116691062.930                                    22409287.854    87938844.899    22409283.619    94821001.266    22409283.029   117761595.764  
C20  24867485.206   129491424.257                                    24867487.226    97585298.455    24867480.757   105222380.234    24867480.632   130679391.579  
C22  23335770.230   121515506.154                                    23335765.173    91574557.575    23335763.905    98741232.966    23335766.103   122630252.864  
C36  22482769.618   117073757.398                                    22482775.676    88227310.977    22482772.906    95132046.952    22482765.490   118147681.648  
C39  26095995.510   135888729.528                                    26095987.897   102406292.209    26095985.968   110420671.466    26095989.595   137135533.655  
> 2026 06 07 17 11 48.0000000  0 11                     
C01  38580910.277   200900922.200                                                                    38580906.257   163248447.823                                  
C02  36971205.003   192518751.741                                                                    36971187.027   156437188.686                                  
C03  37007898.470   192709842.065                                                                    37007884.890   156592477.249                                  
C08  38129251.102   198549048.960                                                                    38129248.743   161337407.141                                  
C09  38890585.752   202513482.387    38890588.790   156596235.991                                    38890586.807   164558751.343                                  
C12  23038673.993   119968400.517                                                                    23038672.689    97484164.811                                  
C19  22413361.187   116712269.907                                    22413360.258    87954826.538    22413356.291    94838233.649    22413355.218   117782997.281  
C20  24876891.103   129540403.018                                    24876893.051    97622209.011    24876886.886   105262179.482    24876885.099   130728819.675  
C22  23330923.454   121490267.717                                    23330917.987    91555537.807    23330916.861    98720724.673    23330919.541   122604782.873  
C36  22480995.582   117064518.986                                    22481001.711    88220348.888    22480998.798    95124540.007    22480991.490   118138358.468  
C39  26090286.428   135859002.632                                    26090280.478   102383889.772    26090276.457   110396515.821    26090277.923   137105533.934  
> 2026 06 07 17 12 03.0000000  0 11                     
C01  38580885.475   200900792.953                                                                    38580881.580   163248342.822                                  
C02  36971405.172   192519794.142                                                                    36971387.160   156438035.739                                  
C03  37008046.408   192710612.843                                                                    37008032.863   156593103.579                                  
C08  38124417.477   198523881.513                                                                    38124416.280   161316956.567                                  
C09  38896189.246   202542662.559    38896192.248   156618799.956                                    38896191.015   164582462.637                                  
C12  23046552.088   120009424.222                                                                    23046550.927    97517499.937                                  
C19  22417455.605   116733591.023                                    22417454.819    87970894.236    22417450.763    94855558.809    22417449.566   117804514.012  
C20  24886303.021   129589413.910                                    24886305.094    97659143.803    24886298.875   105302004.815    24886297.482   130778280.249  
C22  23326097.103   121465135.431                                    23326091.277    91536598.044    23326090.259    98700302.644    23326093.386   122579419.995  
C36  22479229.407   117055322.240                                    22479236.001    88213418.208    22479232.731    95117066.921    22479225.298   118129077.354  
C39  26084582.154   135829305.072                                    26084576.543   102361509.503    26084574.702   110372384.081    26084575.560   137075563.920  
> 2026 06 07 17 12 18.0000000  0 12                     
C01  38580861.745   200900669.436                                                                    38580857.814   163248242.460                                  
C02  36971606.395   192520842.365                                                                    36971588.437   156438887.511                                  
C03  37008195.382   192711389.308                                                                    37008181.873   156593734.523                                  
C07  37172976.114   193569442.9331                                                                                                                                 
C08  38119588.713   198498737.564                                                                    38119587.838   161296525.115                                  
C09  38901795.616   202571855.955    38901798.278   156641374.157                                    38901798.171   164606184.665                                  
C12  23054444.210   120050521.902                                                                    23054442.531    97550895.149                                  
C19  22421573.432   116755032.821                                    22421572.039    87987052.860    22421568.983    94872982.035    22421568.089   117826152.538  
C20  24895722.230   129638463.240                                    24895723.838    97696107.538    24895718.227   105341861.390    24895716.905   130827779.581  
C22  23321292.408   121440116.048                                    23321286.494    91517743.367    23321285.511    98679972.367    23321288.727   122554171.106  
C36  22477472.525   117046173.666                                    22477479.190    88206523.820    22477476.117    95109632.974    22477468.433   118119844.839  
C39  26078885.813   135799643.632                                    26078879.773   102339156.375    26078881.095   110348281.613    26078880.291   137045630.304  
> 2026 06 07 17 12 33.0000000  0 12                     
C01  38580836.496   200900538.182                                                                    38580832.547   163248135.812                                  
C02  36971806.189   192521882.937                                                                    36971788.284   156439733.070                                  
C03  37008342.855   192712157.957                                                                    37008329.471   156594359.125                                  
C07  37172856.910   193568825.474                                                                                                                                  
C08  38114762.183   198473603.702                                                                    38114761.004   161276101.866                                  
C09  38907401.986   202601049.037    38907404.506   156663948.057                                    38907404.541   164629906.438                                  
C12  23062348.376   120091679.824                                                                    23062346.357    97584339.325                                  
C19  22425712.077   116776581.659                                    22425710.469    88003292.122    22425706.877    94890492.215    22425706.627   117847899.043  
C20  24905146.335   129687537.247                                    24905147.335    97733089.907    24905142.475   105381738.053    24905141.117   130877303.830  
C22  23316506.870   121415196.396                                    23316501.187    91498963.858    23316499.829    98659723.135    23316503.046   122529022.822  
C36  22475722.111   117037059.741                                    22475728.562    88199655.550    22475725.346    95102227.171    22475717.751   118110647.289  
C39  26073193.350   135770004.751                                    26073188.203   102316820.320    26073191.259   110324197.502    26073188.275   137015719.542  
> 2026 06 07 17 12 48.0000000  0 12                     
C01  38580811.819   200900409.987                                                                    38580807.959   163248031.655                                  
C02  36972006.590   192522926.679                                                                    36971988.685   156440581.201                                  
C03  37008490.953   192712929.642                                                                    37008477.784   156594986.194                                  
C07  37172736.204   193568196.869                                                                    37172729.575   157289986.8721                                 
C08  38109939.530   198448490.867                                                                    38109937.654   161255695.706                                  
C09  38913010.054   202630252.476    38913012.859   156686529.989                                    38913012.716   164653636.608                                  
C12  23070266.212   120132908.565                                                                    23070264.175    97617841.022                                  
C19  22429872.503   116798248.143                                    22429872.271    88019620.075    22429867.500    94908098.003    22429867.447   117869764.305  
C20  24914577.373   129736646.550                                    24914577.605    97770098.822    24914573.817   105421643.325    24914572.369   130926863.644  
C22  23311742.666   121390387.431                                    23311737.020    91480267.760    23311735.447    98639563.856    23311738.521   122503986.246  
C36  22473980.507   117027991.149                                    22473986.654    88192821.473    22473983.384    95094858.214    22473975.879   118101495.522  
C39  26067507.981   135740399.277                                    26067503.442   102294509.458    26067504.943   110300140.594    26067503.317   136985842.437  
> 2026 06 07 17 13 03.0000000  0 13                     
C01  38580787.392   200900282.991                                                                    38580783.550   163247928.502                                  
C02  36972207.259   192523971.712                                                                    36972189.354   156441430.399                                  
C03  37008639.338   192713702.460                                                                    37008626.240   156595614.179                                  
C07  37172612.872   193567555.246                                                                    37172606.011   157289465.631                                  
C08  38105120.076   198423397.245                                                                    38105118.128   161235305.116                                  
C09  38918619.801   202659464.209    38918622.982   156709118.414                                    38918622.410   164677373.566                                  
C10                                  37312906.396   150243600.5161                                                                                                 
C12  23078197.199   120174205.921                                                                    23078194.715    97651398.487                                  
C19  22434055.302   116820030.254                                    22434055.856    88036035.190    22434050.263    94925797.769    22434050.192   117891746.278  
C20  24924014.665   129785788.917                                    24924015.058    97807132.685    24924011.770   105461575.516    24924009.322   130976456.867  
C22  23306999.388   121365687.522                                    23306993.777    91461653.829    23306991.615    98619493.188    23306995.028   122479059.726  
C36  22472247.337   117018965.909                                    22472253.698    88186020.058    22472250.464    95087524.488    22472242.780   118092387.487  
C39  26061828.776   135710825.222                                    26061824.077   102272222.242    26061824.916   110276109.190    26061824.720   136955997.069  
> 2026 06 07 17 13 18.0000000  0 13                     
C01  38580763.590   200900159.271                                                                    38580759.766   163247827.977                                  
C02  36972408.536   192525020.109                                                                    36972390.720   156442282.334                                  
C03  37008788.347   192714478.457                                                                    37008775.249   156596244.748                                  
C07  37172487.396   193566902.791                                                                    37172479.516   157288935.458                                  
C08  38100304.821   198398324.941                                                                    38100303.356   161214931.881                                  
C09  38924231.872   202688686.389    38924234.981   156731714.873                                    38924234.391   164701118.988                                  
C10                                  37312780.276   150243092.188                                                                                                  
C12  23086142.017   120215573.706                                                                    23086138.675    97685013.185                                  
C19  22438261.170   116841929.967                                    22438261.331    88052538.875    22438256.184    94943593.069    22438256.274   117913846.868  
C20  24933458.604   129834966.215                                    24933459.265    97844192.879    24933455.781   105501536.073    24933452.332   131026085.283  
C22  23302277.481   121341098.925                                    23302272.102    91443123.792    23302268.886    98599512.977    23302273.103   122454245.561  
C36  22470522.833   117009986.018                                    22470529.498    88179252.812    22470526.371    95080227.614    22470518.348   118083325.194  
C39  26056155.826   135681284.783                                    26056150.966   102249960.282    26056151.770   110252105.048    26056153.056   136926185.553  
> 2026 06 07 17 13 33.0000000  0 13                     
C01  38580739.431   200900033.658                                                                    38580735.536   163247725.913                                  
C02  36972609.455   192526066.723                                                                    36972591.711   156443132.798                                  
C03  37008936.982   192715252.529                                                                    37008923.848   156596873.749                                  
C07  37172358.596   193566234.332                                                                    37172351.234   157288392.311                                  
C08  38095493.140   198373268.830                                                                    38095491.871   161194571.802                                  
C09  38929845.068   202717913.698    38929847.891   156754315.251                                    38929847.087   164724868.567                                  
C10                                  37312650.743   150242568.845                                                                                                  
C12  23094099.235   120257006.550                                                                    23094095.340    97718680.724                                  
C19  22442487.998   116863941.851                                    22442488.427    88069127.135    22442482.566    94961479.520    22442483.388   117936060.734  
C20  24942908.101   129884172.866                                    24942908.887    97881275.211    24942905.421   105541520.518    24942902.436   131075743.390  
C22  23297575.962   121316616.669                                    23297570.816    91424673.905    23297566.652    98579619.178    23297571.513   122429538.673  
C36  22468806.031   117001046.202                                    22468812.428    88172515.760    22468809.784    95072963.291    22468801.832   118074303.359  
C39  26050487.593   135651772.649                                    26050483.751   102227719.647    26050482.733   110228123.882    26050485.127   136896402.618  
> 2026 06 07 17 13 48.0000000  0 13                     
C01  38580715.273   200899908.112                                                                    38580711.377   163247623.906                                  
C02  36972810.392   192527113.480                                                                    36972792.737   156443983.398                                  
C03  37009085.599   192716026.607                                                                    37009072.501   156597502.756                                  
C07  37172227.205   193565551.910                                                                    37172221.183   157287837.723                                  
C08  38090684.997   198348231.018                                                                    38090683.406   161174226.595                                  
C09  38935459.336   202747148.047    38935462.017   156776921.120                                    38935461.302   164748623.863                                  
C10                                  37312517.959   150242031.867                                                                                                  
C12  23102068.820   120298506.063                                                                    23102064.960    97752402.445                                  
C19  22446736.948   116886067.774                                    22446736.912    88085801.331    22446731.641    94979458.636    22446732.284   117958389.656  
C20  24952363.709   129933410.649                                    24952364.352    97918380.989    24952360.778   105581530.247    24952357.776   131125432.874  
C22  23292895.243   121292242.948                                    23292890.365    91406305.808    23292885.344    98559813.557    23292890.829   122404941.334  
C36  22467097.306   116992148.331                                    22467103.417    88165810.322    22467100.880    95065733.061    22467093.071   118065323.862  
C39  26044825.811   135622290.657                                    26044823.041   102205501.780    26044818.932   110204167.306    26044823.613   136866650.240  
> 2026 06 07 17 14 03.0000000  0 13                     
C01  38580692.400   200899789.196                                                                    38580688.415   163247527.282                                  
C02  36973012.669   192528166.975                                                                    36972994.997   156444839.455                                  
C03  37009235.466   192716807.251                                                                    37009222.440   156598137.107                                  
C07  37172094.617   193564861.992                                                                    37172089.489   157287277.113                                  
C08  38085881.535   198323218.113                                                                    38085879.230   161153901.594                                  
C09  38941075.445   202776395.758    38941078.644   156799537.260                                    38941077.714   164772390.002                                  
C10                                  37312383.012   150241486.317                                                                                                  
C12  23110052.270   120340078.500                                                                    23110048.804    97786183.436                                  
C19  22451009.288   116908314.117                                    22451008.842    88102566.244    22451005.286    94997535.609    22451004.642   117980840.088  
C20  24961826.357   129982685.799                                    24961826.840    97955514.909    24961823.462   105621570.303    24961819.710   131175160.058  
C22  23288236.610   121267984.506                                    23288231.768    91388024.553    23288226.728    98540101.616    23288232.179   122380460.331  
C36  22465397.801   116983298.859                                    22465403.519    88159141.363    22465401.124    95058542.166    22465393.655   118056393.202  
C39  26039172.177   135592845.456                                    26039168.907   102183311.622    26039164.797   110180240.581    26039170.623   136836934.929  
> 2026 06 07 17 14 18.0000000  0 13                     
C01  38580667.366   200899658.942                                                                    38580663.434   163247421.459                                  
C02  36973212.785   192529209.251                                                                    36973195.130   156445686.390                                  
C03  37009383.171   192717576.534                                                                    37009370.091   156598762.219                                  
C07  37171957.419   193564146.663                                                                    37171951.861   157286695.861                                  
C08  38081079.343   198298212.231                                                                    38081076.555   161133582.316                                  
C09  38946690.357   202805638.844    38946694.484   156822149.883                                    38946693.573   164796152.427                                  
C10                                  37312242.383   150240918.575                                                                                                  
C12  23118046.139   120381705.754                                                                    23118043.494    97820008.959                                  
C19  22455301.356   116930662.753                                    22455300.838    88119408.263    22455296.942    95015695.720    22455297.282   118003393.766  
C20  24971292.651   130031980.111                                    24971293.383    97992663.283    24971289.631   105661625.958    24971287.094   131224906.614  
C22  23283596.597   121243823.599                                    23283592.040    91369816.843    23283587.037    98520468.945    23283592.129   122356077.767  
C36  22463704.121   116974479.742                                    22463709.571    88152495.263    22463707.784    95051375.925    22463700.065   118047493.176  
C39  26033521.653   135563419.055                                    26033518.025   102161135.633    26033514.487   110156329.130    26033519.526   136807238.602  
> 2026 06 07 17 14 33.0000000  0 12                     
C01  38580641.062   200899522.172                                                                    38580637.221   163247310.339                                  
C02  36973411.631   192530245.057                                                                    36973394.066   156446528.091                                  
C03  37009529.572   192718339.202                                                                    37009516.546   156599381.985                                  
C07                                                                                                  37171809.463   157286097.970                                  
C08  38076279.419   198273218.201                                                                    38076276.936   161113272.674                                  
C09  38952305.751   202834882.036    38952310.486   156844762.621                                    38952309.593   164819914.967                                  
C12  23126051.014   120423392.196                                                                    23126049.138    97853882.608                                  
C19  22459613.991   116953118.310                                    22459612.722    88136330.863    22459607.898    95033942.688    22459609.631   118026055.325  
C20  24980763.412   130081298.052                                    24980765.288    98029829.499    24980760.302   105701700.827    24980759.588   131274677.078  
C22  23278976.257   121219765.222                                    23278972.111    91351686.352    23278967.233    98500919.541    23278971.700   122331798.658  
C36  22462017.303   116965695.649                                    22462023.629    88145875.549    22462020.681    95044238.156    22462013.086   118038628.492  
C39  26027875.399   135534016.191                                    26027871.468   102138977.383    26027866.036   110132436.829    26027873.666   136777565.982  
> 2026 06 07 17 14 48.0000000  0 12                     
C01  38580615.295   200899388.112                                                                    38580611.454   163247201.392                                  
C02  36973610.978   192531283.673                                                                    36973593.556   156447372.054                                  
C03  37009676.509   192719104.510                                                                    37009663.519   156600003.865                                  
C07                                                                                                  37171665.010   157285490.851                                  
C08  38071483.606   198248245.395                                                                    38071481.730   161092980.247                                  
C09  38957923.486   202864134.431    38957928.328   156867382.406                                    38957927.256   164843684.911                                  
C12  23134069.506   120465146.884                                                                    23134067.576    97887811.695                                  
C19  22463948.677   116975689.823                                    22463947.068    88153340.828    22463942.315    95052283.877    22463944.031   118048833.928  
C20  24990240.766   130130648.647                                    24990243.518    98067020.271    24990237.621   105741802.209    24990237.585   131324480.428  
C22  23274377.360   121195818.781                                    23274373.876    91333640.224    23274369.033    98481461.115    23274372.929   122307632.492  
C36  22460338.973   116956955.739                                    22460345.728    88139289.119    22460341.814    95037136.278    22460334.577   118029808.420  
C39  26022234.827   135504646.102                                    26022231.379   102116843.833    26022224.446   110108571.116    26022233.559   136747926.398  
> 2026 06 07 17 15 03.0000000  0 12                     
C01  38580591.333   200899263.104                                                                    38580587.402   163247099.829                                  
C02  36973812.094   192532331.436                                                                    36973794.779   156448223.459                                  
C03  37009825.180   192719878.841                                                                    37009812.153   156600633.084                                  
C07                                                                                                  37171520.289   157284879.823                                  
C08  38066693.225   198223300.192                                                                    38066691.420   161072710.271                                  
C09  38963544.491   202893402.371    38963549.065   156890014.265                                    38963547.689   164867467.533                                  
C12  23142102.239   120506975.853                                                                    23142100.095    97921801.150                                  
C19  22468306.878   116998383.532                                    22468305.573    88170442.885    22468301.052    95070724.358    22468302.250   118071735.837  
C20  24999725.626   130180037.928                                    24999728.592    98104240.246    24999722.338   105781935.042    24999723.464   131374322.868  
C22  23269801.103   121171990.811                                    23269798.048    91315683.386    23269793.098    98462098.928    23269796.850   122283585.922  
C36  22458670.221   116948266.271                                    22458676.689    88132740.714    22458673.366    95030075.397    22458665.718   118021039.238  
C39  26016600.599   135475315.122                                    26016596.686   102094739.699    26016593.023   110084737.167    26016599.331   136718326.329  
> 2026 06 07 17 15 18.0000000  0 12                     
C01  38580565.923   200899130.812                                                                    38580561.956   163246992.348                                  
C02  36974011.869   192533371.996                                                                    36973994.554   156449069.009                                  
C03  37009972.492   192720645.797                                                                    37009959.430   156601256.318                                  
C07                                                                                                  37171371.887   157284251.499                                  
C08  38061905.005   198198366.306                                                                    38061902.825   161052449.491                                  
C09  38969165.549   202922669.356    38969169.659   156912645.344                                    38969167.908   164891249.380                                  
C12  23150146.051   120548862.492                                                                    23150143.854    97955837.468                                  
C19  22472685.164   117021182.852                                    22472684.485    88187624.537    22472679.017    95089250.673    22472680.053   118094744.310  
C20  25009214.738   130229449.255                                    25009217.311    98141476.834    25009211.414   105822085.774    25009212.701   131424187.510  
C22  23265244.645   121148265.195                                    23265241.983    91297803.675    23265237.033    98442819.935    23265240.428   122259642.637  
C36  22457007.812   116939610.742                                    22457014.334    88126217.893    22457011.475    95023042.089    22457003.684   118012304.289  
C39  26010971.857   135446006.735                                    26010968.123   102072652.609    26010967.372   110060921.601    26010970.982   136688749.043  
> 2026 06 07 17 15 33.0000000  0 12                     
C01  38580540.728   200898999.733                                                                    38580536.707   163246885.833                                  
C02  36974211.913   192534413.854                                                                    36974194.652   156449915.616                                  
C03  37010119.929   192721413.877                                                                    37010106.992   156601880.455                                  
C07                                                                                                  37171221.983   157283612.888                                  
C08  38057120.467   198173452.394                                                                    38057118.001   161032204.949                                  
C09  38974787.733   202951943.894    38974791.897   156935282.251                                    38974789.449   164915037.295                                  
C12  23158202.622   120590815.053                                                                    23158200.353    97989927.335                                  
C19  22477085.625   117044096.159                                    22477084.481    88204892.086    22477079.335    95107869.579    22477080.157   118117867.813  
C20  25018709.408   130278890.875                                    25018711.606    98178736.204    25018706.013   105862261.093    25018706.281   131474082.655  
C22  23260709.666   121124650.597                                    23260707.004    91280007.641    23260702.197    98423631.143    23260705.360   122235811.388  
C36  22455353.605   116930997.626                                    22455360.270    88119727.019    22455356.804    95016043.227    22455349.763   118003612.136  
C39  26005350.870   135416729.455                                    26005347.421   102050588.949    26005345.956   110037131.269    26005349.137   136659203.173  
> 2026 06 07 17 15 48.0000000  0 12                     
C01  38580516.480   200898873.602                                                                    38580512.674   163246783.365                                  
C02  36974412.922   192535460.759                                                                    36974395.678   156450766.333                                  
C03  37010268.349   192722186.879                                                                    37010255.466   156602508.601                                  
C07                                                                                                  37171070.472   157282966.995                                  
C08  38052340.486   198148562.203                                                                    38052338.056   161011979.677                                  
C09  38980411.883   202981229.495    38980416.136   156957927.774                                    38980412.723   164938834.245                                  
C12  23166272.773   120632836.991                                                                    23166270.397    98024073.556                                  
C19  22481508.297   117067126.990                                    22481507.458    88222248.205    22481502.669    95126584.016    22481502.633   118141109.942  
C20  25028209.795   130328366.135                                    25028212.440    98216020.985    25028206.847   105902463.821    25028207.365   131524011.875  
C22  23256196.952   121101150.975                                    23256194.075    91262298.234    23256189.411    98404535.799    23256192.502   122212096.206  
C36  22453708.404   116922430.523                                    22453715.016    88113270.823    22453711.531    95009081.763    22453704.241   117994966.441  
C39  25999736.512   135387486.993                                    25999732.331   102028551.560    25999730.455   110013369.276    25999734.279   136629692.441  
> 2026 06 07 17 16 03.0000000  0 12                     
C01  38580491.749   200898744.852                                                                    38580487.764   163246678.736                                  
C02  36974613.359   192536505.071                                                                    36974596.151   156451614.939                                  
C03  37010416.287   192722957.133                                                                    37010403.368   156603134.505                                  
C07                                                                                                  37170914.940   157282307.718                                  
C08  38047563.596   198123688.186                                                                    38047561.219   160991767.548                                  
C09  38986036.534   203010518.423    38986040.840   156980575.851                                    38986036.855   164962633.893                                  
C12  23174354.521   120674920.396                                                                    23174353.253    98058269.747                                  
C19  22485952.038   117090267.568                                    22485951.662    88239687.036    22485946.337    95145387.622    22485946.445   118164462.825  
C20  25037716.026   130377867.265                                    25037718.707    98253325.232    25037712.560   105942687.532    25037714.472   131573967.174  
C22  23251704.876   121077758.924                                    23251701.892    91244669.897    23251697.192    98385527.843    23251700.373   122188489.549  
C36  22452070.708   116913901.694                                    22452077.016    88106843.475    22452073.764    95002151.415    22452066.545   117986359.375  
C39  25994126.747   135358271.780                                    25994121.601   102006534.671    25994120.296   109989629.369    25994123.066   136600209.269  
> 2026 06 07 17 16 18.0000000  0 12                     
C01  38580467.108   200898616.654                                                                    38580463.069   163246574.588                                  
C02  36974813.938   192537550.054                                                                    36974796.927   156452464.097                                  
C03  37010564.296   192723727.928                                                                    37010551.395   156603760.858                                  
C07                                                                                                  37170756.352   157281637.616                                  
C08  38042790.261   198098833.714                                                                    38042787.867   160971571.289                                  
C09  38991662.399   203039813.958    38991666.580   157003229.017                                    38991662.381   164986438.917                                  
C12  23182447.956   120717068.177                                                                    23182447.527    98092518.289                                  
C19  22490417.489   117113520.945                                    22490417.346    88257210.878    22490412.342    95164282.888    22490412.557   118187929.542  
C20  25047228.100   130427397.200                                    25047230.245    98290651.181    25047224.115   105982934.652    25047224.187   131623951.497  
C22  23247234.136   121054477.818                                    23247230.955    91227125.176    23247226.291    98366610.057    23247229.597   122164994.861  
C36  22450440.893   116905414.316                                    22450447.093    88100447.380    22450444.163    94995254.732    22450436.568   117977794.122  
C39  25988522.253   135329086.986                                    25988515.802   101984540.675    25988515.910   109965914.169    25988519.019   136570756.700  
> 2026 06 07 17 16 33.0000000  0 12                     
C01  38580442.198   200898487.157                                                                    38580438.178   163246469.363                                  
C02  36975014.304   192538593.802                                                                    36974997.382   156453312.241                                  
C03  37010712.055   192724497.312                                                                    37010699.189   156604386.072                                  
C07                                                                                                  37170594.459   157280955.286                                  
C08  38038020.430   198073996.831                                                                    38038017.874   160951389.352                                  
C09  38997289.068   203069114.133    38997293.160   157025885.748                                    38997289.140   165010247.719                                  
C12  23190554.166   120759278.256                                                                    23190552.969    98126817.399                                  
C19  22494904.293   117136885.073                                    22494903.757    88274818.179    22494899.897    95183268.161    22494898.861   118211508.020  
C20  25056745.178   130476953.820                                    25056746.536    98327997.203    25056741.604   106023203.396    25056740.228   131673962.730  
C22  23242784.338   121031306.019                                    23242781.139    91209662.833    23242776.422    98347781.088    23242779.888   122141610.485  
C36  22448818.510   116896966.419                                    22448824.479    88094081.023    22448821.655    94988390.133    22448814.204   117969268.707  
C39  25982923.334   135299930.576                                    25982915.579   101962568.094    25982917.706   109942222.071    25982918.635   136541332.874  
> 2026 06 07 17 16 48.0000000  0 12                     
C01  38580416.395   200898352.716                                                                    38580412.482   163246360.133                                  
C02  36975213.758   192539632.679                                                                    36975196.854   156454156.430                                  
C03  37010858.867   192725261.705                                                                    37010846.037   156605007.222                                  
C07                                                                                                  37170429.099   157280257.689                                  
C08  38033253.564   198049174.066                                                                    38033250.848   160931218.855                                  
C09  39002915.952   203098415.088    39002919.830   157048543.116                                    39002916.488   165034057.133                                  
C12  23198671.456   120801546.668                                                                    23198670.062    98161163.917                                  
C19  22499411.718   117160356.129                                    22499410.807    88292506.049    22499406.572    95202340.300    22499406.125   118235194.389  
C20  25066266.061   130526533.065                                    25066267.223    98365360.330    25066263.827   106063490.582    25066260.432   131723996.768  
C22  23238354.821   121008240.051                                    23238351.498    91192280.251    23238346.816    98329038.133    23238350.551   122118332.911  
C36  22447202.990   116888554.233                                    22447208.368    88087741.590    22447205.563    94981554.562    22447198.648   117960779.327  
C39  25977329.329   135270798.918                                    25977322.200   101940614.199    25977322.664   109918550.085    25977324.916   136511934.006  
> 2026 06 07 17 17 03.0000000  0 12                     
C01  38580390.521   200898217.757                                                                    38580386.679   163246250.475                                  
C02  36975413.087   192540671.122                                                                    36975396.290   156455000.265                                  
C03  37011005.500   192726025.498                                                                    37010992.652   156605627.895                                  
C07                                                                                                  37170261.756   157279548.492                                  
C08  38028490.433   198024369.922                                                                    38028487.681   160911063.501                                  
C09  39008543.783   203127721.241    39008547.464   157071204.513                                    39008544.766   165057870.776                                  
C12  23206800.664   120843877.597                                                                    23206798.663    98195561.246                                  
C19  22503940.372   117183938.346                                    22503939.121    88310277.689    22503934.958    95221502.783    22503934.243   118258992.944  
C20  25075792.198   130576139.172                                    25075793.234    98402743.687    25075790.643   106103799.605    25075785.944   131774057.998  
C22  23233946.462   120985284.552                                    23233942.835    91174980.902    23233938.421    98310384.919    23233942.227   122095166.815  
C36  22445595.153   116880182.113                                    22445600.782    88081432.356    22445597.458    94974751.562    22445590.632   117952330.410  
C39  25971740.489   135241696.538                                    25971734.985   101918682.239    25971732.323   109894901.838    25971737.076   136482564.611  
> 2026 06 07 17 17 18.0000000  0 12                     
C01  38580365.808   200898088.792                                                                    38580361.680   163246145.701                                  
C02  36975613.595   192541715.629                                                                    36975596.816   156455849.029                                  
C03  37011153.259   192726795.202                                                                    37011140.554   156606253.355                                  
C07                                                                                                  37170093.018   157278832.983                                  
C08  38023732.287   197999590.945                                                                    38023729.339   160890928.614                                  
C09  39014173.758   203157038.985    39014177.261   157093874.855                                    39014175.259   165081693.849                                  
C12  23214943.042   120886277.225                                                                    23214940.612    98230014.389                                  
C19  22508491.433   117207638.028                                    22508490.969    88328137.874    22508486.877    95240760.730    22508486.555   118282910.096  
C20  25085325.340   130625778.366                                    25085326.197    98440151.948    25085322.963   106144135.507    25085319.872   131824152.562  
C22  23229560.546   120962446.201                                    23229556.686    91157769.842    23229552.630    98291826.917    23229556.526   122072118.938  
C36  22443996.072   116871856.430                                    22444001.683    88075158.115    22443999.324    94967986.255    22443991.605   117943928.345  
C39  25966158.206   135212629.781                                    25966152.577   101896777.207    25966149.968   109871282.563    25966157.277   136453231.111  
> 2026 06 07 17 17 33.0000000  0 12                     
C01  38580340.398   200897956.378                                                                    38580336.288   163246038.118                                  
C02  36975813.460   192542756.768                                                                    36975796.699   156456695.066                                  
C03  37011300.357   192727561.368                                                                    37011287.634   156606875.951                                  
C07                                                                                                  37169920.332   157278103.600                                  
C08  38018977.072   197974827.792                                                                    38018974.070   160870806.568                                  
C09  39019804.270   203186358.802    39019807.629   157116546.757                                    39019806.074   165105518.621                                  
C12  23223096.820   120928735.849                                                                    23223094.997    98264515.475                                  
C19  22513063.634   117231445.629                                    22513063.938    88346079.390    22513058.577    95260106.361    22513059.042   118306936.121  
C20  25094862.681   130675440.820                                    25094864.539    98477577.773    25094858.964   106184490.321    25094857.570   131874270.694  
C22  23225195.340   120939715.746                                    23225191.320    91140640.094    23225187.603    98273356.577    23225191.391   122049179.946  
C36  22442404.067   116863567.717                                    22442409.982    88068911.704    22442408.141    94961250.966    22442400.136   117935563.541  
C39  25960581.069   135183589.171                                    25960574.905   101874891.816    25960572.957   109847684.509    25960581.052   136423924.058  
> 2026 06 07 17 17 48.0000000  0 12                     
C01  38580314.256   200897820.250                                                                    38580310.164   163245927.506                                  
C02  36976012.628   192543794.270                                                                    36975995.921   156457538.140                                  
C03  37011446.811   192728323.757                                                                    37011434.017   156607495.471                                  
C07                                                                                                  37169744.161   157277360.022                                  
C08  38014224.752   197950080.251                                                                    38014221.839   160850697.244                                  
C09  39025435.156   203215680.251    39025438.444   157139219.981                                    39025436.782   165129344.733                                  
C12  23231262.052   120971252.978                                                                    23231260.748    98299064.089                                  
C19  22517656.491   117255360.669                                    22517656.455    88364101.863    22517650.398    95279539.273    22517651.970   118331070.577  
C20  25104404.435   130725126.129                                    25104407.383    98515020.777    25104399.539   106224863.669    25104399.396   131924411.831  
C22  23220850.827   120917093.120                                    23220846.806    91123591.603    23220843.393    98254973.849    23220846.985   122026349.756  
C36  22440819.317   116855315.519                                    22440825.464    88062692.841    22440823.195    94954545.377    22440815.547   117927235.665  
C39  25955009.115   135154574.478                                    25955003.486   101853026.009    25955000.574   109824107.529    25955007.900   136394643.181  
> 2026 06 07 17 18 03.0000000  0 12                     
C01  38580288.667   200897686.981                                                                    38580284.558   163245819.224                                  
C02  36976212.332   192544834.697                                                                    36976195.732   156458383.586                                  
C03  37011593.820   192729088.914                                                                    37011580.918   156608117.250                                  
C07                                                                                                  37169566.954   157276607.599                                  
C08  38009476.452   197925354.972                                                                    38009473.879   160830605.972                                  
C09  39031067.418   203245009.862    39031071.064   157161899.490                                    39031069.241   165153177.435                                  
C12  23239439.578   121013834.775                                                                    23239438.363    98333665.299                                  
C19  22522270.970   117279389.514                                    22522270.130    88382210.090    22522264.841    95299064.676    22522265.323   118355319.835  
C20  25113951.389   130774840.480                                    25113955.303    98552485.699    25113946.743   106265260.624    25113944.742   131974582.248  
C22  23216528.328   120894585.072                                    23216524.182    91106629.468    23216521.127    98236684.236    23216524.665   122003635.224  
C36  22439243.144   116847106.313                                    22439249.130    88056506.391    22439246.218    94947874.758    22439239.124   117918951.192  
C39  25949443.522   135125592.154                                    25949439.483   101831184.603    25949434.837   109800556.854    25949441.896   136365395.014  
> 2026 06 07 17 18 18.0000000  0 12                     
C01  38580263.079   200897553.806                                                                    38580259.041   163245711.012                                  
C02  36976412.072   192545875.263                                                                    36976395.579   156459229.172                                  
C03  37011740.793   192729854.102                                                                    37011727.802   156608739.057                                  
C07                                                                                                  37169387.156   157275844.270                                  
C08  38004731.566   197900649.276                                                                    38004729.689   160810530.592                                  
C09  39036700.449   203274344.869    39036704.863   157184583.205                                    39036702.558   165177014.527                                  
C12  23247629.255   121056478.380                                                                    23247626.825    98368316.664                                  
C19  22526906.838   117303529.229                                    22526905.783    88400401.876    22526900.691    95318680.162    22526901.405   118379681.024  
C20  25123503.347   130824580.929                                    25123507.135    98589970.295    25123499.666   106305678.777    25123497.897   132024779.029  
C22  23212227.326   120872189.020                                    23212222.948    91089751.728    23212220.285    98218485.634    23212223.859   121981033.709  
C36  22437674.619   116838937.283                                    22437680.945    88050350.187    22437676.835    94941236.785    22437670.509   117910707.208  
C39  25943883.504   135096639.470                                    25943879.197   101809365.503    25943875.695   109777030.275    25943880.502   136336176.711  
> 2026 06 07 17 18 33.0000000  0 11                     
C01  38580237.044   200897418.091                                                                    38580232.970   163245600.754                                  
C02  36976611.294   192546913.404                                                                    36976594.872   156460072.758                                  
C03  37011887.247   192730616.697                                                                    37011874.310   156609358.749                                  
C08  37999990.020   197875960.577                                                                    37999988.716   160790469.044                                  
C09  39042334.266   203303682.485    39042339.073   157207268.931                                    39042336.268   165200853.759                                  
C12  23255829.672   121099180.733                                                                    23255826.366    98403015.820                                  
C19  22531563.362   117327777.006                                    22531562.004    88418675.092    22531556.911    95338383.448    22531557.680   118404151.254  
C20  25133059.701   130874344.515                                    25133063.185    98627472.318    25133057.145   106346115.755    25133055.823   132074999.196  
C22  23207947.409   120849902.535                                    23207942.817    91072956.562    23207940.440    98200376.045    23207943.710   121958542.734  
C36  22436112.974   116830805.711                                    22436119.764    88044222.182    22436115.654    94934629.229    22436108.882   117902501.011  
C39  25938328.864   135067713.682                                    25938323.647   101787566.689    25938322.950   109753525.520    25938325.326   136306985.593  
> 2026 06 07 17 18 48.0000000  0 11                     
C01  38580211.902   200897287.003                                                                    38580207.703   163245494.248                                  
C02  36976811.463   192547956.216                                                                    36976795.166   156460920.156                                  
C03  37012034.613   192731383.832                                                                    37012021.551   156609982.144                                  
C08  37995253.246   197851296.090                                                                    37995252.281   160770427.164                                  
C09  39047970.192   203333029.661    39047974.927   157229962.061                                    39047972.050   165224700.763                                  
C12  23264042.882   121141948.762                                                                    23264039.737    98437768.325                                  
C19  22536242.026   117352139.797                                    22536240.990    88437034.988    22536236.201    95358180.211    22536236.808   118428737.557  
C20  25142621.808   130924138.060                                    25142625.060    98664996.961    25142619.539   106386577.101    25142617.930   132125249.619  
C22  23203690.007   120827732.963                                    23203685.272    91056249.512    23203683.092    98182361.468    23203686.076   121936169.769  
C36  22434559.834   116822718.629                                    22434566.624    88038127.725    22434563.033    94928057.828    22434555.867   117894339.726  
C39  25932780.801   135038821.967                                    25932776.477   101765793.509    25932775.887   109730048.451    25932777.638   136277828.776  
> 2026 06 07 17 19 03.0000000  0 11                     
C01  38580187.207   200897158.241                                                                    38580182.954   163245389.607                                  
C02  36977012.096   192549001.400                                                                    36976995.871   156461769.470                                  
C03  37012182.372   192732153.184                                                                    37012169.292   156610607.329                                  
C08  37990520.689   197826653.592                                                                    37990519.831   160750403.177                                  
C09  39053607.333   203362384.148    39053612.032   157252660.846                                    39053609.584   165248553.711                                  
C12  23272268.261   121184779.886                                                                    23272265.581    98472572.077                                  
C19  22540942.276   117376615.112                                    22540940.543    88455479.691    22540937.416    95378068.419    22540937.112   118453437.426  
C20  25152189.490   130973959.112                                    25152192.832    98702542.263    25152186.703   106427060.775    25152186.345   132175527.721  
C22  23199454.709   120805678.146                                    23199449.902    91039628.936    23199447.579    98164440.146    23199450.778   121913912.632  
C36  22433014.843   116814673.621                                    22433021.383    88032064.967    22433018.542    94921520.596    22433010.822   117886220.923  
C39  25927238.580   135009961.947                                    25927235.436   101744044.275    25927232.845   109706597.167    25927235.042   136248704.029  
> 2026 06 07 17 19 18.0000000  0 12                     
C01  38580161.118   200897022.561                                                                    38580156.830   163245279.389                                  
C02  36977211.461   192550039.745                                                                    36977195.272   156462613.239                                  
C03  37012328.719   192732915.538                                                                    37012315.746   156611226.835                                  
C07  37168641.410   193546876.7821                                                                                                                                 
C08  37985790.455   197802023.964                                                                    37985789.597   160730389.598                                  
C09  39059244.223   203391736.619    39059248.637   157275358.037                                    39059246.457   165272405.001                                  
C12  23280503.379   121227664.550                                                                    23280501.503    98507419.375                                  
C19  22545662.289   117401193.540                                    22545660.574    88474002.080    22545656.553    95398040.412    22545657.304   118478241.323  
C20  25161759.978   131023797.966                                    25161763.981    98740101.028    25161757.012   106467558.922    25161757.727   132225823.824  
C22  23195239.692   120783729.076                                    23195234.618    91023088.060    23195232.366    98146604.729    23195235.708   121891762.174  
C36  22431476.248   116806661.355                                    22431482.395    88026026.921    22431479.572    94915009.990    22431472.353   117878135.171  
C39  25921700.077   134981124.476                                    25921699.201   101722311.967    25921695.091   109683164.174    25921696.807   136219601.957  
> 2026 06 07 17 19 33.0000000  0 13                     
C01  38580134.744   200896885.120                                                                    38580130.473   163245167.709                                  
C02  36977410.468   192551076.356                                                                    36977394.297   156463455.587                                  
C03  37012474.745   192733676.034                                                                    37012461.808   156611844.816                                  
C07  37168449.479   193545873.243                                                                                                                                  
C08  37981063.920   197777412.350                                                                    37981062.794   160710390.700                                  
C09  39064881.846   203421092.083    39064885.724   157298057.521                                    39064883.740   165296258.732                                  
C10                                  37308495.427   150225850.4481                                                                                                 
C12  23288749.612   121270607.618                                                                    23288748.254    98542314.137                                  
C19  22550403.084   117425880.018                                    22550402.673    88492605.913    22550396.705    95418100.181    22550398.009   118503154.283  
C20  25171335.076   131073659.579                                    25171339.472    98777676.933    25171332.092   106508075.548    25171332.378   132276142.877  
C22  23191045.958   120761891.031                                    23191040.883    91006630.829    23191038.417    98128859.543    23191041.794   121869723.780  
C36  22429944.837   116798686.905                                    22429950.877    88020017.364    22429947.518    94908530.115    22429941.121   117870087.537  
C39  25916167.506   134952314.479                                    25916166.219   101700600.428    25916163.825   109659753.559    25916165.290   136190527.650  
> 2026 06 07 17 19 48.0000000  0 13                     
C01  38580108.959   200896750.900                                                                    38580104.688   163245058.642                                  
C02  36977610.101   192552116.242                                                                    36977593.929   156464300.599                                  
C03  37012621.414   192734439.629                                                                    37012608.351   156612465.324                                  
C07  37168253.706   193544851.650                                                                    37168249.525   157271030.9261                                 
C08  37976342.334   197752823.794                                                                    37976340.476   160690410.562                                  
C09  39070521.113   203450455.464    39070524.365   157320763.168                                    39070522.704   165320118.882                                  
C10                                  37308281.660   150224981.663                                                                                                  
C12  23297008.603   121313613.833                                                                    23297006.655    98577260.191                                  
C19  22555165.214   117450679.350                                    22555165.411    88511294.798    22555159.907    95438251.667    22555160.604   118528181.125  
C20  25180916.018   131123548.612                                    25180920.020    98815273.509    25180913.033   106548614.471    25180913.141   132326489.628  
C22  23186874.542   120740169.183                                    23186869.628    90990261.184    23186866.894    98111208.781    23186870.056   121847802.649  
C36  22428421.449   116790755.153                                    22428427.704    88014039.951    22428424.523    94902084.921    22428417.876   117862082.978  
C39  25910641.207   134923536.978                                    25910637.919   101678913.425    25910638.079   109636369.303    25910637.758   136161486.142  
> 2026 06 07 17 20 03.0000000  0 13                     
C01  38580082.906   200896615.424                                                                    38580078.689   163244948.571                                  
C02  36977809.501   192553154.948                                                                    36977793.455   156465144.658                                  
C03  37012767.779   192735201.887                                                                    37012754.734   156613084.744                                  
C07  37168054.520   193543815.323                                                                    37168050.357   157270188.875                                  
C08  37971624.412   197728253.944                                                                    37971621.767   160670445.603                                  
C09  39076161.077   203479822.146    39076163.883   157343471.376                                    39076162.078   165343981.747                                  
C10                                  37308062.497   150224098.546                                                                                                  
C12  23305278.887   121356678.475                                                                    23305276.761    98612253.714                                  
C19  22559947.930   117475586.848                                    22559949.216    88530065.230    22559943.427    95458491.094    22559944.159   118553317.214  
C20  25190501.694   131173460.430                                    25190505.053    98852887.238    25190499.014   106589171.893    25190497.316   132376859.344  
C22  23182724.640   120718559.291                                    23182719.708    90973975.911    23182716.706    98093648.976    23182719.886   121825994.500  
C36  22426905.620   116782861.527                                    22426912.589    88008091.294    22426908.640    94895670.732    22426901.600   117854116.945  
C39  25905119.911   134894787.483                                    25905115.086   101657247.446    25905115.443   109613007.803    25905117.713   136132472.875  
> 2026 06 07 17 20 18.0000000  0 13                     
C01  38580057.567   200896483.510                                                                    38580053.279   163244841.394                                  
C02  36978009.599   192554197.259                                                                    36977993.606   156465991.633                                  
C03  37012914.841   192735967.622                                                                    37012901.814   156613706.996                                  
C07  37167853.744   193542769.145                                                                    37167848.562   157269338.687                                  
C08  37966910.653   197703707.696                                                                    37966907.418   160650499.811                                  
C09  39081802.364   203509196.871    39081805.062   157366185.772                                    39081803.025   165367851.105                                  
C10                                  37307840.581   150223204.748                                                                                                  
C12  23313560.822   121399805.994                                                                    23313558.874    98647298.347                                  
C19  22564752.981   117500607.196                                    22564754.054    88548920.674    22564747.853    95478822.172    22564748.925   118578567.078  
C20  25200092.571   131223399.515                                    25200094.840    98890521.474    25200090.033   106629751.431    25200088.621   132427256.556  
C22  23178597.163   120697066.311                                    23178592.482    90957778.742    23178589.069    98076184.185    23178592.482   121804304.349  
C36  22425398.082   116775010.709                                    22425404.783    88002174.887    22425401.602    94889291.316    22425393.544   117846194.137  
C39  25899605.763   134866070.723                                    25899600.813   101635606.204    25899598.669   109589672.989    25899603.672   136103492.696  
> 2026 06 07 17 20 33.0000000  0 13                     
C01  38580032.068   200896350.895                                                                    38580027.780   163244733.643                                  
C02  36978209.607   192555238.913                                                                    36978193.614   156466838.072                                  
C03  37013061.742   192736732.561                                                                    37013048.680   156614328.585                                  
C07  37167650.412   193541708.884                                                                    37167645.052   157268477.164                                  
C08  37962200.182   197679180.817                                                                    37962197.144   160630569.755                                  
C09  39087444.382   203538575.155    39087446.902   157388902.970                                    39087444.651   165391723.396                                  
C12  23321853.996   121442991.866                                                                    23321852.120    98682390.398                                  
C19  22569579.119   117525735.914                                    22569578.332    88567857.772    22569573.955    95499241.307    22569574.276   118603926.308  
C20  25209687.325   131273361.248                                    25209689.237    98928172.823    25209685.091   106670349.436    25209682.714   132477676.630  
C22  23174491.309   120675686.158                                    23174486.788    90941666.584    23174483.160    98058811.072    23174486.824   121782728.065  
C30  24975323.795   130053089.187                                                                    24975325.046   105678775.805    24975310.626   131246121.274  
C36  22423897.638   116767198.370                                    22423904.071    87996287.450    22423901.462    94882943.110    22423893.457   117838310.090  
C39  25894097.279   134837382.369                                    25894093.598   101613986.343    25894089.559   109566361.247    25894093.687   136074541.199  
> 2026 06 07 17 20 48.0000000  0 13                     
C01  38580006.623   200896218.321                                                                    38580002.281   163244625.940                                  
C02  36978409.632   192556280.683                                                                    36978393.640   156467684.621                                  
C03  37013208.679   192737497.474                                                                    37013195.581   156614950.156                                  
C07  37167444.365   193540635.346                                                                    37167439.540   157267604.855                                  
C08  37957493.660   197654674.164                                                                    37957491.229   160610656.142                                  
C09  39093087.241   203567957.911    39093089.564   157411623.580                                    39093087.098   165415599.304                                  
C12  23330159.000   121486236.571                                                                    23330157.624    98717530.273                                  
C19  22574425.984   117550973.546                                    22574424.465    88586876.953    22574421.392    95519748.950    22574420.391   118629395.469  
C20  25219286.474   131323346.124                                    25219288.565    98965841.627    25219283.794   106710966.243    25219282.079   132528120.101  
C22  23170407.254   120654419.786                                    23170402.769    90925640.190    23170399.231    98041530.417    23170402.948   121761266.566  
C30  24968352.517   130016797.257                                    24968356.681    97981194.775    24968354.340   105649285.753    24968350.659   131209496.367  
C36  22422404.699   116759425.187                                    22422410.739    87990429.555    22422408.291    94876626.736    22422400.786   117830465.570  
C39  25888594.084   134808723.189                                    25888590.528   101592388.444    25888586.401   109543073.183    25888591.333   136045619.108  
> 2026 06 07 17 21 03.0000000  0 13                     
C01  38579979.837   200896078.617                                                                    38579975.441   163244512.424                                  
C02  36978608.282   192557315.347                                                                    36978592.290   156468525.392                                  
C03  37013354.240   192738255.114                                                                    37013341.035   156615565.822                                  
C07  37167234.189   193539541.286                                                                    37167229.579   157266711.7561                                 
C08  37952789.729   197630180.591                                                                    37952788.156   160590753.157                                  
C09  39098729.296   203597337.599    39098731.780   157434341.839                                    39098728.939   165439472.705                                  
C12  23338474.082   121529532.645                                                                    23338472.563    98752711.846                                  
C19  22579292.273   117576312.696                                    22579291.594    88605972.643    22579287.055    95540339.095    22579286.269   118654967.077  
C20  25228889.019   131373346.691                                    25228890.645    99003522.198    25228884.641   106751595.735    25228884.141   132578579.374  
C22  23166343.642   120633260.124                                    23166339.228    90909694.185    23166335.904    98024336.468    23166339.728   121739912.787  
C30  24961383.581   129980508.207                                    24961388.673    97953847.246    24961384.921   105619797.969    24961381.061   131172874.422  
C36  22420918.122   116751683.783                                    22420924.519    87984595.607    22420921.821    94870336.211    22420914.065   117822653.182  
C39  25883094.714   134780085.971                                    25883090.014   101570807.171    25883087.441   109519802.975    25883093.034   136016719.181  
> 2026 06 07 17 21 18.0000000  0 13                     
C01  38579952.569   200895936.611                                                                    38579948.173   163244397.041                                  
C02  36978806.486   192558347.792                                                                    36978790.529   156469364.352                                  
C03  37013499.355   192739010.402                                                                    37013486.042   156616179.553                                  
C07                                                                                                  37167016.634   157265809.976                                  
C08  37948089.407   197605704.993                                                                    37948088.014   160570864.769                                  
C09  39104371.565   203626719.174    39104374.263   157457061.544                                    39104371.351   165463347.658                                  
C12  23346799.670   121572884.650                                                                    23346797.133    98787938.882                                  
C19  22584178.754   117601758.033                                    22584178.593    88625148.349    22584171.731    95561015.501    22584173.304   118680645.854  
C20  25238495.281   131423367.513                                    25238496.407    99041218.073    25238490.027   106792241.750    25238490.510   132629059.088  
C22  23162301.544   120612212.225                                    23162297.309    90893832.424    23162294.057    98007233.349    23162297.898   121718671.794  
C30  24954415.930   129944226.981                                    24954420.880    97926505.650    24954417.592   105590316.584    24954414.090   131136260.308  
C36  22419438.763   116743978.950                                    22419445.035    87978789.237    22419442.283    94864075.422    22419434.314   117814877.707  
C39  25877599.900   134751475.504                                    25877596.255   101549245.981    25877593.771   109496554.441    25877598.345   135987846.187  
> 2026 06 07 17 21 33.0000000  0 13                     
C01  38579925.855   200895797.514                                                                    38579921.405   163244284.023                                  
C02  36979005.279   192559383.177                                                                    36978989.375   156470205.708                                  
C03  37013644.933   192739768.487                                                                    37013631.603   156616795.583                                  
C07                                                                                                  37166802.777   157264909.0801                                 
C08  37943393.643   197581252.634                                                                    37943391.981   160550995.279                                  
C09  39110014.888   203656107.583    39110018.069   157479786.571                                    39110015.085   165487228.173                                  
C12  23355136.731   121616297.465                                                                    23355133.461    98823215.311                                  
C19  22589086.534   117627314.536                                    22589085.820    88644407.839    22589079.583    95581782.232    22589081.174   118706436.794  
C20  25248106.063   131473413.525                                    25248107.261    99078932.931    25248100.917   106832908.201    25248101.954   132679564.252  
C22  23158282.014   120591281.460                                    23158277.886    90878058.933    23158274.581    97990225.395    23158278.458   121697549.009  
C30  24947451.282   129907959.212                                    24947456.893    97899174.193    24947452.783   105560846.117    24947450.567   131099659.769  
C36  22417967.195   116736315.815                                    22417974.164    87973014.261    22417970.680    94857848.481    22417962.728   117807144.249  
C39  25872112.091   134722896.931                                    25872108.910   101527708.881    25872105.783   109473331.891    25872110.465   135959005.395  
> 2026 06 07 17 21 48.0000000  0 12                     
C01  38579900.445   200895665.301                                                                    38579896.067   163244176.582                                  
C02  36979205.394   192560425.496                                                                    36979189.562   156471052.704                                  
C03  37013791.799   192740533.344                                                                    37013778.469   156617417.104                                  
C08  37938703.346   197556827.585                                                                    37938701.201   160531147.973                                  
C09  39115660.213   203685506.855    39115663.876   157502519.948                                    39115660.803   165511117.495                                  
C12  23363485.532   121659774.789                                                                    23363482.422    98858544.186                                  
C19  22594016.241   117652985.972                                    22594015.043    88663753.946    22594010.469    95602642.379    22594011.612   118732343.775  
C20  25257722.207   131523488.364                                    25257723.261    99116669.599    25257717.811   106873598.184    25257718.258   132730098.558  
C22  23154285.822   120570471.978                                    23154281.747    90862376.831    23154278.263    97973316.000    23154282.051   121676548.609  
C30  24940489.368   129871709.262                                    24940496.587    97871856.157    24940491.244   105531390.143    24940487.670   131063077.224  
C36  22416504.080   116728698.247                                    22416511.299    87967273.613    22416507.707    94851658.585    22416500.006   117799456.784  
C39  25866631.536   134694354.096                                    25866626.229   101506198.756    25866625.300   109450138.386    25866628.070   135930200.793  
> 2026 06 07 17 22 03.0000000  0 13                     
C01  38579874.106   200895528.345                                                                    38579869.692   163244065.322                                  
C02  36979404.615   192561463.123                                                                    36979388.801   156471895.875                                  
C03  37013937.753   192741293.363                                                                    37013924.423   156618034.698                                  
C07                                                                                                  37166365.719   157263052.945                                  
C08  37934016.033   197532418.285                                                                    37934013.603   160511313.452                                  
C09  39121305.305   203714905.144    39121309.344   157525252.593                                    39121305.967   165535006.034                                  
C12  23371844.678   121703304.703                                                                    23371842.373    98893915.795                                  
C19  22598965.674   117678760.536                                    22598964.709    88683177.769    22598960.224    95623586.349    22598962.047   118758354.855  
C20  25267341.995   131573580.267                                    25267342.621    99154419.010    25267338.225   106914301.875    25267337.921   132780649.996  
C22  23150310.750   120549772.351                                    23150306.605    90846777.512    23150302.995    97956495.865    23150306.622   121655659.075  
C30  24933528.794   129835465.697                                    24933535.459    97844542.932    24933532.189   105501939.276    24933525.863   131026501.156  
C36  22415047.504   116721114.546                                    22415054.009    87961558.497    22415050.810    94845496.188    22415043.662   117791803.481  
C39  25861154.859   134665835.541                                    25861150.124   101484706.786    25861147.980   109426964.526    25861149.642   135901420.601  
> 2026 06 07 17 22 18.0000000  0 13                     
C01  38579847.213   200895388.248                                                                    38579842.853   163243951.475                                  
C02  36979603.212   192562497.647                                                                    36979587.416   156472736.532                                  
C03  37014083.064   192742050.146                                                                    37014069.769   156618649.669                                  
C07                                                                                                  37166145.251   157262125.008                                  
C08  37929331.829   197508026.428                                                                    37929329.006   160491493.111                                  
C09  39126950.308   203744304.015    39126954.811   157547985.680                                    39126951.506   165558895.046                                  
C12  23380214.600   121746888.547                                                                    23380213.903    98929331.224                                  
C19  22603935.478   117704639.648                                    22603934.049    88702680.357    22603930.296    95644615.243    22603931.976   118784471.375  
C20  25276964.750   131623690.357                                    25276965.465    99192182.207    25276961.962   106955020.450    25276960.390   132831219.815  
C22  23146357.068   120529184.319                                    23146352.815    90831262.305    23146349.277    97939766.429    23146352.440   121634882.144  
C30  24926569.953   129799230.405                                    24926574.920    97817235.916    24926574.045   105472495.209    24926567.094   130989933.433  
C36  22413597.880   116713566.154                                    22413601.882    87955870.083    22413600.810    94839362.551    22413593.877   117784185.853  
C39  25855682.489   134637342.692                                    25855678.486   101463234.267    25855677.754   109403811.626    25855679.183   135872666.334  
> 2026 06 07 17 22 33.0000000  0 14                     
C01  38579820.267   200895247.780                                                                    38579815.871   163243837.347                                  
C02  36979801.808   192563531.819                                                                    36979785.958   156473576.903                                  
C03  37014228.393   192742806.440                                                                    37014215.027   156619264.220                                  
C07                                                                                                  37165920.137   157261170.975                                  
C08  37924651.378   197483654.795                                                                    37924647.947   160471689.200                                  
C09  39132596.008   203773706.087    39132600.958   157570721.270                                    39132597.903   165582786.657                                  
C10  37305683.754   194260465.9491                                                                                                                                 
C12  23388595.512   121790528.776                                                                    23388595.279    98964792.490                                  
C19  22608925.850   117730625.833                                    22608924.366    88722263.659    22608920.846    95665731.152    22608921.811   118810695.963  
C20  25286591.186   131673821.192                                    25286592.347    99229961.016    25286588.845   106995755.890    25286587.344   132881810.572  
C22  23142425.311   120508710.807                                    23142421.094    90815833.395    23142417.431    97923130.025    23142420.219   121614220.795  
C30  24919612.988   129763006.500                                    24919617.188    97789937.484    24919617.473   105443060.364    24919609.897   130953377.187  
C36  22412155.832   116706055.729                                    22412161.032    87950210.278    22412158.852    94833259.746    22412151.776   117776606.551  
C39  25850215.926   134608878.219                                    25850210.798   101441783.156    25850212.995   109380681.766    25850213.996   135843940.681  
> 2026 06 07 17 22 48.0000000  0 14                     
C01  38579795.161   200895116.965                                                                    38579790.783   163243731.052                                  
C02  36980002.263   192564575.718                                                                    36979986.413   156474425.180                                  
C03  37014375.526   192743572.297                                                                    37014362.071   156619886.568                                  
C07  37165702.206   193531603.4991                                                                   37165694.362   157260214.084                                  
C08  37919976.860   197459313.519                                                                    37919972.911   160451909.974                                  
C09  39138244.460   203803121.375    39138249.767   157593467.082                                    39138247.319   165606689.012                                  
C10  37305430.032   194259138.112                                                                                                                                  
C12  23396989.271   121834235.204                                                                    23396988.002    99000307.516                                  
C19  22613939.004   117756728.960                                    22613938.021    88741935.085    22613933.375    95686942.087    22613934.483   118837038.547  
C20  25296223.840   131723982.576                                    25296225.609    99267762.768    25296221.285   107036516.097    25296219.891   132932432.131  
C22  23138517.463   120488362.038                                    23138513.210    90800498.491    23138509.368    97906595.000    23138512.102   121593685.331  
C30  24912660.652   129726804.330                                    24912664.601    97762655.491    24912664.780   105413643.194    24912657.060   130916842.905  
C36  22410722.915   116698593.279                                    22410729.080    87944586.556    22410726.096    94827195.901    22410718.859   117769075.621  
C39  25844756.671   134580452.230                                    25844752.133   101420361.052    25844752.633   109357583.192    25844755.081   135815253.900  
> 2026 06 07 17 23 03.0000000  0 14                     
C01  38579769.465   200894983.219                                                                    38579765.069   163243622.403                                  
C02  36980202.146   192565616.727                                                                    36980186.296   156475271.099                                  
C03  37014522.070   192744335.131                                                                    37014508.543   156620506.440                                  
C07  37165468.712   193530409.781                                                                    37165463.977   157259244.152                                  
C08  37915305.933   197434990.091                                                                    37915301.734   160432145.241                                  
C09  39143893.126   203832537.155    39143898.702   157616213.251                                    39143896.897   165630591.752                                  
C10  37305170.753   194257789.964                                                                                                                                  
C12  23405392.876   121877994.878                                                                    23405390.892    99035865.822                                  
C19  22618972.279   117782936.246                                    22618971.636    88761685.001    22618966.078    95708237.635    22618967.401   118863486.279  
C20  25305860.139   131774161.557                                    25305862.623    99305577.864    25305857.263   107077290.613    25305855.297   132983071.444  
C22  23134631.219   120468125.611                                    23134626.912    90785248.245    23134622.892    97890151.264    23134625.912   121573263.252  
C30  24905710.424   129690611.634                                    24905715.106    97735380.600    24905713.730   105384233.714    24905706.814   130880318.172  
C36  22409296.466   116691166.074                                    22409303.596    87938989.355    22409300.005    94821160.684    22409292.571   117761580.271  
C39  25839302.599   134552051.955                                    25839300.794   101398958.361    25839297.506   109334505.578    25839302.295   135786593.107  
> 2026 06 07 17 23 18.0000000  0 14                     
C01  38579743.627   200894848.589                                                                    38579739.195   163243513.010                                  
C02  36980401.868   192566656.851                                                                    36980386.054   156476116.311                                  
C03  37014668.382   192745096.964                                                                    37014654.855   156621125.482                                  
C07  37165235.861   193529202.113                                                                    37165228.409   157258262.818                                  
C08  37910638.919   197410686.586                                                                    37910634.666   160412396.700                                  
C09  39149542.650   203861955.482    39149548.190   157638961.390                                    39149546.885   165654496.547                                  
C10  37304907.810   194256423.914                                                                                                                                  
C12  23413806.934   121921809.573                                                                    23413804.575    99071468.839                                  
C19  22624025.710   117809249.480                                    22624024.549    88781514.756    22624019.938    95729619.281    22624020.546   118890040.883  
C20  25315500.406   131824359.873                                    25315502.639    99343407.525    25315496.957   107118080.859    25315494.759   133033730.291  
C22  23130766.989   120448003.668                                    23130762.575    90770084.274    23130758.769    97873800.543    23130761.914   121552956.705  
C30  24898762.590   129654430.715                                    24898768.165    97708114.604    24898765.807   105354833.796    24898759.964   130843805.261  
C36  22407877.201   116683776.060                                    22407883.795    87933420.198    22407880.740    94815155.702    22407873.377   117754122.426  
C39  25833854.441   134523679.495                                    25833853.440   101377576.599    25833849.599   109311450.503    25833854.316   135757960.338  
> 2026 06 07 17 23 33.0000000  0 14                     
C01  38579716.948   200894709.810                                                                    38579712.481   163243400.238                                  
C02  36980600.804   192567692.867                                                                    36980585.007   156476958.175                                  
C03  37014813.836   192745854.494                                                                    37014800.380   156621741.051                                  
C07  37164995.969   193527886.3321                                                                   37164989.286   157257267.440                                  
C08  37905975.015   197386399.828                                                                    37905970.941   160392661.781                                  
C09  39155192.228   203891372.724    39155197.535   157661708.674                                    39155196.659   165678400.513                                  
C10  37304640.704   194255036.398                                                                                                                                  
C12  23422231.196   121965675.727                                                                    23422228.944    99107113.664                                  
C19  22629098.458   117835665.172                                    22629097.260    88801421.721    22629092.579    95751084.192    22629093.419   118916698.933  
C20  25325143.692   131874574.064                                    25325145.640    99381249.111    25325140.172   107158883.970    25325135.365   133084405.161  
C22  23126924.238   120427993.160                                    23126919.627    90755004.298    23126916.179    97857540.399    23126919.306   121532762.614  
C30  24891816.437   129618258.623                                    24891823.459    97680855.276    24891818.867   105325441.124    24891812.755   130807301.401  
C36  22406464.405   116676419.895                                    22406470.177    87927876.552    22406467.210    94809178.251    22406460.474   117746698.785  
C39  25828410.965   134495331.464                                    25828409.982   101356213.274    25828406.909   109288415.330    25828410.232   135729352.248  
> 2026 06 07 17 23 48.0000000  0 14                     
C01  38579690.395   200894571.845                                                                    38579685.981   163243288.133                                  
C02  36980799.847   192568729.726                                                                    36980784.158   156477800.734                                  
C03  37014959.415   192746612.782                                                                    37014945.977   156622357.228                                  
C07  37164758.847   193526649.352                                                                    37164752.325   157256262.250                                  
C08  37901315.060   197362134.881                                                                    37901311.307   160372944.538                                  
C09  39160842.484   203920794.112    39160847.774   157684459.192                                    39160847.166   165702307.818                                  
C10  37304370.685   194253632.409                                                                                                                                  
C12  23430666.518   122009598.103                                                                    23430664.356    99142804.173                                  
C19  22634191.558   117862188.123                                    22634190.950    88821409.552    22634185.733    95772636.284    22634187.216   118943465.240  
C20  25334790.963   131924808.805                                    25334792.411    99419106.290    25334786.710   107199703.852    25334782.297   133135100.739  
C22  23123103.840   120408099.245                                    23123099.034    90740012.166    23123095.746    97841374.973    23123099.052   121512686.186  
C30  24884872.409   129582100.669                                    24884880.146    97653606.576    24884874.518   105296059.900    24884867.656   130770811.664  
C36  22405059.364   116669102.415                                    22405064.760    87922362.056    22405062.044    94803232.227    22405054.825   117739314.213  
C39  25822972.939   134467012.927                                    25822971.634   101334872.121    25822968.579   109265404.071    25822971.920   135700773.881  
> 2026 06 07 17 24 03.0000000  0 13                     
C01  38579664.342   200894436.369                                                                    38579659.910   163243178.043                                  
C02  36980999.372   192569769.123                                                                    36980983.701   156478645.334                                  
C03  37015105.422   192747373.421                                                                    37015092.021   156622975.328                                  
C07  37164520.028   193525401.720                                                                    37164514.810   157255248.548                                  
C08  37896659.429   197337893.429                                                                    37896655.980   160353246.411                                  
C09  39166493.813   203950220.953    39166499.031   157707213.894                                    39166498.352   165726219.523                                  
C12  23439112.598   122053577.978                                                                    23439110.150    99178541.416                                  
C19  22639305.762   117888819.812                                    22639305.458    88841479.304    22639299.561    95794276.711    22639300.955   118970341.257  
C20  25344442.791   131975065.445                                    25344443.488    99456979.933    25344437.662   107240541.526    25344435.357   133185818.486  
C22  23119306.137   120388323.697                                    23119301.348    90725109.243    23119297.881    97825305.732    23119301.509   121492729.199  
C30  24877931.670   129545958.760                                    24877938.835    97626369.978    24877933.582   105266691.688    24877926.094   130734338.228  
C36  22403661.738   116661825.199                                    22403667.420    87916877.909    22403665.187    94797318.876    22403657.682   117731970.222  
C39  25817540.666   134438725.362                                    25817538.844   101313554.369    25817533.930   109242418.002    25817539.398   135672226.812  
> 2026 06 07 17 24 18.0000000  0 13                     
C01  38579638.503   200894301.966                                                                    38579634.072   163243068.857                                  
C02  36981199.130   192570809.626                                                                    36981183.512   156479490.856                                  
C03  37015251.680   192748135.065                                                                    37015238.296   156623594.231                                  
C07  37164278.921   193524142.440                                                                    37164276.223   157254225.254                                  
C08  37892007.997   197313674.180                                                                    37892004.655   160333566.330                                  
C09  39172145.856   203979651.882    39172150.967   157729971.771                                    39172149.770   165750134.584                                  
C12  23447569.256   122097613.768                                                                    23447566.432    99214324.072                                  
C19  22644440.640   117915558.639                                    22644440.086    88861629.785    22644434.672    95816004.184    22644434.940   118997325.368  
C20  25354098.550   132025342.535                                    25354098.246    99494868.991    25354092.867   107281395.754    25354131.464   133236870.9021 
C22  23115530.895   120368665.317                                    23115526.231    90710294.613    23115522.425    97809331.712    23115526.445   121472890.479  
C30  24870994.111   129509831.914                                    24871000.758    97599144.703    24870995.344   105237335.746    24870989.143   130697879.892  
C36  22402271.582   116654586.790                                    22402278.300    87911422.989    22402275.745    94791437.043    22402267.901   117724665.394  
C39  25812113.880   134410467.458                                    25812112.593   101292258.910    25812105.803   109219456.052    25812112.147   135643709.672  
> 2026 06 07 17 24 33.0000000  0 13                     
C01  38579612.343   200894165.810                                                                    38579608.001   163242958.215                                  
C02  36981398.512   192571848.384                                                                    36981383.020   156480334.953                                  
C03  37015397.563   192748894.834                                                                    37015384.161   156624211.610                                  
C07  37164034.616   193522868.411                                                                    37164034.455   157253190.032                                  
C08  37887359.960   197289474.335                                                                    37887357.262   160313901.995                                  
C09  39177798.168   204009083.995    39177803.064   157752730.584                                    39177801.241   165774050.624                                  
C12  23456035.545   122141702.236                                                                    23456032.972    99250149.566                                  
C19  22649595.567   117942401.497                                    22649595.120    88881858.675    22649589.795    95837816.189    22649589.992   119024414.494  
C20                                                                                                  25363751.878   107322333.9741                                 
C22  23111777.667   120349121.393                                    23111773.075    90695566.262    23111769.072    97793450.699    23111773.343   121453167.265  
C30  24864058.911   129473717.449                                    24864064.271    97571928.813    24864059.965   105207989.896    24864053.103   130661434.148  
C36  22400888.555   116647384.184                                    22400894.809    87905995.073    22400891.914    94785584.336    22400884.660   117717396.724  
C39  25806692.901   134382236.188                                    25806690.953   101270983.590    25806686.289   109196515.757    25806691.882   135615219.397  
> 2026 06 07 17 24 48.0000000  0 12                     
C01  38579583.985   200894018.141                                                                    38579579.625   163242838.229                                  
C02  36981595.697   192572875.653                                                                    36981580.258   156481169.691                                  
C03  37015541.194   192749642.962                                                                    37015527.810   156624819.554                                  
C07  37163785.450   193521570.036                                                                    37163785.378   157252134.913                                  
C08  37882713.871   197265284.156                                                                    37882712.263   160294245.516                                  
C09  39183448.585   204038507.230    39183453.428   157775482.538                                    39183451.319   165797959.430                                  
C12  23464510.036   122185833.358                                                                    23464507.803    99286009.708                                  
C19  22654768.399   117969338.431                                    22654768.131    88902158.454    22654762.842    95859704.658    22654763.146   119051598.555  
C22  23108044.560   120329682.338                                    23108040.147    90680916.931    23108035.948    97777654.902    23108040.200   121433549.855  
C30  24857124.372   129437605.990                                    24857128.124    97544715.191    24857125.998   105178646.446    24857117.188   130624991.415  
C36  22399510.496   116640207.519                                    22399516.000    87900586.734    22399513.587    94779752.691    22399506.350   117710154.226  
C39  25801275.102   134354021.830                                    25801272.136   101249721.009    25801271.457   109173589.160    25801273.351   135586746.198  
> 2026 06 07 17 25 03.0000000  0 12                     
C01  38579556.431   200893874.718                                                                    38579552.071   163242721.693                                  
C02  36981793.722   192573907.179                                                                    36981778.354   156482007.926                                  
C03  37015685.612   192750395.226                                                                    37015672.263   156625430.832                                  
C07  37163534.605   193520262.937                                                                    37163533.711   157251072.902                                  
C08  37878073.268   197241119.515                                                                    37878072.232   160274609.802                                  
C09  39189100.432   204067937.443    39189104.971   157798239.842                                    39189103.488   165821873.896                                  
C12  23472995.839   122230022.626                                                                    23472994.356    99321917.088                                  
C19  22659962.084   117996384.996                                    22659961.798    88922540.861    22659957.474    95881682.215    22659957.546   119078893.304  
C22  23104334.612   120310364.084                                    23104330.359    90666358.637    23104326.142    97761957.252    23104330.323   121414054.395  
C30  24850192.638   129401513.624                                    24850196.677    97517515.859    24850194.729   105149318.468    24850185.348   130588567.903  
C36  22398140.317   116633072.502                                    22398146.554    87895209.782    22398143.694    94773954.912    22398136.011   117702953.771  
C39  25795863.308   134325840.065                                    25795859.645   101228482.973    25795860.395   109150689.040    25795860.860   135558305.911  
> 2026 06 07 17 25 18.0000000  0 12                     
C01  38579530.592   200893740.123                                                                    38579526.250   163242612.329                                  
C02  36981993.462   192574947.556                                                                    36981978.094   156482853.325                                  
C03  37015831.709   192751156.202                                                                    37015818.361   156626049.209                                  
C07  37163283.295   193518951.963                                                                    37163281.561   157250007.588                                  
C08  37873438.669   197216985.037                                                                    37873437.829   160254998.606                                  
C09  39194754.548   204097379.169    39194758.837   157821006.042                                    39194758.176   165845797.719                                  
C12  23481493.685   122274274.360                                                                    23481493.042    99357875.224                                  
C19  22665177.730   118023545.580                                    22665177.284    88943009.203    22665172.584    95903752.422    22665172.763   119106303.024  
C22  23100648.804   120291171.337                                    23100644.516    90651894.925    23100640.459    97746361.578    23100644.516   121394685.562  
C30  24843265.926   129365445.209                                    24843269.893    97490334.638    24843267.945   105120010.002    24843259.350   130552168.579  
C36  22396779.001   116625983.593                                    22396784.237    87889867.585    22396782.593    94768194.610    22396775.231   117695799.794  
C39  25790458.929   134297695.412                                    25790454.676   101207272.948    25790453.801   109127819.121    25790456.552   135529903.065  
> 2026 06 07 17 25 33.0000000  0 12                     
C01  38579504.146   200893602.534                                                                    38579499.732   163242500.561                                  
C02  36982192.594   192575984.991                                                                    36982177.298   156483696.338                                  
C03  37015977.216   192751914.104                                                                    37015963.904   156626665.080                                  
C07  37163028.768   193517625.074                                                                    37163026.481   157248929.434                                  
C08  37868807.429   197192869.087                                                                    37868806.715   160235402.442                                  
C09  39200408.093   204126820.418    39200412.828   157843771.879                                    39200412.507   165869721.117                                  
C12  23490000.984   122318576.398                                                                    23490000.948    99393874.278                                  
C19  22670413.193   118050808.167                                    22670412.407    88963554.387    22670407.565    95925905.478    22670407.797   119133815.696  
C22  23096984.886   120272092.494                                    23096980.544    90637517.066    23096976.559    97730858.479    23096980.580   121375431.689  
C30  24836341.697   129329389.236                                    24836345.950    97463162.800    24836344.270   105090711.609    24836337.194   130515781.800  
C36  22395424.208   116618928.920                                    22395429.193    87884551.216    22395427.996    94762462.103    22395420.473   117688680.370  
C39  25785058.767   134269576.121                                    25785054.336   101186081.976    25785051.870   109104969.806    25785055.605   135501525.819  
> 2026 06 07 17 25 48.0000000  0 12                     
C01  38579477.789   200893465.327                                                                    38579473.340   163242389.072                                  
C02  36982391.780   192577022.807                                                                    36982376.573   156484539.672                                  
C03  37016122.759   192752672.259                                                                    37016109.483   156627281.157                                  
C07  37162771.633   193516285.940                                                                    37162768.149   157247841.242                                  
C08  37864180.192   197168775.004                                                                    37864179.585   160215824.064                                  
C09  39206061.834   204156264.338    39206067.302   157866539.822                                    39206066.819   165893646.762                                  
C12  23498518.986   122362931.839                                                                    23498518.593    99429916.710                                  
C19  22675668.705   118078175.857                                    22675667.955    88984178.798    22675664.345    95948143.966    22675664.077   119161434.516  
C22  23093343.537   120253131.055                                    23093339.230    90623227.668    23093335.085    97715450.752    23093338.980   121356296.277  
C30  24829420.810   129293349.393                                    24829425.671    97436003.093    24829424.116   105061426.381    24829417.344   130479411.322  
C36  22394076.347   116611911.787                                    22394082.995    87879263.075    22394080.958    94756760.065    22394072.970   117681598.809  
C39  25779663.734   134241485.386                                    25779659.499   101164912.609    25779657.873   109082143.717    25779660.714   135473177.378  
> 2026 06 07 17 26 03.0000000  0 12                     
C01  38579451.808   200893330.183                                                                    38579447.394   163242279.258                                  
C02  36982591.323   192578062.699                                                                    36982576.296   156485384.695                                  
C03  37016268.660   192753432.330                                                                    37016255.437   156627898.787                                  
C07  37162512.586   193514935.975                                                                    37162507.439   157246744.333                                  
C08  37859557.315   197144704.540                                                                    37859556.904   160196264.859                                  
C09  39211716.951   204185712.653    39211722.580   157889311.197                                    39211722.008   165917575.986                                  
C12  23507047.943   122407342.099                                                                    23507046.263    99466003.658                                  
C19  22680944.999   118105650.123                                    22680945.070    89004883.513    22680941.854    95970469.076    22680940.192   119189160.834  
C22  23089725.024   120234288.822                                    23089720.753    90609028.107    23089716.572    97700139.911    23089720.449   121337281.166  
C30  24822503.086   129257327.717                                    24822508.554    97408857.058    24822506.821   105032155.824    24822498.744   130443059.138  
C36  22392736.153   116604933.673                                    22392741.871    87874004.348    22392739.083    94751089.804    22392732.633   117674556.691  
C39  25774275.384   134213424.867                                    25774271.131   101143766.011    25774269.987   109059342.197    25774272.489   135444859.440  
> 2026 06 07 17 26 18.0000000  0 12                     
C01  38579424.021   200893185.399                                                                    38579419.554   163242161.619                                  
C02  36982789.026   192579092.992                                                                    36982774.159   156486221.904                                  
C03  37016412.684   192754182.669                                                                    37016399.497   156628508.508                                  
C07  37162249.304   193513563.722                                                                    37162242.728   157245629.239                                  
C08  37854936.868   197120646.068                                                                    37854936.690   160176715.427                                  
C09  39217371.156   204215153.562    39217376.535   157912076.804                                    39217376.517   165941499.160                                  
C12  23515584.743   122451795.181                                                                    23515582.134    99502125.397                                  
C19  22686239.662   118133219.125                                    22686239.376    89025659.609    22686235.534    95992871.139    22686234.498   119216982.753  
C22  23086127.132   120215554.282                                    23086122.986    90594909.716    23086118.805    97684916.586    23086122.647   121318374.767  
C30  24815586.684   129221312.768                                    24815592.170    97381716.091    24815590.115   105002890.758    24815581.413   130406713.758  
C36  22391401.230   116597982.819                                    22391406.912    87868766.162    22391404.232    94745441.716    22391396.977   117667542.130  
C39  25768890.464   134185382.867                                    25768886.301   101122633.355    25768885.157   109036555.726    25768887.677   135416560.168  
> 2026 06 07 17 26 33.0000000  0 12                     
C01  38579397.772   200893048.987                                                                    38579393.304   163242050.764                                  
C02  36982988.373   192580131.677                                                                    36982973.613   156487065.942                                  
C03  37016558.335   192754941.265                                                                    37016545.165   156629124.949                                  
C07  37161985.056   193512187.183                                                                    37161976.980   157244510.688                                  
C08  37850322.497   197096617.662                                                                    37850322.175   160157190.410                                  
C09  39223027.542   204244604.976    39223032.563   157934850.506                                    39223033.242   165965430.882                                  
C12  23524133.177   122496308.753                                                                    23524130.621    99538296.321                                  
C19  22691555.660   118160900.593                                    22691555.071    89046520.477    22691550.550    96015364.597    22691550.907   119244918.189  
C22  23082553.399   120196945.635                                    23082549.253    90580886.176    23082545.179    97669795.538    23082549.217   121299595.383  
C30  24808675.357   129185322.836                                    24808679.896    97354594.013    24808678.109   104973646.078    24808669.514   130370393.697  
C36  22390075.044   116591077.135                                    22390080.441    87863562.040    22390078.958    94739830.320    22390071.363   117660573.099  
C39  25763511.906   134157377.386                                    25763507.189   101101528.226    25763505.241   109013798.888    25763509.262   135388297.720  
> 2026 06 07 17 26 48.0000000  0 12                     
C01  38579370.539   200892907.306                                                                    38579366.108   163241935.672                                  
C02  36983186.755   192581165.102                                                                    36983172.049   156487905.706                                  
C03  37016702.931   192755694.468                                                                    37016689.779   156629737.000                                  
C07  37161716.932   193510792.622                                                                    37161708.247   157243377.488                                  
C08  37845711.253   197072605.758                                                                    37845710.538   160137678.802                                  
C09  39228683.195   204274053.113    39228687.841   157957621.701                                    39228689.002   165989359.870                                  
C12  23532690.902   122540868.981                                                                    23532688.829    99574505.123                                  
C19  22696890.404   118188680.655                                    22696890.279    89067455.655    22696884.971    96037938.187    22696885.829   119272953.120  
C22  23079001.215   120178449.331                                    23078997.016    90566947.306    23078993.085    97654765.791    23078997.392   121280929.392  
C30  24801766.139   129149344.676                                    24801770.123    97327480.797    24801768.426   104944410.930    24801760.492   130334085.482  
C36  22388755.006   116584202.898                                    22388760.796    87858381.621    22388758.222    94734244.463    22388751.397   117653635.802  
C39  25758137.691   134129394.670                                    25758133.813   101080440.276    25758131.097   108991060.594    25758135.957   135360058.270  
> 2026 06 07 17 27 03.0000000  0 12                     
C01  38579342.538   200892761.618                                                                    38579338.125   163241817.295                                  
C02  36983384.333   192582194.529                                                                    36983369.698   156488742.221                                  
C03  37016846.723   192756443.542                                                                    37016833.625   156630345.698                                  
C07                                                                                                  37161436.906   157242230.855                                  
C08  37841103.421   197048611.693                                                                    37841101.974   160118181.697                                  
C09  39234338.276   204303499.162    39234342.636   157980391.258                                    39234343.923   166013287.237                                  
C12  23541257.579   122585476.776                                                                    23541255.721    99610752.592                                  
C19  22702244.535   118216560.419                                    22702244.159    89088465.944    22702238.531    96060592.767    22702239.335   119301088.664  
C22  23075470.886   120160066.824                                    23075466.794    90553094.193    23075463.131    97639828.516    23075467.563   121262378.217  
C30  24794859.314   129113379.844                                    24794864.050    97300377.644    24794861.477   104915186.587    24794853.757   130297790.662  
C36  22387441.025   116577361.293                                    22387447.941    87853225.767    22387444.206    94728685.157    22387437.666   117646731.409  
C39  25752768.585   134101435.925                                    25752765.976   101059370.379    25752761.938   108968341.800    25752767.334   135331843.041  
> 2026 06 07 17 27 18.0000000  0 12                     
C01  38579315.878   200892622.993                                                                    38579311.464   163241704.658                                  
C02  36983583.251   192583231.024                                                                    36983568.705   156489584.473                                  
C03  37016991.855   192757199.528                                                                    37016978.757   156630960.017                                  
C07                                                                                                  37161165.226   157241079.686                                  
C08  37836501.326   197024646.535                                                                    37836498.878   160098708.101                                  
C09  39239995.180   204332954.104    39239999.183   158003167.723                                    39239999.951   166037221.816                                  
C12  23549835.497   122630142.923                                                                    23549833.370    99647047.485                                  
C19  22707619.894   118244550.663                                    22707619.108    89109559.508    22707614.659    96083337.115    22707614.909   119329335.679  
C22  23071964.501   120141809.275                                    23071960.570    90539335.252    23071957.104    97624992.791    23071961.857   121243953.185  
C30  24787957.905   129077439.560                                    24787961.907    97273293.011    24787959.906   104885982.278    24787952.812   130261520.683  
C36  22386135.264   116570563.286                                    22386142.698    87848102.743    22386138.248    94723161.201    22386131.780   117639870.982  
C39  25747406.359   134073512.143                                    25747404.072   101038326.865    25747399.516   108945651.426    25747405.234   135303663.069  
> 2026 06 07 17 27 33.0000000  0 13                     
C01  38579289.503   200892485.731                                                                    38579285.054   163241593.141                                  
C02  36983782.419   192584268.889                                                                    36983768.016   156490427.844                                  
C03  37017137.255   192757956.785                                                                    37017124.175   156631575.353                                  
C07                                                                                                  37160892.080   157239919.384                                  
C08  37831903.859   197000704.705                                                                    37831900.588   160079253.434                                  
C09  39245652.656   204362412.206    39245656.480   158025946.570                                    39245656.390   166061158.961                                  
C10                                  37299925.676   150191345.6891                                                                                                 
C12  23558423.456   122674861.440                                                                    23558420.937    99683384.913                                  
C19  22713015.356   118272645.515                                    22713014.409    89130731.895    22713010.121    96106166.483    22713010.496   119357688.287  
C22  23068481.043   120123671.165                                    23068477.397    90525666.336    23068474.038    97610254.126    23068478.809   121225648.680  
C30  24781059.854   129041518.628                                    24781063.678    97246222.909    24781061.248   104856793.599    24781055.226   130225270.154  
C36  22384836.848   116563803.031                                    22384844.603    87843008.207    22384840.975    94717667.959    22384833.560   117633048.739  
C39  25742049.977   134045617.614                                    25742046.403   101017305.444    25742043.365   108922984.844    25742048.369   135275512.668  
> 2026 06 07 17 27 48.0000000  0 13                     
C01  38579262.128   200892343.166                                                                    38579257.678   163241477.304                                  
C02  36983980.604   192585301.462                                                                    36983966.255   156491266.911                                  
C03  37017281.601   192758708.601                                                                    37017268.539   156632186.272                                  
C07                                                                                                  37160615.271   157238744.693                                  
C08  37827309.518   196976779.607                                                                    37827306.123   160059812.372                                  
C09  39251309.256   204391866.656    39251313.151   158048722.655                                    39251312.293   166085093.088                                  
C10                                  37299604.284   150190054.225                                                                                                  
C12  23567019.689   122719625.291                                                                    23567017.063    99719759.208                                  
C19  22718429.384   118300838.073                                    22718429.099    89151977.918    22718423.327    96129075.241    22718424.274   119386139.479  
C22  23065019.348   120105645.976                                    23065015.935    90512082.507    23065012.487    97595607.200    23065016.793   121207458.122  
C30  24774163.484   129005610.614                                    24774168.344    97219162.539    24774164.949   104827615.441    24774158.409   130189032.691  
C36  22383544.864   116557073.759                                    22383552.261    87837937.047    22383548.455    94712199.911    22383541.254   117626257.762  
C39  25736697.686   134017745.646                                    25736693.362   100996300.962    25736691.575   108900336.570    25736695.846   135247384.950  
> 2026 06 07 17 28 03.0000000  0 13                     
C01  38579234.663   200892200.136                                                                    38579230.232   163241361.109                                  
C02  36984178.718   192586333.570                                                                    36984164.459   156492105.600                                  
C03  37017425.840   192759459.806                                                                    37017412.796   156632796.699                                  
C07                                                                                                  37160336.032   157237559.467                                  
C08  37822719.413   196952876.128                                                                    37822716.232   160040388.868                                  
C09  39256965.695   204421322.138    39256969.876   158071499.590                                    39256968.232   166109028.163                                  
C10                                  37299276.906   150188740.264                                                                                                  
C12  23575625.858   122764439.111                                                                    23575623.159    99756174.080                                  
C19  22723862.800   118329132.930                                    22723863.587    89173301.056    22723856.761    96152067.128    22723857.618   119414693.901  
C22  23061580.455   120087738.726                                    23061577.060    90498587.552    23061573.593    97581056.107    23061577.292   121189386.571  
C30  24767270.973   128969720.652                                    24767275.940    97192115.816    24767272.348   104798451.978    24767265.040   130152813.525  
C36  22382259.580   116550380.260                                    22382267.175    87832892.847    22382263.029    94706760.940    22382255.756   117619502.864  
C39  25731350.560   133989901.011                                    25731346.879   100975317.104    25731344.663   108877710.478    25731348.326   135219284.848  
> 2026 06 07 17 28 18.0000000  0 13                     
C01  38579208.682   200892064.945                                                                    38579204.268   163241251.246                                  
C02  36984378.333   192587373.520                                                                    36984364.145   156492950.651                                  
C03  37017571.526   192760218.740                                                                    37017558.482   156633413.419                                  
C07                                                                                                  37160055.756   157236370.438                                  
C08  37818135.276   196929002.639                                                                    37818132.131   160020989.743                                  
C09  39262623.903   204450787.047    39262628.263   158094283.697                                    39262625.333   166132970.803                                  
C10                                  37298948.598   150187419.275                                                                                                  
C12  23584243.230   122809310.877                                                                    23584240.621    99792636.030                                  
C19  22729317.820   118357538.195                                    22729317.641    89194707.383    22729312.066    96175148.720    22729312.495   119443359.788  
C22  23058165.863   120069957.825                                    23058162.486    90485187.828    23058158.984    97566607.699    23058162.182   121171442.545  
C30  24760383.590   128933857.366                                    24760388.236    97165089.187    24760384.519   104769310.191    24760379.480   130116621.206  
C36  22380982.875   116543730.716                                    22380990.004    87827881.757    22380986.949    94701357.683    22380979.211   117612792.318  
C39  25726010.099   133962091.970                                    25726007.615   100954360.050    25726003.398   108855113.305    25726007.722   135191220.652  
> 2026 06 07 17 28 33.0000000  0 13                     
C01  38579182.396   200891928.221                                                                    38579177.965   163241140.170                                  
C02  36984577.680   192588411.938                                                                    36984563.527   156493794.476                                  
C03  37017716.926   192760976.020                                                                    37017703.918   156634028.780                                  
C07  37159776.427   193500708.2021                                                                   37159772.478   157235170.111                                  
C08  37813555.088   196905149.805                                                                    37813551.586   160001607.397                                  
C09  39268282.076   204480251.808    39268286.668   158117067.747                                    39268282.612   166156913.347                                  
C10  37298617.324   194223626.8871   37298616.895   150186084.021                                                                                                  
C12  23592869.965   122854230.976                                                                    23592867.499    99829137.236                                  
C19  22734792.120   118386044.269                                    22734791.209    89216189.672    22734786.706    96198312.241    22734787.117   119472127.371  
C22  23054773.804   120052294.078                                    23054770.409    90471876.371    23054766.907    97552254.476    23054770.034   121153616.766  
C30  24753499.728   128898011.753                                    24753504.784    97138075.855    24753500.692   104740182.770    24753495.260   130080446.711  
C36  22379712.441   116537115.704                                    22379719.141    87822896.659    22379716.175    94695982.445    22379709.081   117606116.624  
C39  25720675.177   133934309.050                                    25720673.050   100933422.731    25720667.993   108832537.451    25720670.674   135163182.904  
> 2026 06 07 17 28 48.0000000  0 13                     
C01  38579154.074   200891780.754                                                                    38579149.607   163241020.338                                  
C02  36984774.936   192589439.611                                                                    36984760.855   156494629.564                                  
C03  37017860.218   192761722.421                                                                    37017847.263   156634635.314                                  
C07  37159489.755   193499232.863                                                                    37159484.555   157233950.938                                  
C08  37808976.955   196881308.520                                                                    37808972.934   159982234.455                                  
C09  39273938.533   204509707.003    39273943.143   158139844.385                                    39273938.622   166180848.110                                  
C10  37298280.779   194221872.518    37298279.814   150184727.440                                                                                                  
C12  23601503.419   122899189.839                                                                    23601501.918    99865669.992                                  
C19  22740283.932   118414641.712                                    22740283.074    89237740.815    22740278.268    96221550.005    22740279.215   119500987.211  
C22  23051402.599   120034738.395                                    23051399.043    90458646.359    23051395.630    97537989.058    23051398.954   121135900.010  
C30  24746617.545   128862174.811                                    24746622.709    97111069.058    24746619.689   104711062.357    24746613.399   130044280.964  
C36  22378447.099   116530525.844                                    22378452.496    87817930.585    22378450.280    94690627.715    22378443.490   117599466.315  
C39  25715343.543   133906543.027                                    25715340.237   100912498.133    25715337.378   108809975.304    25715338.986   135135162.178  
> 2026 06 07 17 29 03.0000000  0 13                     
C01  38579125.001   200891629.462                                                                    38579120.534   163240897.421                                  
C02  36984971.459   192590463.458                                                                    36984957.432   156495461.540                                  
C03  37018002.795   192762464.866                                                                    37017989.840   156635238.639                                  
C07  37159198.543   193497716.344                                                                    37159193.468   157232718.632                                  
C08  37804402.217   196857485.790                                                                    37804397.786   159962876.568                                  
C09  39279594.114   204539159.504    39279598.903   158162619.033                                    39279594.186   166204780.746                                  
C10  37297939.802   194220097.326    37297938.534   150183354.846                                                                                                  
C12  23610145.629   122944194.144                                                                    23610144.093    99902239.670                                  
C19  22745794.596   118443337.231                                    22745794.167    89259365.890    22745789.450    96244867.465    22745790.325   119529946.000  
C22  23048053.515   120017297.857                                    23048049.727    90445503.136    23048046.350    97523817.216    23048049.548   121118299.455  
C30  24739738.078   128826353.819                                    24739743.153    97084074.256    24739742.152   104681954.909    24739734.880   130008131.341  
C36  22377187.762   116523968.084                                    22377193.159    87812988.645    22377189.620    94685299.032    22377184.117   117592848.333  
C39  25710016.036   133878800.827                                    25710010.211   100891591.480    25710011.408   108787432.457    25710011.426   135107165.422  
> 2026 06 07 17 29 18.0000000  0 13                     
C01  38579098.805   200891493.178                                                                    38579094.284   163240786.695                                  
C02  36985170.896   192591502.326                                                                    36985156.922   156496305.725                                  
C03  37018148.249   192763222.215                                                                    37018135.222   156635854.055                                  
C07  37158907.707   193496202.497                                                                    37158902.364   157231488.548                                  
C08  37799834.698   196833700.445                                                                    37799829.909   159943549.091                                  
C09  39285252.859   204568628.202    39285257.647   158185405.972                                    39285252.841   166228726.428                                  
C10  37297598.307   194218320.294    37297596.985   150181980.759                                                                                                  
C12  23618800.616   122989262.470                                                                    23618798.239    99938861.329                                  
C19  22751327.614   118472149.409                                    22751327.507    89281078.873    22751323.164    96268279.732    22751323.647   119559022.531  
C22  23044730.252   119999991.446                                    23044726.160    90432460.954    23044722.783    97509754.332    23044725.606   121100834.255  
C30  24732865.348   128790567.937                                    24732869.619    97057105.914    24732870.191   104652875.949    24732862.114   129972017.114  
C36  22375937.913   116517461.151                                    22375944.382    87808084.929    22375941.005    94680011.550    22375933.768   117586281.580  
C39  25704696.571   133851101.176                                    25704691.479   100870716.911    25704690.567   108764924.226    25704691.729   135079211.652  
> 2026 06 07 17 29 33.0000000  0 13                     
C01  38579074.432   200891366.463                                                                    38579069.947   163240683.745                                  
C02  36985372.172   192592550.746                                                                    36985358.252   156497157.661                                  
C03  37018295.490   192763988.954                                                                    37018282.445   156636477.102                                  
C07  37158616.156   193494685.925                                                                    37158610.188   157230256.162                                  
C08  37795273.344   196809947.149                                                                    37795268.466   159924247.635                                  
C09  39290913.962   204598107.476    39290918.590   158208201.245                                    39290914.105   166252680.755                                  
C10  37297255.991   194216536.056    37297254.114   150180601.073                                                                                                  
C12  23627466.520   123034388.971                                                                    23627464.679    99975530.301                                  
C19  22756882.039   118501072.597                                    22756881.288    89302875.496    22756877.750    96291782.177    22756877.911   119588211.058  
C22  23041431.559   119982813.814                                    23041427.324    90419515.858    23041424.000    97495796.130    23041426.627   121083499.039  
C30  24725998.676   128754811.988                                    24726002.643    97030160.175    24726002.571   104623821.392    24725996.317   129935933.137  
C36  22374697.142   116510999.315                                    22374703.682    87803215.293    22374700.823    94674760.777    22374692.210   117579760.500  
C39  25699383.646   133823438.617                                    25699381.162   100849870.273    25699375.105   108742446.131    25699378.839   135051295.276  
> 2026 06 07 17 29 48.0000000  0 13                     
C01  38579046.556   200891221.455                                                                    38579042.124   163240565.926                                  
C02  36985569.964   192593580.865                                                                    36985556.027   156497994.734                                  
C03  37018439.174   192764737.275                                                                    37018426.148   156637085.189                                  
C07  37158318.530   193493138.735                                                                    37158312.865   157228999.078                                  
C08  37790712.419   196786198.134                                                                    37790707.952   159904949.659                                  
C09  39296571.580   204627569.350    39296576.405   158230982.947                                                                                                  
C10  37296907.205   194214716.571    37296904.757   150179194.102                                                                                                  
C12  23636138.535   123079545.560                                                                    23636137.499   100012223.713                                  
C19  22762452.385   118530078.672                                    22762452.153    89324734.599    22762447.739    96315352.003    22762447.185   119617483.220  
C22  23038152.093   119965737.286                                    23038147.822    90406646.934    23038144.642    97481920.064    23038147.286   121066265.860  
C30  24719132.807   128719058.506                                    24719137.543    97003216.290    24719134.952   104594768.808    24719131.128   129899851.597  
C36  22373459.801   116504554.765                                    22373465.484    87798358.664    22373463.000    94669524.034    22373454.870   117573256.908  
C39  25694072.401   133795785.209                                    25694070.632   100829030.553    25694065.771   108719975.474    25694067.272   135023388.164  
> 2026 06 07 17 30 03.0000000  0 13                     
C01  38579016.733   200891066.282                                                                    38579012.319   163240439.857                                  
C02  36985765.791   192594600.827                                                                    36985751.871   156498823.555                                  
C03  37018580.876   192765475.299                                                                    37018567.867   156637684.913                                  
C07  37158016.615   193491569.140                                                                    37158012.165   157227723.585                                  
C08  37786153.299   196762461.590                                                                    37786149.636   159885661.785                                  
C09                                  39302232.951   158253757.571                                                                                                  
C10  37296553.005   194212870.176    37296550.325   150177766.380                                    37296550.968   157813918.487                                  
C12  23644817.806   123124740.103                                                                    23644816.823   100048947.951                                  
C19  22768040.565   118559175.603                                    22768041.029    89346662.153    22768035.686    96338995.622    22768034.864   119646847.062  
C22  23034893.677   119948770.089                                    23034889.334    90393860.426    23034886.315    97468132.867    23034889.031   121049143.022  
C30  24712269.155   128683315.837                                    24712274.676    96976280.585    24712270.781   104565725.068    24712266.421   129863781.084  
C36  22372227.393   116498135.441                                    22372232.110    87793521.107    22372229.877    94664307.858    22372222.497   117566778.685  
C39  25688764.979   133768148.992                                    25688762.692   100808203.773    25688760.994   108697518.793    25688759.565   134995498.432  
> 2026 06 07 17 30 18.0000000  0 13                     
C01  38578989.518   200890924.613                                                                    38578985.051   163240324.734                                  
C02  36985964.209   192595634.261                                                                    36985950.324   156499663.326                                  
C03  37018725.168   192766226.699                                                                    37018712.142   156638295.506                                  
C07  37157715.361   193490000.857                                                                                                                                  
C08  37781601.165   196738761.175                                                                    37781598.217   159866403.287                                  
C09                                  39307891.981   158276543.111                                                                                                  
C10                                  37296195.250   150176336.039                                                                                                  
C12  23653508.834   123169995.881                                                                    23653507.387   100085721.990                                  
C19  22773650.330   118588386.745                                    22773651.188    89368675.803    22773646.006    96362732.089    22773645.327   119676326.238  
C22  23031660.938   119931936.089                                    23031656.328    90381174.262    23031653.540    97454453.858    23031656.775   121032154.575  
C30  24705412.275   128647608.009                                    24705417.796    96949371.126    24705414.222   104536709.594    24705409.076   129827745.652  
C36  22371003.972   116491764.975                                    22371009.029    87788720.350    22371006.099    94659131.357    22370999.844   117560349.778  
C39  25683465.867   133740553.608                                    25683462.150   100787407.848    25683461.417   108675095.295    25683460.488   134967649.889  
> 2026 06 07 17 30 33.0000000  0 13                     
C01  38578964.055   200890792.132                                                                    38578959.605   163240217.101                                  
C02  36986164.395   192596676.900                                                                    36986150.565   156500510.573                                  
C03  37018871.176   192766987.166                                                                    37018858.149   156638913.468                                  
C07  37157413.857   193488429.633                                                                                                                                  
C08  37777055.643   196715092.688                                                                    37777053.123   159847170.750                                  
C09                                  39313553.067   158299336.178                                                                                                  
C10                                  37295838.763   150174899.869                                                                                                  
C12  23662210.548   123215308.393                                                                    23662208.636   100122542.068                                  
C19  22779281.091   118617707.615                                    22779281.663    89390772.140    22779276.231    96386557.697    22779276.320   119705916.101  
C22  23028452.984   119915231.090                                    23028448.177    90368585.312    23028445.640    97440879.689    23028449.285   121015296.301  
C30  24698560.952   128611931.035                                    24698566.724    96922484.873    24698563.489   104507719.207    24698557.628   129791741.382  
C36  22369788.271   116485439.075                                    22369794.579    87783953.081    22369791.702    94653990.995    22369784.751   117553965.730  
C39  25678173.670   133712994.734                                    25678168.613   100766639.431    25678167.148   108652701.526    25678168.077   134939838.214  
> 2026 06 07 17 30 48.0000000  0 12                     
C01  38578935.786   200890645.158                                                                    38578931.408   163240097.690                                  
C02  36986361.794   192597705.048                                                                    36986347.982   156501346.031                                  
C03  37019014.396   192767733.004                                                                    37019001.334   156639519.532                                  
C08  37772511.997   196691432.519                                                                    37772509.960   159827944.951                                  
C09                                  39319211.882   158322118.458                                                                                                  
C10                                  37295476.057   150173439.472                                                                                                  
C12  23670918.158   123260653.533                                                                    23670915.836   100159388.713                                  
C19  22784928.131   118647114.252                                    22784927.327    89412933.103    22784922.842    96410453.006    22784923.646   119735592.521  
C22  23025265.186   119898631.497                                    23025260.433    90356075.801    23025258.038    97427391.177    23025261.469   120998544.416  
C30  24691710.790   128576261.534                                    24691715.722    96895604.282    24691713.274   104478734.882    24691707.091   129755744.597  
C36  22368577.270   116479133.688                                    22368584.274    87779201.392    22368581.183    94648867.423    22368574.017   117547602.604  
C39  25672883.510   133685448.646                                    25672878.024   100745880.639    25672877.970   108630318.057    25672878.399   134912039.412  
> 2026 06 07 17 31 03.0000000  0 12                     
C01  38578907.160   200890496.161                                                                    38578902.728   163239976.636                                  
C02  36986558.836   192598731.139                                                                    36986545.023   156502179.839                                  
C03  37019157.170   192768476.657                                                                    37019144.107   156640123.838                                  
C08  37767972.283   196667793.182                                                                    37767970.621   159808736.093                                  
C09                                  39324870.519   158344899.512                                                                                                  
C10                                  37295109.510   150171964.577                                                                                                  
C12  23679635.061   123306043.601                                                                    23679631.416   100196271.825                                  
C19  22790593.952   118676618.916                                    22790593.023    89435167.942    22790589.288    96434427.967    22790589.431   119765367.870  
C22  23022100.010   119882149.954                                    23022095.400    90343655.262    23022092.916    97413998.580    23022095.936   120981911.654  
C30  24684863.792   128540612.269                                    24684868.563    96868738.887    24684866.669   104449766.966    24684860.343   129719768.250  
C36  22367372.754   116472861.386                                    22367380.474    87774474.563    22367375.774    94643770.699    22367369.270   117541272.805  
C39  25667598.014   133657927.742                                    25667594.458   100725140.801    25667594.172   108607955.099    25667593.886   134884265.970  
> 2026 06 07 17 31 18.0000000  0 12                     
C01  38578881.232   200890361.273                                                                    38578876.854   163239867.043                                  
C02  36986758.594   192599771.351                                                                    36986744.763   156503025.110                                  
C03  37019302.624   192769234.315                                                                    37019289.633   156640739.523                                  
C08  37763439.733   196644190.899                                                                    37763437.768   159789557.316                                  
C09                                  39330532.337   158367755.7621                                                                                                 
C10                                  37294742.337   150170487.633                                                                                                  
C12  23688363.292   123351494.374                                                                    23688359.826   100233204.299                                  
C19  22796281.876   118706237.519                                    22796281.948    89457488.650    22796277.016    96458495.506    22796276.837   119795258.194  
C22  23018960.637   119865802.694                                    23018956.009    90331335.930    23018953.418    97400715.112    23018956.509   120965414.422  
C30  24678023.887   128504999.717                                    24678029.659    96841901.213    24678026.818   104420828.900    24678021.761   129683828.969  
C36  22366177.924   116466638.174                                    22366184.053    87769784.766    22366180.855    94638713.874    22366174.279   117534992.519  
C39  25662320.987   133630448.050                                    25662317.092   100704432.092    25662314.751   108585625.659    25662316.895   134856534.182  
> 2026 06 07 17 31 33.0000000  0 12                     
C01  38578855.107   200890225.314                                                                    38578850.694   163239756.582                                  
C02  36986958.137   192600810.461                                                                    36986944.289   156503869.498                                  
C03  37019447.863   192769990.775                                                                    37019434.890   156641354.225                                  
C07                                                                                                  37156174.229   157219930.0951                                 
C08  37758911.401   196620610.540                                                                    37758908.739   159770396.386                                  
C10                                  37294371.769   150168996.987                                                                                                  
C12  23697100.512   123396990.424                                                                    23697097.993   100270173.520                                  
C19  22801989.081   118735954.651                                    22801988.903    89479883.598    22801983.989    96482643.100    22801984.239   119825247.961  
C22  23015844.208   119849574.714                                    23015839.437    90319106.485    23015836.828    97387528.573    23015840.456   120949037.571  
C30  24671188.968   128469408.932                                    24671195.419    96815079.941    24671191.684   104391908.553    24671187.056   129647911.664  
C36  22364989.295   116460448.825                                    22364994.513    87765120.479    22364992.744    94633684.509    22364985.757   117528746.349  
C39  25657049.358   133602994.391                                    25657044.408   100683742.981    25657041.227   108563317.395    25657044.479   134828828.687  
> 2026 06 07 17 31 48.0000000  0 12                     
C01  38578827.321   200890080.710                                                                    38578822.943   163239639.094                                  
C02  36987156.037   192601840.928                                                                    36987142.135   156504706.854                                  
C03  37019591.387   192770738.404                                                                    37019578.414   156641961.751                                  
C07                                                                                                  37155857.929   157218594.304                                  
C08  37754385.678   196597044.587                                                                    37754382.355   159751247.158                                  
C10                                  37293995.162   150167468.8011                                                                                                 
C12  23705844.754   123442523.836                                                                    23705842.592   100307173.130                                  
C19  22807713.226   118765762.483                                    22807712.833    89502346.912    22807708.330    96506864.400    22807709.027   119855329.261  
C22  23012749.293   119833458.542                                    23012744.397    90306961.285    23012741.896    97374432.883    23012745.791   120932773.561  
C30  24664357.837   128433832.658                                    24664363.376    96788269.649    24664359.588   104363000.031    24664355.550   129612009.036  
C36  22363805.704   116454285.590                                    22363811.833    87760475.851    22363807.884    94628676.377    22363801.523   117522526.551  
C39  25651780.748   133575559.156                                    25651775.923   100663067.712    25651772.707   108541024.043    25651776.709   134801141.723  
> 2026 06 07 17 32 03.0000000  0 12                     
C01  38578798.034   200889928.404                                                                    38578793.709   163239515.337                                  
C02  36987352.453   192602863.629                                                                    36987338.515   156505537.913                                  
C03  37019733.410   192771478.173                                                                    37019720.491   156642562.900                                  
C07                                                                                                  37155538.145   157217242.717                                  
C08  37749862.671   196573494.044                                                                    37749859.312   159732110.454                                  
C10                                  37293617.071   150165926.638                                                                                                  
C12  23714596.305   123488095.241                                                                    23714594.053   100344203.614                                  
C19  22813455.115   118795661.708                                    22813455.437    89524879.085    22813449.236    96531159.980    22813451.667   119885502.792  
C22  23009676.054   119817455.251                                    23009670.854    90294901.164    23009668.656    97361428.920    23009672.605   120916623.440  
C30  24657529.333   128398272.228                                    24657533.925    96761471.258    24657530.387   104334104.335    24657526.617   129576122.293  
C36  22362627.439   116448149.361                                    22362632.889    87755851.569    22362627.725    94623690.228    22362622.864   117516334.011  
C39  25646515.122   133548143.170                                    25646511.030   100642406.926    25646508.064   108518746.342    25646512.334   134773474.171  
> 2026 06 07 17 32 18.0000000  0 12                     
C01  38578769.193   200889778.413                                                                    38578764.833   163239393.457                                  
C02  36987549.352   192603888.657                                                                    36987535.325   156506370.850                                  
C03  37019875.880   192772220.123                                                                    37019862.960   156643165.807                                  
C07                                                                                                  37155217.110   157215883.255                                  
C08  37745344.703   196549969.009                                                                    37745341.844   159712994.454                                  
C10  37293240.732   194195704.3361   37293236.175   150164408.467                                                                                                  
C12  23723357.397   123533714.418                                                                    23723355.325   100381272.917                                  
C19  22819216.446   118825662.116                                    22819216.928    89547487.529    22819210.531    96555537.766    22819213.122   119915778.459  
C22  23006626.437   119801575.000                                    23006620.719    90282933.745    23006619.182    97348524.908    23006623.077   120900597.492  
C30  24650705.475   128362737.933                                    24650709.334    96734692.592    24650706.279   104305229.911    24650701.240   129540262.042  
C36  22361456.142   116442050.025                                    22361460.985    87751255.132    22361457.536    94618734.060    22361451.478   117510178.729  
C39  25641255.607   133520756.483                                    25641252.552   100621768.271    25641250.139   108496492.441    25641252.659   134745836.174  
> 2026 06 07 17 32 33.0000000  0 12                     
C01  38578740.245   200889627.741                                                                    38578735.957   163239271.042                                  
C02  36987746.126   192604913.003                                                                    36987732.045   156507203.230                                  
C03  37020018.171   192772961.279                                                                    37020005.216   156643768.083                                  
C07                                                                                                  37154893.056   157214513.578                                  
C08  37740831.238   196526466.569                                                                    37740828.861   159693896.833                                  
C10  37292853.617   194193695.138    37292850.329   150162854.902                                                                                                  
C12  23732127.031   123579378.067                                                                    23732124.851   100418378.327                                  
C19  22824996.592   118855760.529                                    22824995.538    89570169.811    22824990.606    96579995.176    22824992.607   119946152.981  
C22  23003599.907   119785814.948                                    23003593.867    90271056.914    23003592.884    97335718.591    23003596.440   120884692.846  
C30  24643885.923   128327227.170                                    24643888.585    96707931.646    24643887.424   104276374.574    24643881.188   129504425.467  
C36  22360291.136   116435984.521                                    22360297.551    87746684.171    22360293.941    94613805.336    22360286.918   117504057.552  
C39  25636001.614   133493395.922                                    25635998.827   100601149.310    25635996.218   108474259.789    25635998.916   134718224.643  
> 2026 06 07 17 32 48.0000000  0 12                     
C01  38578712.512   200889483.384                                                                    38578708.152   163239153.757                                  
C02  36987944.096   192605943.628                                                                    36987929.926   156508040.707                                  
C03  37020161.641   192773708.556                                                                    37020148.722   156644375.316                                  
C07                                                                                                  37154567.589   157213139.351                                  
C08  37736323.795   196502993.714                                                                    37736321.204   159674823.241                                  
C10  37292465.645   194191675.653    37292462.268   150161293.290                                                                                                  
C12  23740906.261   123625092.854                                                                    23740903.456   100455525.282                                  
C19  22830796.805   118885963.608                                    22830794.768    89592930.962    22830790.444    96604537.654    22830792.428   119976633.144  
C22  23000597.732   119770182.148                                    23000591.818    90259275.993    23000590.710    97323015.675    23000594.105   120868916.633  
C30  24637072.268   128291747.134                                    24637074.573    96681193.876    24637074.341   104247544.250    24637066.675   129468619.940  
C36  22359133.830   116429959.691                                    22359140.567    87742143.861    22359137.476    94608909.654    22359129.381   117497977.451  
C39  25630753.857   133466068.513                                    25630750.587   100580555.328    25630747.764   108452054.099    25630750.105   134690646.573  
> 2026 06 07 17 33 03.0000000  0 12                     
C01  38578684.262   200889336.338                                                                    38578679.901   163239034.287                                  
C02  36988141.567   192606971.563                                                                    36988127.308   156508876.012                                  
C03  37020304.593   192774453.018                                                                    37020291.656   156644980.269                                  
C07                                                                                                  37154238.638   157211753.444                                  
C08  37731820.587   196479541.562                                                                    37731817.442   159655766.498                                  
C10  37292073.759   194189636.811    37292070.525   150159716.795                                    37292070.704   157794954.331                                  
C12  23749693.300   123670849.505                                                                    23749690.476   100492706.233                                  
C19  22836615.245   118916262.182                                    22836614.048    89615764.085    22836608.991    96629157.712    22836610.635   120007209.688  
C22  22997618.341   119754667.782                                    22997612.730    90247584.315    22997611.175    97310409.006    22997614.678   120853259.918  
C30  24630262.705   128256289.171                                    24630266.207    96654472.775    24630264.938   104218731.847    24630257.666   129432836.687  
C36  22357982.690   116423966.541                                    22357989.284    87737627.400    22357986.389    94604039.722    22357978.205   117491929.313  
C39  25625510.371   133438765.273                                    25625507.208   100559979.588    25625503.920   108429868.066    25625507.333   134663092.851  
> 2026 06 07 17 33 18.0000000  0 13                     
C01  38578657.690   200889197.995                                                                    38578653.277   163238921.858                                  
C02  36988340.717   192608008.149                                                                    36988326.351   156509718.337                                  
C03  37020449.172   192775206.000                                                                    37020436.270   156645592.126                                  
C07                                                                                                  37153909.545   157210351.8871                                 
C08  37727323.472   196456121.540                                                                    37727320.255   159636735.810                                  
C09  39375857.882   205040414.1561   39375889.260   158550390.508                                                                                                  
C10  37291680.141   194187590.112    37291677.282   150158134.216                                    37291677.782   157793293.2271                                 
C12  23758490.220   123716659.045                                                                    23758487.932   100529930.211                                  
C19  22842454.074   118946667.351                                    22842453.359    89638677.535    22842448.320    96653864.398    22842449.928   120037893.831  
C22  22994663.876   119739283.330                                    22994658.534    90235990.542    22994656.514    97297907.894    22994660.481   120837734.333  
C30  24623459.861   128220864.952                                    24623463.845    96627777.069    24623462.219   104189946.860    24623455.840   129397087.481  
C36  22356840.181   116418016.260                                    22356846.506    87733143.254    22356843.736    94599204.653    22356835.106   117485924.480  
C39  25620273.532   133411497.447                                    25620271.192   100539430.484    25620265.741   108407710.787    25620271.138   134635574.794  
> 2026 06 07 17 33 33.0000000  0 13                     
C01  38578631.619   200889062.374                                                                    38578627.188   163238811.675                                  
C02  36988540.439   192609047.430                                                                    36988525.894   156510562.861                                  
C03  37020594.232   192775961.570                                                                    37020581.367   156646206.100                                  
C07                                                                                                  37153579.772   157208955.997                                  
C08  37722831.199   196432727.736                                                                    37722828.358   159617726.484                                  
C09  39381526.508   205069920.795                                                                                                                                  
C10  37291284.092   194185529.537    37291281.626   150156540.797                                                                                                  
C12  23767295.985   123762515.365                                                                    23767294.484   100567192.202                                  
C19  22848312.236   118977172.949                                    22848311.110    89661666.693    22848306.822    96678652.719    22848308.287   120068679.287  
C22  22991733.250   119724022.937                                    22991727.799    90224490.275    22991725.816    97285507.594    22991729.872   120822333.948  
C30  24616662.288   128185468.846                                    24616666.505    96601102.520    24616663.485   104161184.714    24616657.267   129361366.616  
C36  22355704.479   116412102.879                                    22355711.305    87728686.925    22355708.178    94594399.570    22355699.243   117479956.854  
C39  25615042.465   133384259.004                                    25615039.910   100518903.563    25615034.156   108385577.390    25615039.946   134608086.474  
> 2026 06 07 17 33 48.0000000  0 11                     
C01  38578603.368   200888915.307                                                                    38578598.991   163238692.193                                  
C02  36988737.964   192610075.237                                                                    36988723.239   156511398.055                                  
C03  37020737.077   192776705.546                                                                    37020724.229   156646810.664                                  
C08  37718341.196   196409346.062                                                                    37718338.266   159598726.978                                  
C10  37290882.825   194183440.928    37290880.484   150154925.861                                                                                                  
C12  23776107.504   123808403.886                                                                    23776107.003   100604480.381                                  
C19  22854187.106   119007764.520                                    22854185.623    89684720.623    22854180.620    96703510.863    22854182.907   120099551.510  
C22  22988823.815   119708872.569                                    22988818.329    90213072.915    22988816.364    97273196.703    22988820.081   120807044.595  
C30  24609867.163   128150086.959                                    24609871.862    96574438.726    24609867.216   104132434.160    24609861.105   129325660.186  
C36  22354573.388   116406212.027                                    22354580.017    87724247.601    22354576.872    94589612.818    22354568.545   117474011.996  
C39  25609814.757   133357035.658                                    25609810.862   100498388.051    25609808.200   108363456.300    25609811.005   134580613.411  
> 2026 06 07 17 34 03.0000000  0 11                     
C01  38578573.241   200888758.483                                                                    38578568.863   163238564.770                                  
C02  36988933.594   192611093.242                                                                    36988918.691   156512225.284                                  
C03  37020878.028   192777439.590                                                                    37020865.198   156647407.151                                  
C08  37713853.892   196385978.223                                                                    37713850.228   159579738.721                                  
C10  37290476.715   194181326.007    37290474.375   150153290.463                                                                                                  
C12  23784925.616   123854325.989                                                                    23784925.205   100641795.849                                  
C19  22860078.738   119038443.546                                    22860077.916    89707840.457    22860071.894    96728440.082    22860074.217   120130511.998  
C22  22985935.913   119693834.036                                    22985930.570    90201739.827    22985928.337    97260976.675    22985931.946   120791868.088  
C30  24603074.683   128114721.379                                    24603080.151    96547787.175    24603074.861   104103696.802    24603070.483   129289970.104  
C36  22353446.782   116400345.427                                    22353453.161    87719826.495    22353449.480    94584845.719    22353441.957   117468091.526  
C39  25604590.534   133329829.151                                    25604585.334   100477885.218    25604586.264   108341348.817    25604586.335   134553157.306  
> 2026 06 07 17 34 18.0000000  0 11                     
C01  38578544.347   200888608.151                                                                    38578539.987   163238442.636                                  
C02  36989130.421   192612117.720                                                                    36989115.411   156513057.780                                  
C03  37021020.194   192778179.973                                                                    37021007.382   156648008.784                                  
C08  37709372.448   196362640.571                                                                    37709367.641   159560775.013                                  
C10  37290068.712   194179201.182    37290066.371   150151647.418                                                                                                  
C12  23793754.004   123900297.666                                                                    23793752.842   100679151.588                                  
C19  22865990.364   119069226.005                                    22865990.490    89731038.249    22865984.968    96753453.337    22865985.593   120161576.861  
C22  22983072.617   119678923.687                                    22983067.327    90190503.348    22983064.951    97248860.814    22983068.578   120776820.947  
C30  24596288.796   128079388.604                                    24596294.407    96521160.372    24596290.637   104074986.128    24596286.241   129254313.087  
C36  22352328.091   116394519.157                                    22352334.346    87715435.776    22352330.611    94580111.384    22352323.106   117462211.795  
C39  25599372.440   133302655.578                                    25599367.562   100457407.211    25599368.026   108319268.115    25599367.812   134525734.457  
> 2026 06 07 17 34 33.0000000  0 11                     
C01  38578517.937   200888470.654                                                                    38578513.523   163238330.895                                  
C02  36989329.696   192613154.992                                                                    36989314.579   156513900.660                                  
C03  37021164.772   192778933.059                                                                    37021151.978   156648620.748                                  
C08  37704897.866   196339339.521                                                                    37704892.148   159541841.037                                  
C10  37289660.155   194177072.568    37289657.546   150150001.510                                                                                                  
C12  23802593.541   123946324.972                                                                    23802592.076   100716552.528                                  
C19  22871922.934   119100118.002                                    22871922.809    89754318.596    22871918.145    96778555.610    22871918.073   120192752.265  
C22  22980235.105   119664148.000                                    22980229.762    90179368.356    22980227.261    97236854.374    22980231.281   120761909.697  
C30  24589511.737   128044095.145                                    24589516.490    96494563.269    24589514.256   104046307.457    24589508.914   129218695.912  
C36  22351218.050   116388739.452                                    22351224.929    87711080.155    22351221.105    94575414.897    22351213.529   117456379.007  
C39  25594161.744   133275521.320                                    25594158.402   100436958.776    25594155.668   108297219.317    25594157.830   134498351.256  
> 2026 06 07 17 34 48.0000000  0 12                     
C01  38578490.204   200888326.335                                                                    38578485.826   163238213.650                                  
C02  36989527.667   192614185.428                                                                    36989512.407   156514737.988                                  
C03  37021308.028   192779679.159                                                                    37021295.252   156649227.031                                  
C07                                                                                                  37151885.860   157201779.0881                                 
C08  37700426.071   196316055.496                                                                    37700420.353   159522920.888                                  
C10                                  37289244.414   150148337.586                                                                                                  
C12  23811440.137   123992387.979                                                                    23811438.565   100753982.490                                  
C19  22877872.443   119131099.645                                    22877872.353    89777666.484    22877867.958    96803730.740    22877867.368   120224018.153  
C22  22977419.715   119649487.475                                    22977414.390    90168320.152    22977411.228    97224941.492    22977415.748   120747114.674  
C30  24582738.537   128008821.866                                    24582742.236    96467981.346    24582740.271   104017645.149    24582736.429   129183099.010  
C36  22350113.262   116382986.545                                    22350118.569    87706744.799    22350116.675    94570740.213    22350109.045   117450573.435  
C39  25588954.210   133248406.696                                    25588952.798   100416525.118    25588947.545   108275186.495    25588950.725   134470987.870  
> 2026 06 07 17 35 03.0000000  0 12                     
C01  38578464.240   200888191.188                                                                    38578459.862   163238103.853                                  
C02  36989727.425   192615225.008                                                                    36989712.040   156515582.751                                  
C03  37021453.017   192780434.287                                                                    37021440.241   156649840.641                                  
C07                                                                                                  37151543.418   157200335.8131                                 
C08  37695960.585   196292804.527                                                                    37695955.224   159504027.592                                  
C10                                  37288830.121   150146668.036                                                                                                  
C12  23820296.472   124038502.364                                                                    23820294.667   100791454.175                                  
C19  22883842.215   119162186.696                                    22883842.626    89801093.848    22883838.070    96828991.536    22883837.426   120255390.435  
C22  22974629.521   119634958.177                                    22974624.428    90157370.832    22974620.569    97213135.259    22974625.197   120732452.066  
C30  24575971.395   127973585.097                                    24575975.076    96441426.861    24575972.968   103989012.426    24575968.179   129147538.933  
C36  22349016.854   116377276.344                                    22349021.196    87702441.680    22349020.160    94566100.273    22349012.101   117444810.877  
C39  25583753.163   133221327.561                                    25583751.751   100396118.213    25583745.050   108253182.539    25583750.322   134443660.329  
> 2026 06 07 17 35 18.0000000  0 12                     
C01  38578435.382   200888041.005                                                                    38578430.986   163237981.810                                  
C02  36989924.270   192616249.489                                                                    36989908.760   156516415.242                                  
C03  37021595.094   192781174.187                                                                    37021582.300   156650441.887                                  
C07                                                                                                  37151194.918   157198861.854                                  
C08  37691496.974   196269562.394                                                                    37691491.935   159485141.498                                  
C10                                  37288409.609   150144974.146                                                                                                  
C12  23829157.595   124084643.533                                                                    23829155.808   100828947.654                                  
C19  22889827.927   119193354.661                                    22889827.159    89824582.142    22889823.460    96854318.059    22889822.370   120286844.303  
C22  22971859.930   119620535.997                                    22971854.873    90146502.242    22971851.120    97201416.051    22971855.516   120717897.577  
C30  24569206.612   127938360.788                                    24569210.257    96414881.799    24569208.881   103960389.867    24569203.414   129111991.444  
C36  22347924.038   116371584.669                                    22347927.898    87698152.412    22347926.129    94561475.291    22347918.821   117439066.903  
C39  25578554.278   133194259.726                                    25578550.793   100375719.864    25578547.916   108231187.757    25578552.366   134416344.127  
> 2026 06 07 17 35 33.0000000  0 12                     
C01  38578404.361   200887879.626                                                                    38578400.037   163237850.709                                  
C02  36990118.971   192617262.754                                                                    36990103.336   156517238.627                                  
C03  37021735.009   192781902.778                                                                    37021722.196   156651033.937                                  
C07                                                                                                  37150841.737   157197369.588                                  
C08  37687035.865   196246333.169                                                                    37687030.951   159466265.869                                  
C10                                  37287983.415   150143258.885                                                                                                  
C12  23838024.580   124130815.157                                                                    23838022.239   100866465.855                                  
C19  22895830.025   119224607.239                                    22895828.649    89848134.194    22895824.521    96879713.319    22895823.931   120318383.567  
C22  22969111.656   119606224.974                                    22969106.814    90135717.411    22969103.401    97189787.166    22969107.189   120703455.249  
C30  24562446.046   127903153.122                                    24562449.620    96388349.315    24562448.101   103931780.911    24562442.526   129076460.837  
C36  22346834.832   116365915.256                                    22346840.765    87693879.875    22346837.119    94556868.359    22346830.276   117433345.392  
C39  25573358.556   133167206.947                                    25573354.285   100355332.899    25573355.089   108209205.253    25573357.180   134389043.158  
> 2026 06 07 17 35 48.0000000  0 11                     
C01  38578378.773   200887746.383                                                                    38578374.448   163237742.434                                  
C02  36990319.068   192618304.109                                                                    36990303.308   156518084.808                                  
C03  37021880.284   192782659.316                                                                    37021867.472   156651648.710                                  
C07                                                                                                  37150491.415   157195890.731                                  
C08  37682584.745   196223156.092                                                                    37682579.831   159447432.636                                  
C12  23846904.984   124177056.176                                                                    23846901.785   100904040.427                                  
C19  22901855.495   119255983.365                                    22901854.852    89871779.381    22901849.616    96905209.006    22901849.687   120350047.583  
C22  22966392.205   119592064.455                                    22966387.631    90125045.986    22966384.218    97178280.589    22966387.416   120689164.817  
C30  24555696.201   127868001.792                                    24555700.115    96361859.340    24555698.435   103903217.725    24555692.806   129040987.024  
C36  22345757.759   116360307.197                                    22345764.495    87689653.596    22345761.261    94552311.321    22345752.416   117427685.897  
C39  25568173.769   133140208.459                                    25568170.803   100334986.815    25568166.479   108187266.857    25568172.626   134361796.927  
> 2026 06 07 17 36 03.0000000  0 11                     
C01  38578351.737   200887605.505                                                                    38578347.323   163237627.966                                  
C02  36990517.682   192619337.790                                                                    36990501.779   156518924.789                                  
C03  37022024.111   192783408.079                                                                    37022011.228   156652257.155                                  
C07                                                                                                  37150138.109   157194396.452                                  
C08  37678136.877   196199995.531                                                                    37678132.071   159428612.799                                  
C12  23855791.892   124223330.573                                                                    23855788.694   100941642.125                                  
C19  22907897.619   119287447.094                                    22907897.280    89895490.573    22907892.044    96930775.859    22907892.044   120381799.967  
C22  22963694.733   119578018.816                                    22963690.320    90114461.141    22963686.853    97166867.364    22963689.748   120674990.313  
C30  24548949.216   127832871.442                                    24548952.897    96335385.053    24548951.664   103874671.466    24548944.605   129005534.327  
C36  22344686.225   116354724.610                                    22344691.621    87685446.620    22344688.905    94547775.078    22344679.899   117422052.199  
C39  25562992.914   133113228.438                                    25562989.287   100314654.602    25562984.551   108165343.482    25562991.806   134334569.345  
