     3.02           OBSERVATION DATA    M                   RINEX VERSION / TYPE
rtklib_java         USER                20260627 015857     PGM / RUN BY / DATE 
ROVER                                                       MARKER NAME         
ROVER                                                                           MARKER NUMBER       
USER                AGENCY                                  OBSERVER / AGENCY   
                    UNKNOWN                                 REC # / TYPE / VERS 
                    UNKNOWN                                                     ANT # / TYPE        
  -492860.3329  5551481.2314  3092889.6323                  APPROX POSITION XYZ 
        0.0000        0.0000        0.0000                  ANTENNA: DELTA H/E/N
C   10 C2I L2I C7I L7I C5P L5P C6I L6I C1P L1P              SYS / # / OBS TYPES 
  2026    06    07    17    00 18.0000000 2422                    TIME OF FIRST OBS   
                                                            END OF HEADER       
> 2026 06 07 17 00 18.0000000  0 13
C01  38582162.03800 200907540.10200                                                                  38582157.28500 163253741.86600                                
C02  36961861.07700 192470049.90700                                                                  36961844.56600 156397675.42200                                
C03  37001066.89200 192674235.16300                                                                  37001048.30900 156563557.15500                                
C07  37175104.26100 193580527.60900                                                                  37175093.96800 157299992.52100                                
C08  38355126.52300 199725211.63500                                                                  38355122.62800 162293106.72000                                
C09  38634669.12600 201180806.80000  38634677.61300 155565788.52800                                                                                                
C10                                  37314548.80900 150250203.69400                                  37314544.59200 157890082.62200                                
C12  22691289.91200 118159482.59500                                                                  22691285.30200  96014238.40500                                
C19  22249106.01800 115856981.63600                                  22249105.30400  87310262.60700  22249097.74500  94143186.73300  22249100.64000 116919821.08200
C20  24451758.43800 127326786.26100                                  24451761.15400  95953940.68300  24451753.13100 103463312.62100  24451753.25600 128494946.06800
C22  23574002.06400 122756002.76400                                                                  23573995.64900  99749284.74000  23574002.51000 123882211.39100
C36  22570957.35600 117532851.18500                                  22570962.50300  88573487.17700  22570982.15900  95505137.05500  22570953.40700 118611070.36100
C39  26358757.25900 137256812.47200                                  26358767.10400 103437434.45200  26358765.38900 111532563.46100  26358757.68800 138516269.45500
> 2026 06 07 17 00 33.0000000  0 13
C01  38582143.36500 200907443.18000                                                                  38582138.68300 163253663.12300                                
C02  36962066.23100 192471118.37100                                                                  36962049.82700 156398543.66700                                
C03  37001221.13800 192675039.67300                                                                  37001202.87600 156564210.88100                                
C07  37175127.45500 193580652.57900                                                                                                                                
C08  38350156.84400 199699334.62500                                                                  38350153.12800 162272079.60300                                
C09  38640199.39200 201209577.22300  38640201.51800 155588035.55200                                                                                                
C10  37314599.55700 194306910.88300  37314601.54000 150250418.12600                                  37314597.85900 157890307.94400                                
C12  22698517.68200 118197114.97800                                                                  22698512.50000  96044817.74900                                
C19  22252162.39000 115872896.66400                                  22252162.72900  87322256.24100  22252153.97300  94156118.97800  22252156.81500 116935882.11900
C20  24460829.54000 127374023.86300                                  24460832.20300  95989539.12700  24460824.41200 103501697.06500  24460825.73400 128542617.07200
C22                                                                                                                                  23568279.79500 123852139.92100
C36  22568800.86900 117521624.05400                                  22568805.08600  88565026.42400  22568800.15400  95495978.48210  22568796.54500 118599740.26400
C39  26352785.59200 137225715.49500                                  26352792.34700 103413999.53200  26352787.93300 111507294.59800  26352784.35900 138484887.14900
> 2026 06 07 17 00 48.0000000  0 13
C01  38582125.97800 200907352.83300                                                                  38582121.33200 163253589.75400                                
C02  36962272.69000 192472193.63000                                                                  36962256.42900 156399417.39600                                
C03  37001376.68800 192675850.82800                                                                  37001358.69400 156564870.01100                                
C07  37175149.48700 193580769.08500                                                                                                                                
C08  38345191.72200 199673478.65800                                                                  38345188.13000 162251069.58100                                
C09  38645734.53600 201238365.92100  38645728.97900 155610296.68500                                                                                                
C10  37314652.68200 194307176.89800  37314652.05600 150250623.84100                                  37314648.42900 157890524.16100                                
C12  22705762.14100 118234834.29500                                                                  22705756.13700  96075467.69900                                
C19  22255243.22400 115888939.44200                                  22255243.65300  87334346.14400  22255234.71800  94169155.03000  22255236.98700 116952072.04900
C20  24469911.22100 127421313.68500                                  24469913.15100  96025176.91800  24469904.68100 103540123.91800  24469905.71800 128590340.71600
C22                                                                                                                                  23562567.64000 123822145.11310
C36  22566655.44300 117510450.54400                                  22566659.05200  88556606.08100  22566657.44400  95486899.13400  22566650.88600 118588464.31200
C39  26346821.23400 137194656.72500                                  26346812.49600 103390593.86600  26346818.41000 111482056.76600  26346818.92900 138453543.55700
> 2026 06 07 17 01 03.0000000  0 12
C01  38582106.17900 200907249.89800                                                                  38582101.46200 163253506.13600                                
C02  36962476.75400 192473256.48200                                                                  36962460.92200 156400281.05000                                
C03  37001529.73600 192676649.33400                                                                  37001512.01000 156565518.90300                                
C07  37175166.60600 193580857.69600                                                                                                                                
C08  38340226.97500 199647624.62600                                                                  38340223.77600 162230061.10900                                
C09  38651269.12600 201267153.61000  38651256.08200 155632557.02900                                                                                                
C10  37314698.42600 194307412.48900  37314696.81800 150250805.94100                                  37314692.99400 157890715.56200                                
C12  22713016.98200 118272621.03100                                                                  22713012.62200  96106172.46300                                
C19  22258344.98200 115905090.66200                                  22258344.53600  87346517.76000  22258336.81600  94182279.19100  22258337.85300 116968371.44900
C20  24478999.19200 127468636.23800                                  24478998.51300  96060839.31700  24478990.88300 103578577.31800  24478994.11700 128638097.41200
C36                                                                  22564519.38000  88548211.65000  22564518.73600  95477847.68100  22564511.78500 118577223.09400
C39  26340859.18100 137163617.03100                                  26340851.14000 103367202.24400  26340855.03500 111456834.42000  26340856.23200 138422218.91900
> 2026 06 07 17 01 18.0000000  0 12
C01  38582082.80700 200907128.40800                                                                  38582078.12500 163253407.37800                                
C02  36962677.28000 192474300.92700                                                                  36962661.75200 156401129.79300                                
C03  37001679.22800 192677429.31200                                                                  37001661.73400 156566152.70300                                
C07  37175177.13100 193580912.60100                                                                  37175174.82600 157300320.32710                                
C08  38335261.33400 199621766.58900                                                                  38335258.70700 162209049.38600                                
C09  38656802.26900 201295934.17000  38656782.04100 155654811.96300                                                                                                
C10  37314737.04100 194307611.66500  37314734.73600 150250959.95400                                  37314730.55500 157890877.34400                                
C12  22720284.60000 118310468.88300                                                                  22720281.56200  96136927.00900                                
C19  22261466.32500 115921344.23000                                  22261464.75300  87358766.51300  22261458.28400  94195486.52500  22261459.76700 116984774.16400
C20  24488091.71900 127515985.22700                                  24488089.50300  96096521.71300  24488084.58900 103617052.22500  24488086.35800 128685880.80200
C36  22562382.87000 117488191.79010                                  22562384.76400  88539838.53600  22562384.42500  95468819.19000  22562379.83200 118566010.34700
C39  26334900.00400 137132590.27600                                  26334898.61100 103343820.36900  26334895.62700 111431622.63500  26334896.19800 138390907.41500
> 2026 06 07 17 01 33.0000000  0 12
C01  38582064.20500 200907031.86200                                                                  38582059.84500 163253328.95900                                
C02  36962882.57700 192475370.49000                                                                  36962867.42400 156401998.93800                                
C03  37001833.49100 192678234.19500                                                                  37001816.35500 156566806.75800                                
C07                                                                                                  37175186.95900 157300382.09810                                
C08  38330303.21600 199595948.13600                                                                  38330300.89300 162188069.81800                                
C09  38662300.80000 201324741.99210  38662315.02400 155677095.06100                                                                                                
C10  37314776.88900 194307817.91600  37314774.13700 150251119.48100                                  37314769.86700 157891044.99200                                
C12  22727574.35700 118348421.42700                                                                  22727571.48000  96167766.48400                                
C19  22264615.58000 115937743.53900                                  22264614.11500  87371125.10100  22264609.52200  94208812.30900  22264609.50400 117001323.95200
C20  24497197.72000 127563403.88200                                  24497196.79000  96132256.56800  24497193.50200 103655583.74500  24497192.94900 128733734.55700
C36  22560263.85400 117477152.61600                                  22560265.64100  88531519.41800  22560264.08600  95459848.96200  22560260.45900 118554869.90700
C39  26328952.12100 137101620.02500                                  26328952.85400 103320481.05600  26328944.83100 111406456.76200  26328948.81600 138359652.91300
> 2026 06 07 17 01 48.0000000  0 12
C01  38582040.72500 200906909.59300                                                                  38582036.13300 163253229.64600                                
C02  36963082.99600 192476414.52800                                                                  36963068.32600 156402847.31600                                
C03  37001982.84100 192679013.41100                                                                  37001965.99000 156567439.94800                                
C08  38325342.91800 199570118.72400                                                                  38325340.39900 162167081.37100                                
C09  38667835.21200 201353544.66200  38667845.55800 155699367.09200                                                                                                
C10  37314807.58800 194307980.60900  37314805.30100 150251245.21600                                  37314801.01200 157891177.19500                                
C12  22734873.62100 118386427.58900                                                                  22734869.76100  96198649.53600                                
C19  22267783.04300 115954237.88500                                  22267781.72100  87383555.27000  22267776.00200  94222215.29100  22267777.62900 117017969.60200
C20  24506307.72300 127610841.33200                                  24506309.86700  96168005.59800  24506304.43500 103694130.57000  24506302.73700 128781607.23700
C22                                                                                                  23539926.92700  99605135.26810                                
C36  22558146.66100 117466134.51700                                  22558150.66300  88523216.10100  22558146.87500  95450895.79700  22558143.60500 118543750.66000
C39  26323005.11400 137070655.58100                                  26323004.47100 103297146.16000  26322996.68000 111381295.64100  26323004.27400 138328404.36800
> 2026 06 07 17 02 03.0000000  0 12
C01  38582013.17100 200906766.17000                                                                  38582008.63200 163253113.04400                                
C02  36963279.43000 192477437.54300                                                                  36963265.09900 156403678.64000                                
C03  37002128.15200 192679771.41500                                                                  37002111.62300 156568055.91900                                
C08  38320381.54800 199544282.92900                                                                  38320378.52900 162146087.72800                                
C09  38673365.49500 201382337.23100  38673374.21600 155721631.37100                                                                                                
C10  37314830.56800 194308104.25300  37314828.97700 150251340.88000                                  37314824.99300 157891277.63300                                
C12  22742183.58800 118424491.59300                                                                  22742178.37000  96229579.62600                                
C19  22270969.64400 115970831.60100                                  22270969.26800  87396060.37700  22270961.63800  94235699.05100  22270963.42500 117034715.54500
C20  24515422.56800 127658301.82600                                  24515426.10600  96203771.98400  24515418.36900 103732696.09100  24515417.19000 128829503.16000
C22  23534315.82100 122549440.62610                                                                  23534308.83500  99581365.02210                                
C36  22556033.72000 117455141.78500                                  22556040.01000  88514931.90000  22556035.06000  95441963.23800  22556030.93300 118532657.03600
C39  26317060.25100 137039701.44800                                  26317059.12500 103273819.11200  26317053.31800 111356142.76100  26317059.57200 138297166.31700
> 2026 06 07 17 02 18.0000000  0 12
C01  38581987.42200 200906631.97000                                                                  38581982.65100 163253004.09300                                
C02  36963477.56200 192478469.96800                                                                  36963463.66000 156404517.59300                                
C03  37002275.23200 192680538.65300                                                                  37002258.88100 156568679.38000                                
C08  38315424.66400 199518471.23300                                                                  38315421.30400 162125113.65800                                
C09  38678900.19300 201411150.34600  38678906.78700 155743911.51500                                                                                                
C10  37314851.13500 194308220.23310  37314851.06300 150251429.83400                                  37314847.97200 157891371.06500                                
C12  22749510.81700 118462643.66800                                                                  22749505.00900  96260581.26200                                
C19  22274181.49300 115987555.04200                                  22274182.45800  87408663.22300  22274175.34600  94249288.20700  22274174.64900 117051592.31800
C20  24524547.56400 127705815.47200                                  24524550.36900  96239578.44000  24524542.43500 103771304.76800  24524542.20300 128877452.69600
C22  23528717.20600 122520289.54100                                                                  23528712.66800  99557677.44600                                
C36  22553931.75100 117444204.69000                                  22553940.36400  88506689.65100  22553934.37800  95433075.94300  22553929.75000 118521619.66300
C39  26311123.51800 137008858.99310                                  26311121.35600 103250522.68300  26311131.45200 111331022.74800  26311124.37600 138265969.31500
> 2026 06 07 17 02 33.0000000  0 12
C01  38581963.19100 200906505.74700                                                                  38581958.51000 163252901.49500                                
C02  36963677.28400 192479510.54600                                                                  36963663.81100 156405363.14100                                
C03  37002423.74100 192681313.84800                                                                  37002407.87300 156569309.30600                                
C08  38310471.88900 199492682.48300                                                                  38310468.95800 162104158.22600                                
C09  38684438.07100 201439982.45700  38684442.93200 155766206.32700                                  38684439.39400 163686533.08700                                
C10  37314873.25700 194308325.38600  37314871.34500 150251511.14100                                  37314868.95000 157891456.53500                                
C12  22756854.36000 118500882.29500                                                                  22756848.94500  96291653.19400                                
C19  22277418.10900 116004406.81100                                  22277418.25200  87421362.77600  22277411.56900  94262981.67700  22277411.39100 117068598.66400
C20  24533682.08300 127753380.71200                                  24533683.85200  96275423.76200  24533676.04300 103809955.38700  24533676.47200 128925454.32100
C22  23523138.92600 122491244.97900                                                                  23523135.03100  99534076.35600                                
C36  22551841.93300 117433321.92500                                  22551851.15400  88498488.35700  22551844.52400  95424232.82100  22551841.57600 118510637.01500
C39  26305196.66700 136977984.95200                                  26305192.05700 103227255.98700  26305202.13500 111305935.04100  26305196.45300 138234812.11700
> 2026 06 07 17 02 48.0000000  0 12
C01  38581941.71300 200906394.07400                                                                  38581936.92400 163252810.74500                                
C02  36963879.83000 192480565.78500                                                                  36963867.08900 156406220.66100                                
C03  37002575.12700 192682103.61600                                                                  37002559.58100 156569951.05500                                
C08  38305524.72500 199466923.28100                                                                  38305522.59800 162083226.81500                                
C09  38689980.79200 201468840.13600  38689983.75800 155788520.90000                                                                                                
C10  37314893.23400 194308427.24300  37314891.07200 150251589.92300                                  37314889.55300 157891539.29200                                
C12  22764214.21700 118539213.66900                                                                  22764211.73300  96322800.54500                                
C19  22280680.17100 116021393.32700                                  22280678.72400  87434163.85900  22280670.82600  94276784.63300  22280674.77500 117085741.05800
C20  24542827.32400 127801003.89100                                  24542829.20000  96311312.72100  24542821.21300 103848653.06600  24542822.01700 128973514.34800
C22  23517582.71400 122462229.87610                                                                  23517576.69300  99510567.47400                                
C36  22549764.42700 117422499.92300                                  22549772.98600  88490332.90200  22549766.41100  95415439.08900  22549763.83700 118499715.74300
C39  26299276.62400 136947156.98100                                  26299272.94300 103204023.98500  26299278.78600 111280884.76600                                
> 2026 06 07 17 03 03.0000000  0 13
C01  38581920.10900 200906281.48200                                                                  38581915.32000 163252719.29700                                
C02  36964082.28600 192481620.28300                                                                  36964069.49100 156407077.54300                                
C03  37002726.28100 192682892.41600                                                                  37002711.12800 156570592.05200                                
C08  38300580.47300 199441178.25500                                                                  38300579.04400 162062306.92200                                
C09  38695525.37100 201497707.73400  38695526.60400 155810843.13700                                  38695522.29800 163733418.70100                                
C10  37314909.90600 194308510.30900  37314907.19000 150251654.18000                                  37314906.35000 157891606.86100                                
C12  22771589.26300 118577622.16600                                                                  22771588.03000  96354010.61800                                
C19  22283964.40800 116038498.99700                                  22283963.67500  87447054.77700  22283951.65000  94290684.39100  22283960.40500 117103003.74000
C20  24551980.49900 127848669.16500                                  24551983.21500  96347233.46000  24551975.72800 103887384.98200  24551975.22700 129021616.90000
C22  23512046.87300 122433398.11410                                                                  23512039.06400  99487138.44300                                
C27  25387805.63800 132200982.30600                                                                                                                                
C36  22547695.80200 117411723.17200                                  22547702.73500  88482211.55600  22547697.17800  95406682.11300  22547693.30000 118488840.18100
C39  26293362.38800 136916359.43400                                  26293358.06400 103180814.88800  26293361.72700 111255859.31500                                
> 2026 06 07 17 03 18.0000000  0 13
C01  38581899.68500 200906175.08100                                                                  38581894.78900 163252632.82600                                
C02  36964285.90300 192482681.11300                                                                  36964273.37700 156407939.58300                                
C03  37002878.61500 192683687.35700                                                                  37002863.78400 156571238.06200                                
C08  38295640.60000 199415454.58400                                                                  38295639.22400 162041404.40300                                
C09  38701073.41700 201526592.35400  38701073.04200 155833178.58900                                  38701068.50300 163756890.81100                                
C10  37314924.54100 194308581.73000  37314921.11000 150251709.38900                                  37314919.85900 157891664.83300                                
C12  22778980.62400 118616114.64400                                                                  22778978.40800  96385288.89800                                
C19  22287273.69800 116055730.95800                                  22287273.84000  87460040.84400  22287262.95800  94304686.69000  22287269.65900 117120393.74200
C20  24561143.73400 127896383.42900                                  24561146.53900  96383191.12500  24561139.26600 103926156.73900  24561139.33800 129069768.96000
C22                                                                                                  23506523.41500  99463795.23300  23506535.58400 123527681.09800
C27  25384261.96100 132182483.17100                                                                                                  25384259.35200 133395164.96200
C36  22545636.59400 117400998.69100                                  22545644.47400  88474129.61400  22545639.38100  95397967.59300  22545633.62700 118478017.26300
C39  26287454.42500 136885599.59800                                  26287449.31400 103157634.14200  26287449.47500 111230864.37200                                
> 2026 06 07 17 03 33.0000000  0 14
C01  38581878.61700 200906065.51600                                                                  38581873.82900 163252543.84200                                
C02  36964488.98500 192483738.95200                                                                  36964476.83400 156408799.17800                                
C03  37003030.35900 192684479.13200                                                                  37003015.81300 156571881.46700                                
C07                                                                                                  37175137.06800 157300171.35000                                
C08  38290703.35300 199389742.98000                                                                  38290701.35100 162020511.68200                                
C09  38706622.62400 201555484.56000  38706620.94400 155855519.91200                                                                                                
C10  37314935.03000 194308632.13300  37314931.00900 150251748.35200                                  37314929.31200 157891705.80100                                
C12  22786385.56500 118654681.51300                                                                  22786383.52800  96416627.60000                                
C19  22290605.34100 116073079.59000                                  22290604.25100  87473114.84400  22290600.05200  94318783.87500  22290601.08800 117137901.50900
C20  24570315.08100 127944137.13400                                  24570317.08300  96419178.44100  24570309.36300 103964960.49400  24570310.11400 129117960.74000
C22                                                                                                  23501027.20800  99440530.33200  23501035.05200 123498787.64500
C27  25380728.80800 132164068.55900                                                                                                                                
C36  22543585.17600 117390316.90400                                  22543594.77200  88466079.88000  22543587.26700  95389287.85200  22543582.83500 118467237.49400
C39  26281553.09100 136854867.85200                                  26281545.92500 103134474.71800  26281544.31700 111205892.37100                                
> 2026 06 07 17 03 48.0000000  0 13
C01  38581862.64200 200905982.47300                                                                  38581857.81800 163252476.37500                                
C02  36964697.19400 192484823.44600                                                                  36964685.25800 156409680.44900                                
C03  37003187.14100 192685297.40800                                                                  37003172.98900 156572546.38800                                
C07                                                                                                  37175127.08000 157300127.94010                                
C08  38285774.30800 199364073.16600                                                                  38285771.25200 161999652.92200                                
C09  38712178.21100 201584413.88100  38712175.79800 155877889.81700                                                                                                
C10  37314946.82400 194308691.22500  37314942.64200 150251794.05000                                  37314940.10500 157891753.84400                                
C12  22793810.84100 118693352.11900                                                                  22793809.44700  96448050.63300                                
C19  22293965.03900 116090574.47700                                  22293963.07400  87486299.05800  22293961.10800  94332999.95100  22293960.57200 117155556.86500
C20  24579498.95500 127991959.59600                                  24579500.90300  96455217.62300  24579492.27200 104003820.13300  24579491.77200 129166221.85000
C22                                                                                                  23495555.37300  99417368.17300  23495561.19900 123470021.70200
C36  22541548.09000 117379707.46600                                  22541556.59500  88458084.68800  22541546.64200  95380666.94200  22541545.87400 118456530.77700
C39  26275663.19300 136824193.87600                                  26275655.36600 103111358.85500  26275651.56000 111180967.40500                                
> 2026 06 07 17 04 03.0000000  0 13
C01  38581839.89500 200905864.02500                                                                  38581835.05300 163252380.18100                                
C02  36964898.59600 192485872.70100                                                                  36964886.85600 156410533.07800                                
C03  37003337.22300 192686080.26400                                                                  37003323.39300 156573182.53500                                
C07                                                                                                  37175107.51300 157300040.61100                                
C08  38280841.33200 199338383.37000                                                                  38280837.36500 161978777.92200                                
C09  38717729.22300 201613318.16900  38717725.98800 155900240.44800                                                                                                
C10  37314947.91400 194308697.09000  37314944.12500 150251798.57000                                  37314940.71200 157891758.60500                                
C12  22801245.98000 118732064.40500                                                                  22801244.78300  96479507.49300                                
C19  22297340.80100 116108153.58500                                  22297339.06800  87499546.79100  22297335.60100  94347284.48700  22297337.65600 117173297.29900
C20  24588683.52500 128039788.63600                                  24588685.81300  96491261.74600  24588676.48500 104042685.12900  24588677.32500 129214489.67900
C22                                                                                                  23490095.10000  99394258.46500  23490099.60300 123441321.08000
C36  22539513.14700 117369108.56000                                  22539518.91900  88450097.37000  22539511.61100  95372054.42000  22539510.61000 118445834.58400
C39  26269772.15100 136793515.91800                                  26269765.34300 103088239.88800  26269762.07300 111156039.10500  26269793.88000 138048629.88010
> 2026 06 07 17 04 18.0000000  0 13
C01  38581814.66400 200905732.66300                                                                  38581809.91100 163252273.46700                                
C02  36965097.55000 192486909.12700                                                                  36965085.82800 156411375.31600                                
C03  37003484.69600 192686850.14000                                                                  37003471.31200 156573808.15500                                
C07  37175095.80900 193580504.62010                                                                  37175082.28200 157299930.53100                                
C08  38275908.39100 199312696.12200                                                                  38275904.12100 161957904.94000                                
C09  38723280.84200 201642220.00800  38723275.71400 155922589.15700                                                                                                
C10  37314942.62400 194308672.16700  37314939.64000 150251779.30300                                  37314935.35200 157891738.33200                                
C12  22808694.84300 118770840.56300                                                                  22808695.34400  96511016.23200                                
C19  22300736.91600 116125839.27100                                  22300735.23700  87512874.80200  22300728.98200  94361655.57200  22300734.36100 117191145.23000
C20  24597873.02800 128087646.29400                                  24597875.79800  96527327.51300  24597866.39900 104081573.44400  24597867.50600 129262786.46900
C22  23484660.64800 122290781.91600                                                                  23484652.12400  99371219.79000  23484653.55400 123412708.42900
C36  22537483.04800 117358542.42500                                  22537489.33800  88442134.67700  22537482.92300  95363468.45100  22537481.97600 118435171.41700
C39                                                                  26263877.91100 103065134.78700  26263874.03300 111131125.68600  26263905.19700 138017688.91800
> 2026 06 07 17 04 33.0000000  0 14
C01  38581793.38200 200905622.00800                                                                  38581788.70000 163252183.49600                                
C02  36965300.50600 192487966.48800                                                                  36965289.24900 156412234.51100                                
C03  37003636.22600 192687640.73700                                                                  37003623.16300 156574450.57800                                
C07  37175070.91700 193580375.04700                                                                  37175058.03400 157299825.19700                                
C08  38270981.86600 199287045.17600                                                                  38270977.68500 161937061.47900                                
C09  38728839.48400 201671152.99000  38728831.76500 155944961.89000                                                                                                
C10  37314937.51400 194308650.15500  37314935.69100 150251762.25000                                  37314930.81300 157891720.43600                                
C12                                                                                                  22816161.70000  96542604.00400                                
C19  22304159.87100 116143665.07100                                  22304160.12100  87526308.44600  22304153.18800  94376140.50000  22304157.67300 117209134.59600
C20  24607075.55700 128135566.22500                                  24607078.09400  96563440.16100  24607069.05300 104120512.31100  24607069.58900 129311146.01700
C22  23479238.82900 122262550.77100                                  23479223.01500  92137512.60900                                  23479231.93100 123384218.36500
C27  25366726.55300 132091198.29010                                                                                                                                
C36  22535466.38500 117348042.52000                                  22535472.46100  88434221.93700  22535466.74300  95354936.32600  22535464.59900 118424575.20300
C39  26258027.11000 136732462.90510                                  26258001.96900 103042068.78400  26257993.71300 111106254.47600  26258022.82200 137986842.43410
> 2026 06 07 17 04 48.0000000  0 14
C01  38581772.04700 200905511.00400                                                                  38581767.22200 163252093.39800                                
C02  36965503.46300 192489023.62900                                                                  36965492.15200 156413093.52000                                
C03  37003787.68400 192688430.97100                                                                  37003775.05000 156575092.74500                                
C07                                                                                                  37175030.42600 157299707.50800                                
C08  38266058.14600 199261409.47100                                                                  38266053.98300 161916230.40600                                
C09  38734400.05600 201700095.80300  38734390.85300 155967342.24000                                                                                                
C10                                  37314928.20400 150251731.14300                                  37314922.64700 157891687.77500                                
C12  22823649.01800 118848752.71810                                                                  22823638.08200  96574253.41200                                
C19  22307605.91200 116161609.82200                                  22307606.91200  87539831.70800  22307601.49800  94390722.08700  22307603.91000 117227243.93700
C20  24616285.91200 128183526.93400                                  24616289.20000  96599583.56400  24616280.57000 104159484.33500  24616281.60600 129359546.79500
C22  23473835.84400 122234420.00600                                  23473820.92300  92116313.16100                                  23473830.50100 123355829.45500
C27  25363259.26500 132073145.24400                                                                                                                                
C36  22533458.74700 117337587.72600                                  22533463.51800  88426343.27000  22533468.86100  95346476.71610  22533455.78100 118414024.57000
C39  26252151.07900 136701886.05800                                  26252130.51100 103019026.03400  26252121.84500 111081408.37000  26252143.00200 137955985.21500
> 2026 06 07 17 05 03.0000000  0 14
C01  38581742.45500 200905357.03200                                                                  38581737.50600 163251968.28000                                
C02  36965698.23500 192490037.89200                                                                  36965686.78100 156413917.75300                                
C03  37003930.93900 192689178.24200                                                                  37003918.68100 156575699.95400                                
C07                                                                                                  37174991.41800 157299542.78300                                
C08  38261129.53000 199235746.41800                                                                  38261124.74100 161895377.14500                                
C09  38739953.62300 201729005.84500  38739944.36700 155989697.31600                                                                                                
C10                                  37314908.97700 150251653.03700                                  37314903.06200 157891605.64400                                
C12  22831134.06500 118887735.02000                                                                  22831120.23500  96605929.59000                                
C19  22311066.53400 116179630.66100                                  22311067.21300  87553412.34900  22311062.54900  94405365.57800  22311064.81800 117245430.17800
C20  24625496.50000 128231485.50100                                  24625499.98500  96635725.32100  24625491.69400 104198454.59100  24625491.15800 129407945.35400
C22  23468443.52700 122206347.22400                                  23468430.60700  92095157.45400  23468436.00400  99302644.48210  23468440.38200 123327499.06000
C27  25359800.66200 132055122.45400                                                                                                                                
C36  22531451.66300 117327135.31300                                  22531456.14800  88418466.36500  22531463.17000  95337983.14700  22531448.32100 118403476.28100
C39  26246272.15200 136671297.72900                                  26246254.31900 102995974.50800  26246246.81400 111056552.79500  26246269.24000 137925116.22300
> 2026 06 07 17 05 18.0000000  0 13
C01  38581716.31300 200905220.91900                                                                  38581711.61400 163251857.72200                                
C02  36965896.52800 192491070.20600                                                                  36965885.02000 156414756.63500                                
C03  37004077.64400 192689943.37300                                                                  37004065.54700 156576321.69500                                
C07                                                                                                  37174953.75000 157299380.52000                                
C08  38256207.56100 199210116.99900                                                                  38256201.91500 161874551.20100                                
C09  38745511.64000 201757943.81100  38745503.93800 156012073.98900                                                                                                
C10                                  37314889.57100 150251574.94800                                  37314883.76400 157891523.59800                                
C12  22838637.30400 118926810.83300                                                                  22838626.06400  96637681.82300                                
C19  22314553.70900 116197788.44500                                  22314554.29900  87567096.15500  22314546.45500  94420120.29500  22314551.35100 117263754.50300
C20  24634718.27400 128279502.59500                                  24634720.86500  96671911.15800  24634712.57400 104237472.35700  24634714.02100 129456402.97200
C22  23463074.06400 122178393.53300                                  23463062.69900  92074091.48400  23463066.50500  99279929.83700  23463073.11700 123299288.89900
C36  22529456.46100 117316746.10100                                  22529463.37700  88410637.01100  22529469.48800  95329540.96400  22529453.33400 118392991.72300
C39  26240393.13600 136640553.07710                                  26240386.84700 102972959.97100  26240382.16500 111031737.05400  26240403.60800 137894296.69700
> 2026 06 07 17 05 33.0000000  0 13
C01  38581697.01500 200905120.64400                                                                  38581692.58300 163251776.21800                                
C02  36966101.62800 192492138.53000                                                                  36966090.40600 156415624.72400                                
C03  37004231.28200 192690744.24000                                                                  37004219.32800 156576972.54300                                
C07                                                                                                  37174921.56800 157299235.34700                                
C08  38251295.59900 199184539.25100                                                                  38251289.23800 161853767.25700                                
C09  38751076.66100 201786927.52800  38751072.42600 156034486.06400                                                                                                
C10                                  37314873.45300 150251510.82400                                  37314868.00300 157891456.22500                                
C12  22846161.64600 118965997.99000                                                                  22846155.28400  96669524.52200                                
C19  22318070.53000 116216100.90100                                  22318070.38700  87580896.50800  22318059.59400  94435000.66600  22318068.08200 117282235.00500
C20  24643953.80700 128327595.83500                                  24643955.04000  96708154.34600  24643946.60600 104276552.02800  24643951.09100 129504937.43100
C22  23457730.79700 122150577.25800                                  23457720.14700  92053128.96300  23457723.56000  99257326.73500  23457731.33300 123271217.17300
C36  22527477.39500 117306437.86500                                  22527485.15100  88402868.71600  22527490.85100  95321164.61100  22527473.58900 118382588.94200
C39  26234543.24700 136610080.54400                                  26234535.09900 102949995.92100  26234531.70400 111006975.76400  26234551.94900 137863544.66400
> 2026 06 07 17 05 48.0000000  0 13
C01  38581674.91100 200905005.94100                                                                  38581670.39000 163251683.03100                                
C02  36966303.99500 192493192.56200                                                                  36966293.11300 156416481.20500                                
C03  37004382.02500 192691530.70500                                                                  37004370.33900 156577611.63700                                
C07                                                                                                  37174884.59700 157299066.38500                                
C08  38246383.99400 199158962.96900                                                                  38246377.41900 161832984.45400                                
C09  38756639.78800 201815906.81900  38756637.78700 156056894.63200                                  38756632.78400 163991995.09010                                
C10                                  37314851.13500 150251421.73000                                  37314846.11400 157891362.62800                                
C12  22853697.72700 119005245.89000                                                                  22853692.29500  96701416.63500                                
C19  22321607.77400 116234517.71200                                  22321606.50600  87594775.48300  22321597.50000  94449965.82100  22321604.41500 117300820.79400
C20  24653193.77200 128375714.61100                                  24653194.07600  96744416.84000  24653186.74900 104315652.44200  24653191.05600 129553497.70200
C22  23452404.34500 122122848.05000                                  23452393.10600  92032232.16400  23452397.43000  99234794.51100  23452405.54200 123243233.66300
C36  22525503.72600 117296160.28200                                  22525510.92700  88395123.43200  22525516.18100  95312813.07000  22525499.09800 118372217.09300
C39  26228693.26900 136579697.16010                                  26228688.80100 102927044.46500  26228684.62000 110982228.04800  26228706.17000 137832689.80710
> 2026 06 07 17 06 03.0000000  0 13
C01  38581650.82300 200904880.58700                                                                  38581646.37400 163251581.22500                                
C02  36966504.34200 192494235.98400                                                                  36966493.22800 156417329.14800                                
C03  37004530.80300 192692306.50700                                                                  37004519.50900 156578242.03700                                
C07                                                                                                  37174841.69300 157298876.73500                                
C08  38241473.46200 199133391.95600                                                                  38241467.40400 161812205.98400                                
C09  38762202.54000 201844885.19700  38762200.87900 156079302.55400                                  38762198.25200 164015542.39300                                
C10                                  37314823.20600 150251310.62200                                  37314818.98900 157891245.83400                                
C12  22861246.69300 119044558.09600                                                                  22861239.63400  96733360.95900                                
C19  22325165.30000 116253042.44500                                  22325164.24600  87608735.77300  22325156.24100  94465018.67000  22325160.88700 117319515.46100
C20  24662439.95500 128423862.47000                                  24662440.72300  96780701.24700  24662434.64800 104354776.49500  24662435.66600 129602087.26700
C22  23447096.83400 122095210.10800                                  23447082.68200  92011403.97000  23447088.84700  99212336.36000  23447098.13900 123215342.06500
C36  22523535.57800 117285917.07500                                  22523543.58400  88387404.05100  22523544.53100  95304489.22600  22523533.41600 118361879.80000
C39  26222849.45500 136549272.93300                                  26222844.52300 102904108.34900  26222840.10900 110957496.90900  26222872.70200 137801975.29400
> 2026 06 07 17 06 18.0000000  0 13
C01  38581625.98500 200904751.11900                                                                  38581621.55400 163251476.02100                                
C02  36966703.93900 192495275.55300                                                                  36966692.78900 156418173.90200                                
C03  37004678.84700 192693078.15100                                                                  37004667.76900 156578869.09600                                
C07  37174794.43000 193578901.49610                                                                  37174793.30400 157298671.82800                                
C08  38236565.32400 199107832.93700                                                                  38236560.37400 161791437.23000                                
C09  38767766.54300 201873869.14900  38767765.84600 156101714.74900                                  38767764.86300 164039094.28300                                
C10                                  37314791.02400 150251182.58200                                  37314787.34300 157891111.31800                                
C12  22868808.23800 119083940.82700                                                                  22868802.05500  96765362.65300                                
C19  22328744.73400 116271681.57800                                  22328743.42900  87622782.28600  22328736.37100  94480164.48500  22328738.73000 117338325.53700
C20  24671693.48200 128472045.74900                                  24671696.05500  96817012.32000  24671688.99700 104393929.33500  24671688.01400 129650712.59500
C22  23441808.60400 122067670.15800                                                                  23441799.02600  99189957.90900                                
C36  22521575.54300 117275714.72500                                  22521585.26400  88379715.41600  22521583.03000  95296198.88700  22521575.95400 118351583.66300
C39                                                                  26217004.22900 102881192.64400  26217000.60200 110932787.77100  26217029.55000 137771288.07000
> 2026 06 07 17 06 33.0000000  0 13
C01  38581602.72000 200904630.11500                                                                  38581598.21700 163251377.67700                                
C02  36966905.16200 192496323.65400                                                                  36966894.08400 156419025.57200                                
C03  37004828.53600 192693858.23600                                                                  37004817.69000 156579502.98900                                
C07  37174748.18500 193578642.90800                                                                  37174741.94900 157298461.68700                                
C08  38231661.92100 199082298.49700                                                                  38231658.36500 161770688.41800                                
C09  38773334.83400 201902871.12600  38773334.88800 156124140.88800                                  38773334.78100 164062660.79100                                
C10  37314764.68500 194307761.49110  37314756.94700 150251047.28500                                  37314753.99900 157890969.12400                                
C12  22876386.34800 119123406.45200                                                                  22876382.09500  96797431.69500                                
C19  22332348.50500 116290447.46900                                  22332347.66500  87636924.32300  22332341.07100  94495413.31200  22332343.69800 117357263.62200
C20  24680956.19400 128520276.66900                                  24680959.76800  96853359.30200  24680951.53000 104433120.89900  24680950.11800 129699385.98000
C22  23436541.58500 122040240.91600                                                                  23436530.29100  99167669.41200                                
C36  22519627.49800 117265565.39800                                  22519637.46900  88372066.93500                                  22519626.30100 118341341.52800
C39                                                                  26211170.81500 102858306.67300  26211167.81300 110908110.72700  26211193.49100 137740640.67000
> 2026 06 07 17 06 48.0000000  0 13
C01  38581580.54400 200904514.79900                                                                  38581576.04100 163251284.02700                                
C02  36967107.54700 192497377.60500                                                                  36967096.64700 156419882.02200                                
C03  37004979.31500 192694643.94200                                                                  37004968.62900 156580141.46800                                
C07  37174697.00800 193578375.36900                                                                  37174687.32300 157298244.26700                                
C08  38226762.82400 199056785.92700                                                                  38226760.43000 161749957.42200                                
C09  38778906.82500 201931888.27400  38778907.57500 156146578.89300                                  38778907.59300 164086239.64500                                
C10  37314725.99800 194307551.48300  37314720.62000 150250902.70200                                  37314718.24300 157890817.18000                                
C12  22883980.61100 119162951.92500                                                                  22883977.16200  96829565.60500                                
C19  22335975.61200 116309337.21100                                  22335976.25600  87651159.73400  22335969.25100  94510762.81900  22335970.82400 117376326.74000
C20  24690226.96500 128568552.14800                                  24690230.19900  96889739.87200  24690222.26500 104472348.66100  24690219.40600 129748104.34400
C22  23431295.22200 122012919.97100                                                                  23431282.74900  99145468.91100                                
C36  22517688.88800 117255466.44300                                  22517697.10700  88364456.40800  22517696.30300  95279790.91410  22517686.85100 118331150.00400
C39                                                                  26205344.88800 102835448.41400  26205341.42200 110883463.53800  26205365.02700 137710030.35600
> 2026 06 07 17 07 03.0000000  0 13
C01  38581558.35100 200904399.46800                                                                  38581553.83000 163251190.32500                                
C02  36967309.91400 192498431.64800                                                                  36967299.13900 156420738.53100                                
C03  37005130.14700 192695429.61900                                                                  37005119.58700 156580779.92100                                
C07  37174642.81100 193578093.08300                                                                  37174627.78300 157298014.99500                                
C08  38221866.85500 199031289.59100                                                                  38221864.87200 161729239.62900                                
C09  38784482.06700 201960914.77200  38784482.40700 156169024.02100                                  38784481.01300 164109826.08400                                
C10  37314690.52800 194307346.72400  37314680.84300 150250744.27200                                  37314678.93100 157890650.65900                                
C12  22891589.22300 119202571.26700                                                                  22891585.45300  96861759.55000                                
C19  22339625.89600 116328345.00600                                  22339625.59300  87665484.13200  22339619.16000  94526208.20000  22339620.58900 117395508.92500
C20  24699505.11500 128616866.22400                                  24699507.27700  96926149.56700  24699500.46900 104511607.83100  24699496.69900 129796861.68900
C22  23426068.44300 121985701.78300                                  23426051.75300  91928861.97710  23426055.73800  99123351.85500                                
C36  22515758.58600 117245412.07500                                  22515769.18300  88356879.45600  22515762.01700  95271620.86000  22515756.72800 118321003.33600
C39  26199532.79200 136427857.06210                                  26199526.02000 102812613.51600  26199521.78500 110858841.52100  26199542.49500 137679451.26700
> 2026 06 07 17 07 18.0000000  0 13
C01  38581532.47700 200904264.49800                                                                  38581527.75900 163251080.66300                                
C02  36967508.49200 192499466.20700                                                                  36967497.91400 156421579.24900                                
C03  37005277.17400 192696195.64900                                                                  37005266.77400 156581402.39200                                
C07  37174581.86000 193577776.49900                                                                                                                                
C08  38216969.76000 199005790.04800                                                                  38216967.70500 161708519.16400                                
C09  38790056.32700 201989931.09700  38790055.39700 156191461.27900                                  38790050.09000 164133404.16300                                
C10  37314644.99800 194307104.41300  37314633.91900 150250556.90200                                  37314632.88300 157890453.80600                                
C12  22899207.75200 119242244.63900                                                                  22899201.55200  96893997.35900                                
C19  22343295.67600 116347451.20000                                  22343293.51300  87679882.56900  22343288.20600  94541733.50300  22343289.77900 117414790.30500
C20  24708787.17900 128665199.03000                                  24708788.34100  96962573.36300  24708781.15700 104550882.15700  24708779.08500 129845637.92000
C22  23420857.55000 121958566.88600                                  23420841.27100  91908413.25000  23420844.93500  99101302.54400  23420856.76400 123077442.38010
C36  22513832.94900 117235382.59200                                  22513845.01100  88349321.16900  22513834.43200  95263471.03900  22513830.62600 118310881.74500
C39  26193717.76500 136397567.33200                                  26193710.45700 102789787.15700  26193706.24000 110834228.79000  26193722.16100 137648883.80200
> 2026 06 07 17 07 33.0000000  0 14
C01  38581508.53200 200904139.54800                                                                  38581503.60000 163250979.18300                                
C02  36967709.01800 192500510.84500                                                                  36967698.49300 156422428.14500                                
C03  37005426.02300 192696971.57000                                                                  37005415.82000 156582032.93900                                
C07  37174520.19400 193577455.27500                                                                                                                                
C08  38212076.98900 198980316.86400                                                                  38212074.73800 161687820.15000                                
C09  38795633.17700 202018966.63000  38795632.01600 156213913.37900                                  38795621.97300 164156997.90700                                
C10  37314597.82400 194306854.46400  37314585.78000 150250363.49100                                  37314585.22600 157890250.61300                                
C12  22906842.43500 119282001.30600                                                                  22906833.75100  96926302.86500                                
C19  22346989.48800 116366685.13200                                  22346988.34500  87694377.31900  22346982.30500  94557362.62900  22346982.41200 117434200.66600
C20  24718078.51700 128713579.88300                                  24718079.37500  96999033.34200  24718070.36900 104590195.50200  24718071.03000 129894462.65500
C22  23415667.51000 121931545.28100                                  23415656.02000  91888049.60100  23415655.52000  99079345.23000  23415666.74200 123050172.81500
C27  25326046.25600 131879332.25510                                                                                                                                
C36  22511917.22900 117225407.48100                                  22511926.98500  88341803.91000  22511918.31900  95255365.36400  22511915.06700 118300815.09100
C39                                                                  26187900.89800 102766991.69600  26187899.41500 110809649.30300  26187911.38700 137618357.73600
> 2026 06 07 17 07 48.0000000  0 13
C01  38581484.32000 200904013.72000                                                                  38581479.51300 163250876.91400                                
C02  36967909.47300 192501554.80500                                                                  36967898.93000 156423276.41000                                
C03  37005574.71100 192697746.64500                                                                  37005564.68600 156582662.75600                                
C07  37174455.72300 193577118.55500                                                                                                                                
C08  38207187.22000 198954859.28200                                                                  38207184.04000 161667133.82100                                
C09  38801208.59800 202048010.36300  38801210.08100 156236371.86700                                  38801197.12600 164180598.27000                                
C10  37314546.79000 194306585.67200  37314534.12100 150250155.69100                                  37314533.65600 157890032.18600                                
C12  22914491.16300 119321830.24000                                                                  22914484.98100  96958667.02400                                
C19  22350704.60100 116386035.77100                                  22350705.31600  87708960.09000  22350697.25700  94573086.64100  22350698.34700 117453728.90700
C20  24727376.91300 128761997.66200                                  24727377.36000  97035521.14000  24727367.19300 104629538.86600  24727369.03300 129943324.58700
C22  23410496.42900 121904626.14900                                  23410490.83600  91867763.33700  23410485.63700  99057471.23500  23410496.50100 123023006.75100
C36  22510008.31700 117215475.81300                                  22510015.64300  88334319.36300  22510005.52900  95247295.13800  22510008.28100 118290792.30600
C39                                                                  26182096.16400 102744218.86900  26182096.82500 110785094.26200                                
> 2026 06 07 17 08 03.0000000  0 12
C01  38581463.77000 200903907.13500                                                                  38581459.08800 163250790.35700                                
C02  36968113.64400 192502618.11800                                                                  36968103.12000 156424140.46800                                
C03  37005727.08000 192698540.95500                                                                  37005717.12700 156583308.22800                                
C08  38202304.65300 198929437.52200                                                                  38202299.73900 161646476.62200                                
C09  38806788.98700 202077082.43200  38806793.40100 156258852.27600                                  38806779.44500 164204221.75900                                
C10  37314495.88100 194306318.46900  37314482.92600 150249949.05900                                  37314482.35400 157889815.06800                                
C12  22922157.20700 119361751.29500                                                                  22922154.06200  96991106.14200                                
C19  22354446.62500 116405523.25800                                  22354446.71400  87723645.94000  22354439.35200  94588921.80400  22354440.80000 117473395.09300
C20  24736685.47700 128810472.23900                                  24736686.10300  97072051.74300  24736676.43600 104668928.32200  24736678.59800 129992243.87600
C22  23405348.98900 121877829.92600                                                                  23405339.53700  99035697.17500  23405349.82900 122995964.67900
C36  22508112.48500 117205607.55700                                  22508119.91900  88326882.64400  22508113.73600  95239276.45500  22508113.62900 118280833.47200
C39                                                                  26176303.52700 102721483.84700  26176301.20400 110760580.00100                                
> 2026 06 07 17 08 18.0000000  0 13
C01  38581442.04100 200903794.31700                                                                  38581437.32400 163250698.71300                                
C02  36968316.63700 192503675.32600                                                                  36968305.91500 156424999.57400                                
C03  37005878.30600 192699328.94700                                                                  37005868.49500 156583948.54600                                
C07  37174332.35500 193576516.64910                                                                                                                                
C08  38197424.30100 198904026.14500                                                                  38197418.40400 161625827.84800                                
C09  38812370.78700 202106157.20300  38812377.04100 156281334.76000                                  38812364.28300 164227847.35200                                
C10                                  37314426.92400 150249723.85200                                  37314426.06700 157889578.32200                                
C12  22929835.32900 119401738.56700                                                                  22929833.68500  97023599.10100                                
C19  22358210.57400 116425121.82500                                  22358210.03800  87738415.47800  22358203.92600  94604847.24100  22358206.30300 117493173.43700
C20  24745999.59800 128858977.69300                                  24746001.52800  97108605.63400  24745993.68400 104708342.97000  24745994.63100 130041194.39000
C22                                                                                                  23400212.66400  99014002.39800  23400222.38500 122969021.22500
C36  22506225.33800 117195776.98900                                  22506231.73500  88319474.32100  22506227.73200  95231288.41200  22506226.42800 118270912.78800
C39  26170534.31600 136276827.15110                                  26170517.60900 102698767.30300  26170511.55100 110736085.69100                                
> 2026 06 07 17 08 33.0000000  0 13
C01  38581415.38100 200903656.06400                                                                  38581410.87800 163250586.37600                                
C02  36968514.80400 192504707.22400                                                                  36968504.02900 156425838.13200                                
C03  37006024.61700 192700091.49800                                                                  37006015.05700 156584568.21900                                
C07  37174257.73400 193576123.70400                                                                  37174233.84300 157296345.93510                                
C08  38192542.25200 198878606.09500                                                                  38192536.90900 161605171.99900                                
C09  38817949.94300 202135215.47200  38817957.66200 156303804.40700                                  38817947.45900 164251459.44800                                
C10                                  37314362.29200 150249465.20700                                  37314361.50600 157889306.57100                                
C12  22937523.35100 119441772.74600                                                                  22937521.60000  97056130.21000                                
C19  22361991.99900 116444812.12300                                  22361992.30200  87753254.22400  22361986.08400  94620847.31800  22361987.67400 117513044.44400
C20  24755316.52500 128907494.70900                                  24755320.09800  97145168.23000  24755313.50500 104747767.01900  24755312.52200 130090156.55700
C22                                                                  23395115.88200  91807457.90510  23395101.15800  98992371.50000                                
C36  22504341.49600 117185965.02200                                  22504347.50000  88312080.03200  22504339.13700  95223315.49600  22504342.89000 118261010.80000
C39  26164747.59400 136246688.87500                                  26164731.08300 102676054.84700  26164725.15000 110711595.81300                                
> 2026 06 07 17 08 48.0000000  0 13
C01  38581389.47100 200903521.69300                                                                  38581385.09300 163250477.19600                                
C02  36968713.77600 192505743.13800                                                                  36968703.07200 156426679.89300                                
C03  37006171.64300 192700857.87400                                                                  37006162.19100 156585190.99000                                
C07  37174176.68000 193575691.00510                                                                  37174156.91700 157296017.94700                                
C08  38187664.49100 198853206.65100                                                                  38187660.39900 161584532.95600                                
C09  38823531.45700 202164286.36600  38823541.21400 156326283.90100                                  38823533.44100 164275081.95700                                
C10                                  37314294.35400 150249195.86100                                  37314294.26500 157889023.46000                                
C12  22945227.43800 119481882.95200                                                                  22945224.91800  97088722.97600                                
C19  22365797.36800 116464623.46600                                  22365797.04600  87768184.12800  22365790.34500  94636945.66400  22365792.74000 117533037.56900
C20  24764641.58200 128956052.33700                                  24764645.58400  97181761.39900  24764639.24100 104787223.98700  24764636.61400 130139159.59800
C22  23390023.80000 121797976.21910                                  23390024.19400  91787478.55200  23390010.20200  98970828.60900                                
C36  22502466.37400 117176200.84700                                  22502472.46800  88304721.72200  22502462.37200  95215381.37800  22502467.14300 118251157.02500
C39  26158963.62400 136216585.18600                                  26158953.99200 102653368.55300  26158945.18300 110687134.03400                                
> 2026 06 07 17 09 03.0000000  0 13
C01  38581365.43700 200903397.09800                                                                  38581361.20200 163250376.00700                                
C02  36968914.60500 192506788.95600                                                                  36968903.72300 156427529.75000                                
C03  37006320.61800 192701634.01300                                                                  37006311.34300 156585821.66000                                
C07                                                                                                  37174078.40000 157295686.11200                                
C08  38182792.26900 198827833.85800                                                                  38182789.03500 161563915.54200                                
C09  38829116.58100 202193375.70200  38829129.19700 156348777.67900                                  38829122.42400 164298719.46100                                
C10                                  37314224.00400 150248920.36400                                  37314225.50500 157888733.94800                                
C12  22952946.39100 119522074.70000                                                                  22952943.15700  97121382.01500                                
C19  22369626.34200 116484561.53800                                  22369626.34200  87783209.53900  22369618.80100  94653146.96700  22369622.25000 117553158.61500
C20  24773974.89400 129004656.08600                                  24773978.75400  97218389.33500  24773972.03500 104826718.49800  24773971.69500 130188209.26700
C22  23384954.55500 121771578.78500                                  23384954.12600  91767585.28900  23384940.77800  98949378.48900                                
C36  22500601.20600 117166490.22500                                  22500607.01300  88297403.75400  22500598.84700  95207490.78700  22500600.77700 118241357.34100
C39  26153186.39000 136186522.02100                                  26153195.39600 102630712.63800  26153172.14800 110662705.26400                                
> 2026 06 07 17 09 18.0000000  0 13
C01  38581343.45800 200903282.98200                                                                  38581339.18700 163250283.28500                                
C02  36969117.49000 192507845.38500                                                                  36969106.71500 156428388.19200                                
C03  37006471.66400 192702420.59400                                                                  37006462.46200 156586460.81900                                
C07                                                                                                  37173997.70400 157295350.98400                                
C08  38177925.42700 198802488.49100                                                                  38177922.13900 161543320.45100                                
C09  38834705.38600 202222484.14200  38834721.36100 156371286.24300                                  38834714.03500 164322372.44300                                
C10                                                                                                  37314155.36900 157888438.48000                                
C12  22960678.37100 119562348.25300                                                                  22960676.10100  97154107.68900                                
C19  22373479.17100 116504626.85800                                  22373479.10000  87798330.87200  22373472.43500  94669451.71100  22373475.99100 117573408.02300
C20  24783317.33700 129053306.40500                                  24783321.12600  97255052.41600  24783313.38800 104866250.83700  24783313.29900 130237305.90200
C22  23379907.27100 121745296.54500                                  23379905.39500  91747778.91200  23379893.70800  98928022.09000  23379895.13800 122862136.53210
C36  22498745.86500 117156833.82600                                  22498752.08300  88290126.63900  22498746.43700  95199644.20700  22498744.48900 118231612.32800
C39  26147417.51900 136156500.01400                                  26147401.07900 102608010.36510  26147405.27800 110638310.01200                                
> 2026 06 07 17 09 33.0000000  0 13
C01  38581321.21100 200903167.42100                                                                  38581316.97600 163250189.35700                                
C02  36969320.03600 192508900.47500                                                                  36969309.60000 156429245.52300                                
C03  37006622.28200 192703205.62000                                                                  37006613.24100 156587098.76900                                
C07                                                                                                  37173913.80900 157295002.88900                                
C08  38173061.55000 198777158.65400                                                                  38173057.06500 161522737.96900                                
C09  38840296.10300 202251599.57200  38840315.25900 156393800.12600                                  38840305.86000 164346031.10300                                
C10                                  37314077.21000 150248327.93910                                  37314081.39100 157888127.44800                                
C12  22968426.02200 119602691.73500                                                                  22968423.84200  97186890.05800                                
C19  22377354.67700 116524807.36500                                  22377353.80100  87813538.97400  22377346.27800  94685849.99800  22377350.92400 117593773.68200
C20  24792666.42800 129101991.10300                                  24792671.18100  97291741.37100  24792662.56800 104905811.13500  24792662.96100 130286437.22900
C22  23374879.78600 121719117.75500                                  23374875.96200  91728050.45700  23374869.04600  98906749.57500  23374869.40400 122835717.55200
C36  22496898.99400 117147219.56100                                  22496905.80200  88282881.26900  22496901.03100  95191831.86700  22496896.72500 118221909.80900
C39  26141655.92000 136126507.38500                                  26141641.66100 102585407.96500  26141640.33800 110613938.60500                                
> 2026 06 07 17 09 48.0000000  0 13
C01  38581299.08900 200903052.41000                                                                  38581294.87200 163250095.97400                                
C02  36969522.77800 192509956.21700                                                                  36969512.34200 156430103.45900                                
C03  37006773.06100 192703991.21000                                                                  37006764.12700 156587737.14400                                
C07                                                                                                  37173828.48400 157294643.54700                                
C08  38168200.80100 198751846.47300                                                                  38168194.88600 161502169.79600                                
C09  38845889.71500 202280723.92000  38845910.65700 156416321.10000                                  38845897.32700 164369697.18200                                
C10                                  37314005.14400 150248018.66800                                  37314004.50100 157887802.44900                                
C12  22976187.25300 119643106.71000                                                                  22976185.82400  97219730.53400                                
C19  22381252.59000 116545104.93100                                  22381251.57100  87828835.28300  22381242.45800  94702343.38600  22381249.39100 117614257.45600
C20  24802022.70200 129150711.88700                                  24802028.67000  97328457.58000  24802018.87800 104945400.76700  24802020.61100 130335605.05300
C22  23369872.47400 121693044.63100                                  23369867.11400  91708401.73700                                  23369863.18300 122809405.29200
C36  22495062.45200 117137649.27400                                  22495068.33100  88275669.07300  22495063.04100  95184055.24400  22495057.25200 118212251.77000
C39  26135901.16600 136096545.98000                                  26135890.46200 102562828.92200  26135884.33300 110589592.59200  26135895.71600 137345059.43410
> 2026 06 07 17 10 03.0000000  0 13
C01  38581275.82400 200902931.41800                                                                  38581271.60700 163249997.63900                                
C02  36969724.34000 192511006.09200                                                                  36969713.76200 156430956.58200                                
C03  37006922.73200 192704770.76000                                                                  37006913.83300 156588370.60400                                
C07                                                                                                  37173740.51500 157294267.58700                                
C08  38163341.74900 198726545.45200                                                                  38163335.58400 161481610.71900                                
C09  38851484.57800 202309850.65200  38851505.77000 156438843.88100                                  38851486.56100 164393365.01900                                
C10                                  37313924.43000 150247691.11500                                  37313923.12500 157887458.20500                                
C12  22983960.67100 119683586.40100                                                                  22983958.63400  97252623.63100                                
C19  22385171.71300 116565512.83000                                  22385169.55100  87844214.76500  22385165.74500  94718926.45800  22385169.64000 117634852.61800
C20  24811385.24800 129199462.00700                                  24811391.34100  97365195.85300  24811380.88800 104985014.20200  24811381.74600 130384802.38100
C22  23364884.17600 121667070.97000                                  23364877.72500  91688827.88800                                  23364876.92100 122783193.23800
C36  22493232.80700 117128116.48500                                  22493238.18500  88268485.09200  22493232.75300  95176309.03900  22493242.06300 118202751.72510
C39  26130151.61100 136066609.27300                                  26130148.57300 102540268.63400  26130139.13800 110565266.67400  26130155.63100 137314856.21900
> 2026 06 07 17 10 18.0000000  0 13
C01  38581251.59300 200902805.43900                                                                  38581247.34100 163249895.31800                                
C02  36969925.02700 192512051.09000                                                                  36969914.57400 156431805.75700                                
C03  37007071.40200 192705545.22500                                                                  37007062.57500 156588999.91800                                
C07                                                                                                  37173649.91900 157293875.76400                                
C08  38158485.12700 198701256.56200                                                                  38158479.40900 161461061.50500                                
C09  38857080.22600 202338980.60900  38857100.27500 156461369.07500                                                                                                
C10                                  37313839.44400 150247345.88900                                  37313837.51500 157887095.40600                                
C12  22991747.38400 119724131.45500                                                                  22991742.95200  97285569.81200                                
C19  22389112.40400 116586031.91300                                  22389109.08100  87859677.99100  22389107.31200  94735599.89600  22389109.95600 117655559.88700
C20  24820752.52900 129248242.04500                                  24820759.26600  97401956.72500  24820749.52700 105024651.96000  24820747.59800 130434029.91900
C22  23359914.97900 121641197.80400                                  23359908.65400  91669329.83200                                  23359909.31500 122757082.75000
C36                                                                  22491414.24100  88261329.94300  22491409.86300  95168593.90200  22491416.04500 118193170.02100
C39  26124408.07800 136036698.21900                                  26124404.64700 102517727.55800  26124397.12400 110540961.49000  26124410.31200 137284670.65400
> 2026 06 07 17 10 33.0000000  0 13
C01  38581223.91400 200902661.38500                                                                  38581219.55400 163249778.25500                                
C02  36970122.24800 192513078.12900                                                                  36970111.59800 156432640.31300                                
C03  37007216.69500 192706301.59700                                                                  37007207.86800 156589614.55600                                
C07                                                                                                  37173553.35500 157293457.60000                                
C08  38153628.80900 198675966.89900                                                                  38153623.46600 161440511.67900                                
C09  38862673.73100 202368100.55500  38862691.08200 156483886.54900                                                                                                
C10                                  37313747.54400 150246973.09800                                  37313745.11400 157886703.64900                                
C12  22999544.33600 119764728.71300                                                                  22999538.13500  97318558.36600                                
C19  22393071.71500 116606648.95900                                  22393068.64200  87875215.06300  22393063.79900  94752352.91600  22393069.14200 117676366.09200
C20  24830123.13400 129297038.73300                                  24830130.19300  97438730.14000  24830121.63300 105064303.27500  24830118.20300 130483274.32400
C22  23354962.95500 121615412.37100                                  23354956.86100  91649897.90500  23354944.87100  98822410.14810  23354957.77300 122731060.77200
C36  22489611.98900 117109355.77810                                  22489594.37000  88254193.75100  22489591.35000  95160899.20100  22489596.26400 118183613.69300
C39  26118666.51100 136006799.74000                                  26118660.38200 102495195.89800  26118655.82500 110516666.49200  26118668.33300 137254497.74600
> 2026 06 07 17 10 48.0000000  0 14
C01  38581196.96800 200902521.11700                                                                  38581192.64300 163249664.30700                                
C02  36970320.27200 192514109.09100                                                                  36970309.78300 156433478.08200                                
C03  37007362.73900 192707061.71200                                                                  37007353.98300 156590232.22100                                
C07  37173465.33200 193571993.59910                                                                  37173453.89600 157293030.72400                                
C08  38148776.36900 198650698.38900                                                                  38148771.22200 161419979.02100                                
C09  38868269.32600 202397232.42900  38868282.81700 156506413.16400                                                                                                
C10                                  37313652.76700 150246589.43900                                  37313649.92600 157886300.44800                                
C12  23007355.02800 119805399.60700                                                                  23007349.22100  97351606.74000                                
C19  22397053.93400 116627385.65600                                  22397051.84400  87890842.33400  22397046.28600  94769203.15800  22397051.82600 117697293.07900
C20  24839501.99500 129345873.59100                                  24839508.66000  97475532.27800  24839500.15400 105103985.60300  24839497.31300 130532557.27600
C22  23350032.76600 121589736.72800                                  23350025.42200  91630548.66800  23350016.75600  98801546.68800  23350027.92400 122705149.60700
C30  25248277.82000 131474393.73700                                  25248280.66200  99079674.80700  25248276.99900 106833728.68700  25248267.86700 132680552.56800
C36  22487796.53200 117099933.04200                                  22487784.59500  88247092.88900  22487781.59300  95153242.55600  22487783.29100 118174104.78300
C39  26112930.66200 135976935.48900                                  26112923.72800 102472690.13200  26112922.29900 110492399.41500  26112932.93100 137224359.60800
> 2026 06 07 17 11 03.0000000  0 14
C01  38581170.91500 200902385.51600                                                                  38581166.59000 163249554.08400                                
C02  36970519.20800 192515144.80400                                                                  36970508.84400 156434319.69800                                
C03  37007509.62200 192707826.44400                                                                  37007500.81300 156590853.67600                                
C07  37173356.56300 193571458.63300                                                                  37173351.75600 157292596.13600                                
C08  38143927.50200 198625452.03700                                                                  38143922.91000 161399464.31100                                
C09  38873866.38700 202426376.86400  38873876.89300 156528949.49400                                                                                                
C10                                  37313555.45200 150246195.71800                                  37313551.98600 157885886.70500                                
C12  23015179.62300 119846144.83800                                                                  23015174.72700  97384715.49500                                
C19  22401059.79400 116648242.76200                                  22401058.06100  87906560.33900  22401052.50300  94786151.27200  22401056.23800 117718341.48100
C20  24848888.43200 129394747.32000                                  24848882.58900  97512363.58800  24848885.00100 105143699.47300  24848883.19600 130581879.38000
C22                                                                  23345114.46100  91611283.13800  23345109.31400  98780773.29100  23345121.41200 122679350.15700
C30  25241277.93500 131437945.36700                                  25241280.06100  99052207.24800  25241276.48700 106804111.45700  25241268.58900 132643769.91500
C36  22485992.29700 117090558.16500                                  22485984.52300  88240027.89800  22485981.45000  95145624.63900  22485984.63100 118164643.81000
C39                                                                  26107194.65200 102450210.93400  26107196.63500 110468160.94200  26107205.19400 137194257.03800
> 2026 06 07 17 11 18.0000000  0 14
C01  38581145.84500 200902254.97700                                                                  38581141.50200 163249448.03500                                
C02  36970719.18000 192516185.72300                                                                  36970708.78000 156435165.55100                                
C03  37007657.50600 192708596.19500                                                                  37007648.55400 156591479.15200                                
C07  37173252.58300 193570914.49300                                                                  37173247.25800 157292153.93800                                
C08  38139082.87000 198600228.21500                                                                  38139079.10000 161378967.95100                                
C09  38879464.10800 202455534.11900  38879473.84700 156551495.84600                                  38879475.29400 164511776.39510                                
C10                                  37313455.58200 150245792.26100                                  37313451.49000 157885462.75200                                
C12  23023017.72700 119886964.43500                                                                  23023012.59900  97417884.70800                                
C19  22405089.25900 116669220.56900                                  22405087.16800  87922369.26700  22405080.52100  94803197.41100  22405084.45200 117739511.74200
C20  24858281.64100 129443659.98800                                  24858281.10500  97549224.08500  24858276.97700 105183444.98400  24858276.90600 130631240.76100
C22                                                                  23340224.19200  91592101.45700  23340222.26200  98760090.50300                                
C30  25234278.74500 131401500.34000                                  25234280.51400  99024742.20000  25234277.81600 106774496.94700  25234269.66800 132606990.49800
C36  22484199.64000 117081231.24900                                  22484195.08400  88232999.02300  22484190.13400  95138045.66400                                
C39                                                                  26101473.29400 102427758.57300  26101474.52700 110443951.41800  26101481.53200 137164190.41300
> 2026 06 07 17 11 33.0000000  0 15
C01  38581122.27500 200902132.63600                                                                  38581118.11200 163249348.62000                                
C02  36970920.74300 192517234.91100                                                                  36970910.43200 156436018.14900                                
C03  37007806.90900 192709374.05600                                                                  37007798.04600 156592111.26100                                
C07  37173147.67400 193570364.22900                                                                  37173141.13400 157291706.82900                                
C08  38134243.67100 198575030.10900                                                                  38134240.61500 161358492.50100                                
C09  38885065.18900 202484707.42200  38885074.55200 156574054.52900                                  38885079.80600 164535482.06300                                
C10  37313350.13700 194300418.94610  37313353.72900 150245381.43300                                  37313349.15400 157885030.99300                                
C12  23030870.35900 119927861.24000                                                                  23030864.42600  97451116.69200                                
C19  22409141.61400 116690321.92800                                  22409139.27300  87938271.34600  22409132.84000  94820343.97900  22409136.23500 117760806.68800
C20  24867682.46300 129492614.35300                                  24867688.48400  97586116.24700  24867677.26300 105223224.39000  24867679.19300 130680644.26000
C22  23335362.63800 121513389.87810                                                                  23335356.45500  98739500.93000                                
C27  25275052.21100 131613826.25110                                                                                                                                
C30  25227280.66400 131365062.06200                                  25227282.16500  98997282.23300  25227281.59300 106744887.91600  25227271.96200 132570217.97100
C36  22482417.68800 117071955.22800                                  22482415.04300  88226008.53100  22482408.37800  95130508.09700  22482409.12900 118145920.51210
C39  26095808.36700 135887712.00010                                  26095759.28100 102405335.26600  26095756.70800 110419773.26500  26095766.44700 137134162.73600
> 2026 06 07 17 11 48.0000000  0 14
C01  38581098.08100 200902006.85400                                                                  38581094.00600 163249246.47600                                
C02  36971121.66200 192518280.83600                                                                  36971111.37000 156436868.03000                                
C03  37007955.70500 192710148.58500                                                                  37007946.78800 156592740.56500                                
C07  37173039.31700 193569796.37900                                                                  37173031.54400 157291245.30800                                
C08  38129407.49100 198549846.24500                                                                  38129404.95400 161338028.60300                                
C09  38890667.39600 202513884.96800  38890676.47300 156596616.47800                                  38890685.15800 164559191.29900                                
C10  37313245.15700 194299866.58300  37313247.65800 150244954.30400                                  37313242.97600 157884582.14300                                
C12  23038736.87500 119968823.45500                                                                  23038732.24600  97484401.81700                                
C19  22413214.91100 116711535.11600                                  22413211.96300  87954257.72900  22413206.88800  94837581.45100  22413209.71100 117782214.54600
C20  24877089.50300 129541598.65600                                  24877095.64900  97623030.97800  24877084.05200 105263028.11600  24877083.28400 130730077.91600
C22  23330516.75500 121488154.92100                                                                  23330509.62600  98718995.42800  23330515.77300 122602741.82910
C30  25220281.49300 131328619.24900                                  25220283.28000  98969818.86100  25220284.78100 106715275.18000  25220275.16700 132533440.75800
C36                                                                  22480640.41700  88219047.68500  22480635.80700  95123002.43000  22480634.82400 118136598.99900
C39  26090055.90000 135857746.06810                                  26090051.75400 102382932.38900  26090047.10800 110395617.19700  26090059.83100 137104162.44100
> 2026 06 07 17 12 03.0000000  0 14
C01  38581073.33200 200901878.18500                                                                  38581069.18600 163249141.88400                                
C02  36971322.02700 192519323.88900                                                                  36971311.78900 156437715.63600                                
C03  37008103.96400 192710919.96100                                                                  37008095.01100 156593367.42400                                
C07                                                                                                  37172917.98600 157290769.84800                                
C08  38124574.15300 198524677.18100                                                                  38124571.91900 161317576.70500                                
C09  38896270.90700 202543067.00300  38896279.35900 156619181.89000                                  38896289.15100 164582904.13400                                
C10  37313135.45900 194299293.53100  37313137.56700 150244511.24700                                  37313132.99300 157884116.53800                                
C12  23046616.68500 120009851.34500                                                                  23046613.75400  97517740.30000                                
C19  22417310.22300 116732860.48900                                  22417307.13200  87970328.61900  22417302.82500  94854910.07100  22417304.98700 117803735.58800
C20  24886502.52900 129590613.03100                                  24886507.62100  97659968.39500  24886497.59700 105302856.26600  24886496.75700 130779541.95000
C22  23325690.67200 121463023.96700                                  23325684.40000  91534991.42810  23325682.47000  98698574.53500  23325690.81500 122577380.34800
C30  25213281.85700 131292172.58200                                  25213284.19800  98942352.58800  25213285.82400 106685659.29400  25213276.35400 132496659.68300
C36  22478868.14900 117053360.77910                                  22478871.58000  88212116.74300  22478871.06200  95115528.95800  22478868.09600 118127317.53000
C39                                                                  26084349.35600 102360550.09500  26084345.60400 110371483.32600  26084357.98700 137074189.86100
> 2026 06 07 17 12 18.0000000  0 14
C01  38581045.65300 200901734.01200                                                                  38581041.50700 163249024.77400                                
C02  36971519.46200 192520351.62000                                                                  36971509.20600 156438550.76400                                
C03  37008249.34600 192711675.84800                                                                  37008240.16200 156593981.67700                                
C07                                                                                                  37172798.49600 157290270.22600                                
C08  38119741.27900 198499510.38900                                                                  38119739.01000 161297126.68900                                
C09  38901872.61300 202572241.15600  38901880.69000 156641741.14400                                  38901891.53700 164606610.54600                                
C10  37313019.93500 194298687.35100  37313021.04300 150244042.51700                                  37313017.13000 157883623.97900                                
C12  23054505.96600 120050931.93200                                                                  23054504.08900  97551121.64500                                
C19  22421425.17300 116754285.37800                                  22421421.68900  87986474.45300  22421417.15000  94872319.50500  22421420.22300 117825357.02100
C20  24895918.95000 129639644.62400                                  24895923.27400  97696918.77800  24895914.35700 105342698.41100  24895912.91000 130829023.34700
C22  23320882.69000 121437984.79700                                  23320875.18500  91516121.95200  23320873.16500  98678228.21000  23320882.90400 122552111.42000
C30  25206279.52300 131255709.73700                                  25206282.50700  98914874.14900  25206283.04300 106656030.32600  25206274.41300 132459862.35100
C36  22477108.06800 117044190.63600                                  22477108.14000  88205206.09800  22477109.21200  95108077.44900  22477106.72800 118118063.30000
C39                                                                  26078648.83400 102338178.90000  26078639.89900 110347361.41000  26078657.48300 137044232.07700
> 2026 06 07 17 12 33.0000000  0 14
C01  38581025.56800 200901629.47500                                                                  38581021.51200 163248939.86400                                
C02  36971724.49100 192521419.00800                                                                  36971714.21700 156439418.10400                                
C03  37008402.32300 192712471.34500                                                                  37008392.99500 156594628.09200                                
C07                                                                                                  37172684.15200 157289791.28100                                
C08  38114919.48400 198474401.10100                                                                  38114916.58900 161276723.40200                                
C09                                  38907490.83100 156664336.84700                                  38907502.69600 164630355.18600                                
C10  37312908.71900 194298103.15300  37312908.89700 150243590.77600                                  37312905.53800 157883149.28500                                
C12  23062415.65300 120092120.13300                                                                  23062414.17000  97584590.49400                                
C19  22425568.85700 116775864.64900                                  22425565.55100  88002736.64700  22425560.44000  94889854.40200  22425565.72900 117847134.26100
C20  24905348.91600 129688748.29700                                  24905352.97200  97733923.50700  24905343.89400 105382599.16000  24905341.58900 130878577.46600
C22  23316103.35100 121413092.69600                                  23316094.23800  91497363.22800  23316092.48700  98658001.37000  23316102.70800 122526991.01500
C30  25199284.98000 131219286.19800                                  25199289.10800  98887425.36000  25199287.76800 106626433.28300  25199279.83400 132423104.66700
C36  22475361.78200 117035102.53800                                  22475362.58700  88198357.30200  22475362.78300  95100692.62300  22475360.65700 118108891.85200
C39                                                                  26072960.73100 102315860.66200  26072955.29900 110323296.69300  26072970.82700 137014345.18700
> 2026 06 07 17 12 48.0000000  0 14
C01  38581002.67800 200901510.26800                                                                  38580998.47900 163248842.98000                                
C02  36971926.73300 192522471.80700                                                                  36971916.40500 156440273.63900                                
C03  37008552.45800 192713252.05800                                                                  37008542.95200 156595262.51900                                
C07                                                                                                  37172564.85800 157289288.76800                                
C08  38110098.10000 198449295.05400                                                                  38110094.43700 161256322.73200                                
C09  38913089.62500 202630650.84410  38913099.70300 156686926.70500                                  38913112.08600 164654093.74900                                
C10  37312791.10500 194297486.61500  37312790.67600 150243114.04800                                  37312787.94200 157882648.32600                                
C12  23070335.82900 120133361.37200                                                                  23070334.04200  97618102.39000                                
C19  22429731.74900 116797543.78200                                  22429729.17600  88019074.11300  22429723.19000  94907470.48300  22429726.40600 117869012.21100
C20  24914782.00900 129737869.38700                                  24914785.97600  97770941.36100  24914776.68400 105422514.09800  24914775.70100 130928149.26700
C22  23311341.77500 121388293.55000                                  23311363.46800  91478796.01310  23311329.73100  98637850.08000  23311339.41600 122501964.29000
C30  25192287.66700 131182847.95900                                  25192290.79400  98859965.38500  25192290.29400 106596824.27400  25192283.18200 132386332.07500
C36  22473620.89300 117026042.03500                                  22473625.86000  88191529.34400  22473623.14400  95093330.18900  22473618.58800 118099748.18400
C39                                                                  26067276.38000 102293554.09500  26067270.01900 110299244.46600                                
> 2026 06 07 17 13 03.0000000  0 14
C01  38580979.55500 200901390.03200                                                                  38580975.41000 163248745.29200                                
C02  36972128.83200 192523523.76900                                                                  36972118.57500 156441128.42800                                
C03  37008702.30800 192714031.75400                                                                  37008692.67700 156595896.08300                                
C07                                                                                                  37172443.67100 157288774.06700                                
C08  38105279.87900 198424205.99800                                                                  38105275.91200 161235935.88500                                
C09  38918695.56600 202659870.82000  38918709.79000 156709521.32700                                  38918722.67300 164677837.38900                                
C10  37312669.61300 194296851.43300  37312668.97000 150242622.89400                                  37312666.48600 157882132.18600                                
C12  23078269.42500 120174669.09700                                                                  23078266.85200  97651668.28900                                
C19  22433917.01400 116819336.45400                                  22433914.74400  88035497.10900  22433908.61500  94925178.75800  22433911.58200 117891004.83100
C20  24924221.46300 129787021.44000                                  24924225.09000  97807982.54500  24924216.12000 105462454.14300  24924216.51300 130977752.28500
C22  23306600.49800 121363601.32400                                  23306617.99200  91460188.03400  23306587.34600  98617785.63000  23306597.06700 122477045.54100
C30  25185290.05100 131146409.01800                                  25185292.40900  98832505.00200  25185290.67600 106567214.74400  25185285.11900 132349558.85600
C36  22471888.34800 117017022.71200                                  22471894.24500  88184732.31100  22471891.35000  95086001.22700  22471883.70200 118090646.12100
C39  26061610.05900 135709722.52800                                  26061600.83900 102271269.50500  26061593.45900 110275215.98200                                
> 2026 06 07 17 13 18.0000000  0 14
C01  38580955.71800 200901266.38100                                                                  38580951.57200 163248644.84200                                
C02  36972330.28700 192524572.39000                                                                  36972319.99500 156441980.53300                                
C03  37008851.62200 192714807.97500                                                                  37008841.75800 156596526.78400                                
C07                                                                                                  37172319.33800 157288245.06800                                
C08  38100464.49900 198399131.58000                                                                  38100460.69300 161215560.93200                                
C09  38924351.70100 202689318.63110  38924321.23500 156732118.84700                                  38924334.99400 164701583.97800                                
C10  37312543.74400 194296195.20400  37312543.11800 150242115.46300                                  37312540.86700 157881598.96300                                
C12  23086215.28000 120216040.58700                                                                  23086211.67000  97685285.96600                                
C19  22438122.84600 116841239.94700                                  22438121.18400  88052003.64100  22438115.78800  94942977.11900  22438117.34200 117913109.25900
C20  24933666.24200 129836201.70900                                  24933669.70900  97845045.00900  24933661.41800 105502417.09900  24933661.29300 131027383.74700
C22  23301879.07300 121339013.72500                                  23301891.63500  91441658.60900  23301865.04600  98597806.19200  23301874.94500 122452232.35300
C30  25178291.70100 131109967.25100                                  25178294.73900  98805042.42500  25178290.57600 106537602.88500  25178286.71600 132312782.72000
C36  22470163.57600 117008042.01600                                  22470170.40200  88177964.42300  22470166.23900  95078703.71800  22470157.53700 118081583.01800
C39  26055936.21600 135680178.87300                                  26055933.39200 102249005.09900  26055920.33000 110251209.29600                                
> 2026 06 07 17 13 33.0000000  0 14
C01  38580930.46900 200901135.00800                                                                  38580926.44900 163248538.11900                                
C02  36972530.33100 192525613.38700                                                                  36972520.19900 156442826.45600                                
C03  37008999.41600 192715576.40900                                                                  37008989.32000 156597151.23200                                
C07                                                                                                  37172191.12800 157287698.30100                                
C08  38095650.92300 198374067.58900                                                                  38095647.83200 161195194.42200                                
C09  38929979.62200 202718586.62000  38929933.25100 156754715.81000                                  38929950.35200 164725356.97410                                
C10  37312412.90700 194295513.57300  37312412.28100 150241588.42700                                  37312409.99400 157881045.06700                                
C12  23094172.15900 120257471.23500                                                                  23094166.13700  97718951.71100                                
C19  22442348.81600 116863249.76900                                  22442348.95900  88068590.37700  22442342.43700  94960861.93100  22442340.20300 117935320.94800
C20  24943114.56000 129885405.52300                                  24943119.27700  97882125.20700  24943110.46800 105542399.21400  24943110.27100 131077038.96300
C22  23297176.80400 121314526.58300                                  23297185.20200  91423205.19100  23297161.66900  98577908.42100  23297171.97900 122427520.62600
C30  25171291.61900 131073518.62200                                  25171296.05000  98777574.68400  25171291.02900 106507985.42800  25171286.07900 132275999.68700
C36  22468445.05900 116999095.56700                                  22468452.85000  88171222.36200  22468445.95200  95071434.07400  22468439.60900 118072554.47800
C39  26050265.92800 135650657.75400                                  26050270.27000 102226757.64500  26050251.52600 110227220.83300  26050266.12500 136895022.03310
> 2026 06 07 17 13 48.0000000  0 14
C01  38580903.25500 200900993.63500                                                                  38580899.28800 163248423.21600                                
C02  36972728.40900 192526644.41300                                                                  36972718.33100 156443664.28500                                
C03  37009145.22800 192716334.73800                                                                  37009135.04200 156597767.43500                                
C07                                                                                                  37172058.28900 157287131.93500                                
C08  38090838.86700 198349011.74500                                                                  38090836.41900 161174834.53000                                
C09  38935592.94300 202747806.66000  38935544.94700 156777310.43700                                                                                                
C10  37312276.78100 194294804.29800  37312276.08400 150241039.96400                                  37312273.76100 157880468.74200                                
C12  23102139.45600 120298958.46300                                                                  23102131.64700  97752663.44000                                
C19  22446595.85400 116885363.55600                                  22446596.67600  88085255.43400  22446589.01000  94978831.19800  22446587.40200 117957637.63600
C20  24952566.77200 129934630.34600                                  24952572.72300  97919221.24000  24952562.98400 105582398.39000  24952564.73500 131126715.41000
C22  23292494.24400 121290137.87800                                  23292499.08700  91404825.77000  23292477.57200  98558090.60800  23292489.33000 122402908.18100
C30  25164290.17800 131037061.15000                                  25164295.07400  98750100.24200  25164290.33900 106478360.75000  25164283.35200 132239207.69600
C36  22466732.56300 116990180.94400                                  22466740.40800  88164504.29300  22466733.29600  95064190.29700  22466728.68600 118063558.06000
C39  26044599.41100 135621156.84100                                  26044605.80800 102204525.35000  26044588.38500 110203248.74000  26044600.42900 136865250.40800
> 2026 06 07 17 14 03.0000000  0 14
C01  38580878.07700 200900862.73300                                                                  38580873.93200 163248316.85000                                
C02  36972928.52400 192527686.07600                                                                  36972918.32100 156444510.70200                                
C03  37009293.05800 192717103.46600                                                                  37009282.76500 156598392.14500                                
C07                                                                                                  37171924.50400 157286562.66500                                
C08  38086032.60000 198323984.67700                                                                  38086030.33100 161154498.01800                                
C09  38941162.89600 202776918.65910  38941159.96600 156799918.36300                                                                                                
C10  37312139.42100 194294087.93300  37312138.52800 150240486.02100                                  37312135.99100 157879886.62500                                
C12  23110121.01200 120340522.49100                                                                  23110115.00800  97786437.57900                                
C19  22450866.56800 116907601.66400                                  22450866.74700  88102014.16800  22450859.58200  94996901.46100  22450858.22400 117980079.77000
C20  24962027.38400 129983896.36800                                  24962033.78100  97956348.33800  24962024.20300 105622431.08300  24962025.93600 131176433.47000
C22  23287835.43300 121265868.20600                                  23287836.68300  91386536.14600  23287819.38600  98538369.54500  23287829.82200 122378416.08900
C30  25157291.11400 131000615.66700                                  25157296.77900  98722634.83200  25157291.13200 106448745.87600  25157282.85900 132202427.83300
C36  22465031.07500 116981318.62000                                  22465038.40100  88157825.65000  22465032.29000  95056988.95400  22465027.85800 118054614.46600
C39  26038940.95200 135591696.48500                                                                  26038929.96300 110179309.75300  26038941.43500 136835519.71500
> 2026 06 07 17 14 18.0000000  0 14
C01  38580853.72200 200900735.90500                                                                  38580849.75500 163248213.80800                                
C02  36973129.42600 192528731.86500                                                                  36973119.45500 156445360.55000                                
C03  37009441.69300 192717876.26100                                                                  37009431.09600 156599020.09600                                
C07                                                                                                  37171788.75300 157285985.30500                                
C08  38081230.85400 198298979.99000                                                                  38081228.29900 161134179.71100                                
C09  38946775.30600 202805989.53010  38946776.80700 156822534.63100                                                                                                
C10  37311999.47100 194293357.99000  37311998.41700 150239921.61100                                  37311995.55800 157879293.52900                                
C12  23118115.91700 120382156.70600                                                                  23118111.89700  97820268.76800                                
C19  22455158.99400 116929957.38500                                  22455157.35000  88118861.54200  22455153.40100  95015067.34900  22455151.97100 118002640.63400
C20  24971495.71400 130033196.97000                                  24971501.43200  97993501.47200  24971493.19500 105662491.85400  24971494.35600 131226186.37100
C22  23283197.86700 121241711.56200                                  23283196.77700  91368331.73400  23283183.14300  98518740.37000  23283191.95300 122354037.86500
C30  25150293.12200 130964175.99300                                  25150300.00200  98695173.80300  25150293.15800 106419135.72700  25150283.08000 132165653.84500
C36  22463338.32400 116972502.05600                                  22463346.34800  88151181.45300  22463340.00400  95049824.75300  22463334.87600 118045717.01900
C39  26033289.05200 135562270.42700                                  26033279.51000 102160182.68810  26033276.11500 110155398.50200  26033287.55100 136805823.54600
> 2026 06 07 17 14 33.0000000  0 14
C01  38580827.91900 200900601.69100                                                                  38580823.97000 163248104.79100                                
C02  36973328.95100 192529770.32900                                                                  36973318.96200 156446204.38500                                
C03  37009588.95100 192718641.59000                                                                  37009577.98000 156599642.00900                                
C07                                                                                                  37171648.78500 157285390.53800                                
C08  38076431.43100 198273986.30900                                                                  38076428.42900 161113870.32600                                
C09  38952397.31200 202835236.63000  38952393.77400 156845150.34600                                  38952388.94900 164820304.43300                                
C10  37311854.80400 194292603.08600  37311853.58800 150239337.86700                                  37311850.28300 157878680.06700                                
C12  23126122.34700 120423849.28600                                                                  23126118.29100  97854147.34100                                
C19  22459472.32600 116952419.17100                                  22459467.85800  88135788.81800  22459467.42900  95033319.41100  22459465.75000 118025308.50800
C20  24980968.40500 130082520.38300                                  24980973.21200  98030671.76800  24980966.70800 105702571.13400  24980967.72600 131275962.28400
C22  23278579.58200 121217656.55600                                  23278576.54500  91350203.73200  23278564.69800  98499193.76400  23278573.82900 122329762.23000
C30  25143294.39800 130927730.95500                                  25143301.40300  98667708.76100  25143294.43400 106389521.20000  25143285.74900 132128874.54900
C36  22461651.75700 116963719.68400                                  22461659.61900  88144563.03800  22461653.43600  95042688.34000  22461648.82600 118036854.07500
C39  26027641.94000 135532866.91500                                  26027633.61300 102138024.00800  26027628.48500 110131505.66000  26027641.49300 136776150.36000
> 2026 06 07 17 14 48.0000000  0 14
C01  38580800.84700 200900460.68200                                                                  38580796.86200 163247990.18500                                
C02  36973527.15400 192530802.14000                                                                  36973517.25500 156447042.79300                                
C03  37009734.83400 192719400.07600                                                                  37009723.61200 156600258.34100                                
C07  37171513.10500 193561819.54110                                                                  37171504.68900 157284778.89600                                
C08  38071634.29500 198249004.36100                                                                  38071630.70400 161093570.48200                                
C09  38958013.47400 202864483.51200  38958010.74000 156867765.80000                                  38958005.95100 164844069.81600                                
C10  37311705.22200 194291823.81200  37311704.23900 150238735.29900                                  37311700.43300 157878046.83400                                
C12  23134140.44600 120465600.61800                                                                  23134135.65700  97888073.68000                                
C19  22463806.70700 116974987.50900                                  22463804.86700  88152796.30700  22463800.20300  95051657.99000  22463800.25700 118048083.88600
C20  24990444.97300 130131866.90800                                  24990448.81500  98067859.49400  24990443.79400 105742669.21800  24990440.11300 131325761.45000
C22                                                                  23273975.75400  91332153.20600  23273965.35400  98479730.50600  23273974.59200 122305590.00700
C30  25136294.67300 130891281.54300                                  25136301.21300  98640240.42400  25136295.44100 106359903.12500  25136288.54400 132092090.67400
C36  22459971.90800 116954971.96800                                  22459979.39500  88137970.78300  22459972.69400  95035580.16500  22459968.85200 118028026.11800
C39  26021998.74200 135503486.65400                                  26021995.91900 102115882.75500  26021988.86000 110107631.84300  26022001.02900 136746500.63700
> 2026 06 07 17 15 03.0000000  0 14
C01  38580772.93600 200900315.45900                                                                  38580769.13000 163247872.29300                                
C02  36973724.62500 192531829.86000                                                                  36973714.54700 156447877.93500                                
C03  37009879.80500 192720154.28800                                                                  37009868.45800 156600871.23100                                
C07  37171365.70400 193561048.73500                                                                  37171356.78700 157284152.51700                                
C08  38066839.76800 198224036.76200                                                                  38066835.33700 161073282.30800                                
C09  38963629.67200 202893732.62900  38963628.20700 156890383.06600                                  38963623.23900 164867837.13200                                
C10  37311551.17300 194291022.74100  37311550.74400 150238115.85800                                  37311546.50900 157877395.94600                                
C12  23142170.37400 120507413.03600                                                                  23142164.78100  97922049.61700                                
C19  22468161.67400 116997664.72800                                  22468162.63900  88169885.96600  22468154.56200  95070085.07400  22468155.56300 118070969.13600
C20  24999926.13400 130181238.85500                                  24999928.01000  98105066.40300  24999924.59700 105782788.01400  24999921.13100 131375586.33900
C22                                                                  23269394.54700  91314181.81300  23269386.77400  98460352.65100  23269394.94000 122281523.97900
C30  25129294.39400 130854830.55000                                  25129300.04000  98612770.91400  25129295.75200 106330283.72800  25129286.53100 132055305.33000
C36  22458298.93800 116946261.46700                                  22458306.26500  88131406.54400  22458300.36800  95028502.23100  22458295.00700 118019235.70500
C39  26016360.01100 135474132.24900                                  26016352.72000 102093761.07400  26016356.49100 110083778.88800  26016365.87200 136716876.95200
> 2026 06 07 17 15 18.0000000  0 14
C01  38580748.34800 200900187.61000                                                                  38580744.50600 163247768.32500                                
C02  36973925.38300 192532874.96800                                                                  36973915.32300 156448727.21600                                
C03  37010028.15400 192720925.81600                                                                  37010016.64600 156601498.14900                                
C07  37171218.44500 193560281.31000                                                                  37171209.10000 157283528.89800                                
C08  38062052.03200 198199105.13900                                                                  38062046.63500 161053023.36700                                
C09  38969250.30200 202923005.41600  38969250.14100 156913018.58600                                  38969244.74500 164891623.63600                                
C10  37311396.99900 194290221.44300  37311397.16000 150237496.24600                                  37311392.42500 157876744.75900                                
C12  23150215.20500 120549307.66600                                                                  23150209.70100  97956092.42200                                
C19  22472542.19400 117020472.21300                                  22472542.40800  88187073.79100  22472535.11700  95088618.03100  22472536.47500 118093985.89000
C20  25009416.89000 130230657.49800                                  25009415.87200  98142308.44700  25009413.87000 105822944.70200  25009412.51200 131425458.38100
C22                                                                  23264838.23200  91296306.18500  23264832.38900  98441078.00200  23264839.93000 122257586.16900
C30  25122298.02800 130818399.85600                                  25122303.38900  98585316.70400  25122298.60000 106300680.88500  25122290.48700 132018540.40900
C36  22456637.35100 116937609.55900                                  22456644.66000  88124886.44900  22456639.71000  95021471.92400  22456633.15200 118010504.39200
C39  26010731.80500 135444825.13800                                  26010724.58600 102071674.96300  26010727.03400 110059964.35100  26010738.27300 136687300.99000
> 2026 06 07 17 15 33.0000000  0 14
C01  38580725.13600 200900066.87300                                                                  38580721.40200 163247670.20800                                
C02  36974127.62500 192533927.29900                                                                  36974117.65400 156449582.29300                                
C03  37010177.86100 192721704.29600                                                                  37010166.08500 156602130.77300                                
C07  37171069.54300 193559507.07200                                                                  37171059.62500 157282899.73000                                
C08  38057269.06600 198174199.33300                                                                  38057263.25900 161032785.43500                                
C09  38974873.70100 202952291.58800  38974874.64800 156935664.48900                                  38974868.82300 164915421.06600                                
C10  37311241.00300 194289409.66000  37311241.44900 150236868.54600                                  37311236.48200 157876085.16000                                
C12  23158272.63300 120591274.01900                                                                  23158268.72000  97990193.56600                                
C19  22476945.44200 117043399.58200                                  22476943.78100  88204351.92800  22476937.72300  95107248.37200  22476939.61700 118117123.57000
C20  25018914.91900 130280112.26100                                  25018913.16800  98179577.75500  25018909.93400 105863130.75300  25018910.59500 131475366.90800
C22  23260316.02900 121122571.49910                                  23260304.55700  91278518.61800  23260300.28700  98421898.33900  23260309.52500 122233766.37400
C30  25115303.71700 130781979.53900                                  25115309.00600  98557870.28200  25115301.84100 106271086.51000  25115296.90900 131981785.97600
C36  22454985.07400 116929005.93600                                  22454991.95400  88118402.75400  22454988.54100  95014480.81200  22454981.26800 118001821.80200
C39  26005112.22900 135415554.94200                                  26005107.02900 102049616.71800  26005105.04600 110036179.84400  26005116.37500 136657762.31200
> 2026 06 07 17 15 48.0000000  0 14
C01  38580699.26200 200899932.22900                                                                  38580695.33100 163247560.85700                                
C02  36974327.13300 192534965.76100                                                                  36974317.48300 156450426.14200                                
C03  37010324.85100 192722468.82500                                                                  37010312.89700 156602752.04100                                
C07  37170915.11900 193558705.00700                                                                  37170905.11200 157282247.95100                                
C08  38052486.92200 198149298.40400                                                                  38052481.58000 161012551.42800                                
C09  38980495.72500 202981569.96600  38980497.83300 156958304.39800                                  38980491.47200 164939212.16300                                
C10  37311079.09100 194288566.38300  37311079.57400 150236216.49600                                  37311074.30300 157875399.96300                                
C12  23166341.05100 120633290.92600                                                                  23166337.72700  98024335.74500                                
C19  22481367.15000 117066425.58000                                  22481365.64900  88221704.42100  22481358.51900  95125958.86800  22481361.32500 118140360.84500
C20  25028415.68200 130329581.90000                                  25028415.71800  98216858.23600  25028409.05300 105903328.85400  25028409.75000 131525290.37600
C22  23255801.93900 121099064.28900                                  23255789.73400  91260803.49200  23255786.16100  98402796.82100  23255797.04300 122210043.45100
C30  25108307.72700 130745548.89200                                  25108312.78300  98530416.08700  25108308.15500 106241483.74300  25108301.24000 131945021.09000
C36  22453337.80100 116920429.46700                                  22453344.35900  88111939.53000  22453341.42800  95007511.76100  22453334.53100 117993166.62300
C39  25999495.56600 135386300.79400                                  25999490.24200 102027570.49600  25999486.34600 110012408.36900  25999495.29800 136628239.87100
> 2026 06 07 17 16 03.0000000  0 14
C01  38580675.31700 200899807.64000                                                                  38580671.29700 163247459.62500                                
C02  36974528.62400 192536014.39000                                                                  36974518.84900 156451278.28200                                
C03  37010473.70000 192723243.41700                                                                  37010461.60300 156603381.46100                                
C07  37170759.98000 193557899.20800                                                                  37170750.77700 157281593.14600                                
C08  38047710.55100 198124426.35200                                                                  38047706.01200 160992340.92700                                
C09  38986121.23300 203010864.38400  38986124.25300 156980956.72700                                  38986117.28400 164963016.38600                                
C10  37310915.67900 194287715.63600  37310916.12600 150235558.65100                                  37310910.46100 157874708.62600                                
C12  23174424.60400 120675382.02200                                                                  23174421.26200  98058538.21300                                
C19  22485812.55200 117089574.06500                                  22485811.83700  88239149.17500  22485804.27900  95144768.87900  22485807.90600 118163721.76900
C20  25037922.98500 130379090.12000                                  25037925.57600  98254167.82100  25037915.49800 105943558.29600  25037916.49900 131575252.81500
C22  23251310.54200 121075677.31400                                  23251297.83700  91243179.03400  23251294.21000  98383793.01000  23251307.36100 122186441.99300
C30  25101314.13000 130709132.17200                                  25101319.86600  98502972.40400  25101317.18600 106211892.29100  25101308.30500 131908270.25500
C36  22451700.89100 116911904.01100                                  22451707.14500  88105514.79000  22451701.99900  95000584.18500  22451697.72800 117984562.95500
C39  25993886.58700 135357086.59300                                  25993881.60200 102005554.42000  25993872.81000 109988669.30300  25993884.65800 136598757.62700
> 2026 06 07 17 16 18.0000000  0 14
C01  38580652.24800 200899687.55200                                                                  38580648.38900 163247362.05100                                
C02  36974730.99000 192537067.63200                                                                  36974721.27000 156452134.16900                                
C03  37010623.37100 192724022.39200                                                                  37010611.20200 156604014.47400                                
C07  37170602.87500 193557084.03500                                                                  37170594.88800 157280930.73600                                
C08  38042938.80700 198099577.76600                                                                  38042934.80400 160972149.45500                                
C09  38991748.77800 203040169.39200  38991752.92300 157003617.24200                                  38991745.65100 164986829.06800                                
C10  37310749.73000 194286851.88800  37310750.15800 150234890.74200                                  37310743.97600 157874006.80500                                
C12  23182521.91600 120717541.53800                                                                  23182517.94900  98092796.24000                                
C19  22490280.91600 117112839.33200                                  22490280.07600  88256681.93600  22490274.09000  95163673.78900  22490274.03600 118187200.37000
C20  25047436.39900 130428631.04300                                  25047440.77700  98291502.04700  25047428.66200 105983814.29700  25047430.98500 131625248.24500
C22  23246841.17800 121052405.31600                                  23246828.50900  91225641.14900  23246824.11300  98364882.62400  23246840.73100 122162956.49100
C30  25094321.60700 130672724.16100                                  25094328.98600  98475535.20100  25094328.61100 106182307.83300  25094317.49700 131871528.16100
C36  22450072.66600 116903423.98400                                  22450078.86600  88099124.24300  22450072.39800  94993693.47900  22450068.84200 117976005.16800
C39  25988283.29100 135327906.87500                                  25988277.89400 101983564.10700  25988268.24500 109964958.14200  25988281.25400 136569309.93200
> 2026 06 07 17 16 33.0000000  0 14
C01  38580625.64200 200899549.14200                                                                  38580621.90700 163247249.56500                                
C02  36974929.76500 192538102.58300                                                                  36974920.31300 156452975.12100                                
C03  37010769.48600 192724782.98100                                                                  37010757.22800 156604632.51700                                
C07  37170439.05200 193556236.68400                                                                  37170432.58300 157280242.20600                                
C08  38038166.92000 198074729.78200                                                                  38038162.97100 160951958.46100                                
C09  38997373.57100 203069461.95800  38997379.03900 157026268.11900                                  38997372.32000 165010631.62500                                
C10  37310577.06100 194285952.25600  37310577.25800 150234195.09600                                  37310570.59300 157873275.76100                                
C12  23190627.19700 120759746.21800                                                                  23190622.71200  98127090.96400                                
C19  22494767.38100 117136198.30100                                  22494767.11300  88274285.32000  22494759.34000  95182654.81100  22494759.41100 118210773.57700
C20  25056951.76100 130478181.53000                                  25056957.15800  98328843.50100  25056945.40000 106024078.12900  25056945.59700 131675253.30300
C22  23242389.59300 121029225.59800                                  23242376.72800  91208172.77800  23242371.18800  98346047.20000  23242409.41000 122139670.93210
C30  25087326.76000 130636302.23700                                  25087334.33600  98448087.56300  25087336.74800 106152712.07200  25087323.06100 131834772.03800
C36  22448447.72800 116894966.42500                                  22448454.08900  88092750.58900  22448448.76400  94986820.98400  22448443.72500 117967469.96900
C39  25982682.83500 135298738.31400                                  25982675.47300 101961582.42000  25982670.22000 109941256.25400  25982678.95800 136539873.91400
> 2026 06 07 17 16 48.0000000  0 14
C01  38580598.32000 200899406.89900                                                                  38580594.49600 163247134.04500                                
C02  36975127.91500 192539133.81600                                                                  36975118.30100 156453813.12000                                
C03  37010914.86800 192725539.74600                                                                  37010902.48500 156605247.43900                                
C07  37170271.94100 193555371.68600                                                                  37170266.40200 157279539.40500                                
C08  38033397.58800 198049897.02600                                                                  38033393.10300 160931779.86200                                
C09  39002998.40000 203098756.51500  39003005.31500 157048920.43200                                  39002998.79300 165034435.80700                                
C10  37310400.46200 194285031.29500  37310400.39000 150233482.99300                                  37310392.77800 157872527.44500                                
C12  23198742.52100 120802010.39600                                                                  23198739.05500  98161434.04500                                
C19  22499273.75200 117159665.28600                                  22499274.19800  88291970.15600  22499266.01400  95201723.66700  22499266.83600 118234455.88200
C20  25066472.14500 130527755.86100                                  25066477.23700  98366202.94000  25066468.58900 106064361.30800  25066465.31900 131725282.43800
C22  23237958.71900 121006152.81700                                  23237945.22800  91190785.09500  23237938.77700  98327298.72000                                
C30  25080333.03800 130599881.24900                                  25080339.47100  98420640.64500  25080337.93500 106123117.17700  25080325.42600 131798016.93900
C36  22446830.17100 116886545.64000                                  22446837.06800  88086404.73000  22446832.86900  94979978.45000  22446826.77500 117958971.97100
C39  25977088.22300 135269595.69700                                  25977079.12700 101939620.26300  25977078.05500 109917575.42400  25977082.16500 136510464.09400
> 2026 06 07 17 17 03.0000000  0 14
C01  38580574.64300 200899283.68800                                                                  38580570.83700 163247033.89100                                
C02  36975329.71000 192540184.10900                                                                  36975320.34600 156454666.60400                                
C03  37011063.82500 192726315.30900                                                                  37011051.40600 156605877.69800                                
C07  37170106.13400 193554511.98600                                                                  37170100.80900 157278840.86800                                
C08  38028635.88700 198025102.40500                                                                  38028630.27600 160911632.25300                                
C09  39008627.82100 203128075.71900  39008636.07700 157071591.91000                                                                                                
C10  37310224.05900 194284111.82300  37310223.91600 150232772.02600                                  37310215.78500 157871780.30800                                
C12  23206873.15900 120844356.52800                                                                  23206871.60400  98195843.77600                                
C19  22503805.13900 117183262.94300                                  22503804.90700  88309753.46500  22503799.51100  95220898.73400  22503800.01100 118258270.08400
C20  25076001.69500 130577376.58300                                  25076005.76900  98403597.30000  25075999.76500 106104682.18000  25075996.19100 131775358.42200
C22                                                                  23233538.38700  91173495.34500  23233531.54300  98308655.86000                                
C30  25073343.82000 130563484.34600                                  25073349.25200  98393211.87400  25073343.69500 106093541.83100  25073334.63600 131761286.09600
C36  22445224.97800 116878184.43600                                  22445232.05400  88080103.74800  22445227.78400  94973184.33600  22445220.24300 117950534.12600
C39  25971503.00900 135240501.84500                                  25971492.61000 101917694.81100  25971491.26900 109893934.11200  25971495.54000 136481103.45800
> 2026 06 07 17 17 18.0000000  0 14
C01  38580550.87800 200899159.73600                                                                  38580547.07100 163246933.20900                                
C02  36975531.34400 192541233.75900                                                                  36975521.74800 156455519.55500                                
C03  37011212.62000 192727090.18400                                                                  37011200.11200 156606507.35400                                
C07  37169937.66500 193553637.88000                                                                  37169932.43000 157278130.58400                                
C08  38023878.00900 198000326.27400                                                                  38023871.45100 160891499.67900                                
C09  39014257.93900 203157399.82200  39014267.01700 157094267.21100                                                                                                
C10  37310044.02800 194283174.16500  37310043.93900 150232046.97800                                  37310035.80900 157871018.40100                                
C12  23215017.48400 120886764.69900                                                                  23215015.60800  98230303.88400                                
C19  22508357.54100 117206971.41800                                  22508356.73700  88327620.25100  22508351.93000  95240163.80600  22508353.14500 118282196.05900
C20  25085536.03300 130627023.64500                                  25085539.21400  98441011.48700  25085532.94200 106145024.45500  25085529.97600 131825460.90100
C22  23229163.37100 120960317.98310                                  23229152.50700  91156288.89000  23229146.71700  98290102.72800  23229159.49400 122070081.59100
C30  25066355.04900 130527092.13600                                  25066360.46300  98365786.59600  25066354.87000 106063970.19800  25066345.79300 131724559.99500
C36  22443627.48800 116869863.00100                                  22443633.59900  88073832.70400  22443628.57800  94966422.51200  22443621.80500 117942136.38600
C39                                                                  25965909.63000 101895791.12300  25965900.58800 109870316.52200  25965914.22200 136451771.90900
> 2026 06 07 17 17 33.0000000  0 14
C01  38580527.16500 200899036.22500                                                                  38580523.35900 163246832.84200                                
C02  36975733.03200 192542283.91500                                                                  36975723.65000 156456372.91400                                
C03  37011361.57600 192727865.30000                                                                  37011348.97800 156607137.24700                                
C07  37169766.55100 193552750.42600                                                                  37169761.63700 157277409.48200                                
C08  38019123.92000 197975569.80300                                                                  38019117.21900 160871383.07500                                
C09  39019888.80800 203186729.89800  39019898.18900 157116946.99000                                                                                                
C10  37309860.65600 194282219.39800  37309860.76400 150231308.69400                                  37309852.32900 157870242.52500                                
C12  23223174.49700 120929235.74200                                                                  23223172.17400  98264815.05500                                
C19  22512931.52800 117230791.57500                                  22512931.17100  88345571.24300  22512925.36400  95259519.67900  22512927.20400 118306234.63500
C20  25095075.07200 130676697.79700                                  25095077.50200  98478446.14900  25095070.01500 106185388.80000  25095069.94300 131875590.86700
C22  23224799.59500 120937597.45800                                  23224788.55200  91139166.58100  23224784.31700  98271640.44000  23224796.32500 122047152.60400
C30  25059368.22500 130490705.96300                                  25059372.42400  98338365.90200  25059367.67100 106034403.52500  25059359.52300 131687840.00300
C36  22442037.43100 116861582.40100                                  22442042.21900  88067592.44400  22442037.44800  94959693.87000  22442032.58800 117933779.83700
C39                                                                  25960333.40500 101873910.14100  25960328.02600 109846723.22400                                
> 2026 06 07 17 17 48.0000000  0 14
C01  38580502.38100 200898907.64900                                                                  38580498.62800 163246728.37600                                
C02  36975933.70100 192543329.07900                                                                  36975924.51600 156457222.19800                                
C03  37011509.49600 192728635.33000                                                                  37011496.82700 156607762.97800                                
C07  37169592.23900 193551844.23900                                                                  37169587.70000 157276673.19700                                
C08  38014372.45700 197950827.59200                                                                  38014366.18500 160851278.06800                                
C09  39025519.60500 203216060.16300  39025528.84300 157139626.94600                                                                                                
C10  37309673.04900 194281242.07900  37309673.13900 150230552.98500                                  37309665.13300 157869448.39400                                
C12  23231342.21300 120971763.92300                                                                  23231340.33600  98299372.66200                                
C19  22517527.06600 117254717.93000                                  22517526.20800  88363602.20900  22517520.66900  95278961.77400  22517522.22300 118330380.52400
C20  25104618.57700 130726393.46600                                  25104619.88200  98515896.98300  25104611.89400 106225770.57400  25104612.41300 131925742.39800
C22  23220456.63600 120914983.36000                                  23220445.11100  91122124.60100  23220442.16200  98253264.67400  23220453.34800 122024331.04600
C30  25052381.40100 130454320.73500                                  25052384.52800  98310945.91800  25052380.45400 106004837.58400  25052372.89600 131651120.89800
C36  22440453.75300 116853337.11800                                  22440458.39900  88061378.71500  22440454.32400  94952993.83600  22440450.03600 117925458.78300
C39                                                                  25954764.07700 101852047.64000  25954755.64300 109823149.81200                                
> 2026 06 07 17 18 03.0000000  0 14
C01  38580476.43500 200898772.69400                                                                  38580472.75400 163246618.73000                                
C02  36976133.17300 192544367.97300                                                                  36976123.72000 156458066.36800                                
C03  37011656.14700 192729398.94600                                                                  37011643.42400 156608383.49300                                
C07  37169414.38900 193550918.05500                                                                  37169409.90400 157275920.62100                                
C08  38009623.30000 197926098.44500                                                                  38009617.72500 160831183.65400                                
C09  39031151.02800 203245389.43300  39031159.80100 157162327.21910                                  39031152.65400 165153579.95910                                
C10  37309480.86800 194280240.95600  37309480.83200 150229778.83500                                  37309473.48800 157868634.90300                                
C12  23239519.48900 121014347.61600                                                                  23239518.68500  98333975.37000                                
C19  22522141.92000 117278748.80400                                  22522141.33000  88381711.98400  22522135.50500  95298488.86500  22522135.63000 118354631.90900
C20  25114166.08600 130776108.99600                                  25114166.62200  98553362.74600  25114160.72500 106266168.44500  25114160.01000 131975914.04500
C22  23216133.85200 120892474.67200                                  23216122.29000  91105161.96600  23216118.94900  98234974.57300  23216130.43900 122001615.84200
C30  25045393.34500 130417935.44200                                  25045395.41800  98283525.89300  25045393.23800 105975271.59400  25045385.64300 131614401.80500
C36  22438877.22200 116845125.58200                                  22438882.44000  88055190.45900  22438877.36500  94946321.28300  22438874.20200 117917171.86800
C39  25949225.78800 135124424.23910                                  25949197.16200 101830202.57200  25949191.42600 109799595.30200  25949216.53200 136364060.64710
> 2026 06 07 17 18 18.0000000  0 14
C01  38580449.07800 200898630.56500                                                                  38580445.28900 163246503.19800                                
C02  36976331.30400 192545399.69700                                                                  36976322.45900 156458904.84400                                
C03  37011801.42200 192730155.25700                                                                  37011788.61000 156608998.10500                                
C07  37169232.78600 193549971.05500                                                                  37169228.35400 157275151.16300                                
C08  38004875.96500 197901381.58400                                                                  38004871.48000 160811099.19100                                
C09  39036783.23600 203274716.80500  39036791.99200 157185004.92500                                  39036786.34600 165177410.85800                                
C10  37309283.80900 194279215.15800  37309283.54100 150228985.60700                                  37309276.80400 157867801.39100                                
C12  23247707.96800 121056985.66100                                                                  23247707.05700  98368622.30700                                
C19  22526776.05400 117302883.23600                                  22526776.44700  88399899.83600  22526769.99700  95318100.11100  22526768.62100 118378987.67800
C20  25123717.32900 130825843.27700                                  25123717.65000  98590842.71600  25123714.66600 106306581.59900  25123710.73500 132026104.65700
C22  23211831.06200 120870070.76000                                  23211820.00100  91088278.25100  23211814.62300  98216769.55400  23211827.84600 121979006.30100
C30  25038405.10900 130381549.50700                                  25038406.53900  98256105.43800  25038406.77100 105945705.07200  25038396.37100 131577682.25000
C36  22437307.08900 116836946.90500                                  22437311.75300  88049026.96500  22437306.49900  94939675.42800  22437302.94400 117908918.17500
C39  25943666.05600 135095459.47000                                  25943632.26500 101808374.43400  25943629.38800 109775989.81710                                
> 2026 06 07 17 18 33.0000000  0 14
C01  38580420.66600 200898482.69900                                                                  38580416.87800 163246383.09000                                
C02  36976528.45300 192546425.80600                                                                  36976519.35800 156459738.63400                                
C03  37011945.66100 192730905.83500                                                                  37011932.72400 156609608.01700                                
C07  37169047.30500 193549004.73000                                                                  37169042.83800 157274366.01000                                
C08  38000131.20300 197876678.52300                                                                  38000127.88000 160791025.96300                                
C09  39042416.24900 203304043.55100  39042423.55800 157207682.37600                                  39042420.53800 165201255.36710                                
C10  37309082.12100 194278166.22600  37309081.44200 150228174.51100                                  37309075.61700 157866948.99800                                
C12  23255908.02700 121099679.46000                                                                  23255905.24000  98403314.46100                                
C19  22531430.89900 117327122.58000                                  22531431.11300  88418166.71700  22531424.66300  95337796.58000  22531425.32400 118403449.44300
C20  25133272.32400 130875597.52900                                  25133273.50300  98628337.68500  25133270.30500 106347010.99800  25133264.69400 132076315.34400
C22  23207548.19700 120847773.20000                                  23207538.03000  91071474.71800  23207530.66700  98198650.95100  23207545.14100 121956504.14100
C30  25031417.08800 130345164.75000                                  25031420.69800  98228685.77100  25031420.60900 105916139.47900  25031409.29800 131540963.59400
C36  22435743.04900 116828802.43700                                  22435747.71300  88042889.26600  22435742.67400  94933057.42100  22435738.77900 117900699.02200
C39  25938103.26800 135066518.50600                                  25938072.56900 101786564.03800                                  25938088.36500 136305599.62700
> 2026 06 07 17 18 48.0000000  0 14
C01  38580393.23700 200898340.05800                                                                  38580389.50200 163246267.20400                                
C02  36976726.62100 192547457.21300                                                                  36976717.41800 156460576.81300                                
C03  37012090.79300 192731661.52400                                                                  37012077.82000 156610222.10700                                
C07  37168859.60900 193548030.09200                                                                  37168855.69600 157273574.00100                                
C08  37995391.71300 197852000.29200                                                                  37995388.99700 160770972.92400                                
C09  39048051.69300 203333380.57700                                                                  39048054.55200 165225094.05800                                
C10  37308878.05700 194277105.07300  37308876.75200 150227353.94000                                  37308872.07100 157866086.78300                                
C12  23264120.11200 121142439.46500                                                                  23264116.34200  98438060.43100                                
C19  22536107.83000 117351477.53100                                  22536107.63300  88436520.74700  22536101.34300  95357587.01800  22536102.71900 118428027.93400
C20  25142832.50200 130925382.42300                                  25142835.37800  98665855.77900  25142830.35700 106387465.30500  25142826.12200 132126556.94800
C22  23203287.25700 120825593.16900                                  23203278.44800  91054759.80400  23203270.80000  98180627.91800  23203285.64900 121934120.58200
C30  25024431.94400 130308792.37700                                  25024438.66300  98201275.53200  25024435.39300 105886584.01000  25024424.58200 131504257.53800
C36  22434187.81900 116820703.06300                                  22434192.51800  88036785.58800  22434187.98000  94926476.06900  22434183.44100 117892525.47400
C39  25932546.73500 135037612.17700                                  25932524.00500 101764779.86400                                  25932537.03200 136276428.08400
> 2026 06 07 17 19 03.0000000  0 14
C01  38580368.86400 200898213.27100                                                                  38580365.21800 163246164.22300                                
C02  36976927.89700 192548504.48800                                                                  36976918.82000 156461427.78100                                
C03  37012238.89200 192732432.94700                                                                  37012225.88300 156610848.97100                                
C07  37168671.64500 193547057.75300                                                                  37168668.48200 157272783.98600                                
C08  37990659.53100 197827357.51700                                                                  37990656.69000 160750948.71700                                
C09  39053691.42400 203362738.39000  39053691.38800 157253031.88210                                  39053692.94300 165248949.67000                                
C10  37308673.68900 194276042.29100  37308671.72300 150226532.15600                                  37308668.18500 157865223.15700                                
C12  23272346.84900 121185276.05900                                                                  23272344.38300  98472868.64900                                
C19  22540808.34800 117375958.52000                                  22540808.75900  88454969.72100  22540803.34400  95377479.85200  22540803.48700 118452733.56000
C20  25152400.55900 130975208.21500                                  25152404.91900  98703404.70300  25152397.71800 106427952.83000  25152394.69800 132176839.82500
C22  23199051.49400 120803541.37600                                  23199043.09600  91038141.51300  23199038.02100  98162709.13600  23199051.28000 121911866.56100
C30  25017451.58900 130272443.28100                                  25017459.63000  98173882.77100  25017453.10800 105857047.47200  25017444.99600 131467574.95200
C36  22432642.79200 116812659.37900                                  22432647.67000  88030723.79400  22432644.15000  94919939.87900  22432638.30700 117884407.91800
C39  25927000.61900 135008750.95000                                  25926987.86000 101743029.77400                                  25926992.89900 136247302.19300
> 2026 06 07 17 19 18.0000000  0 14
C01  38580344.95500 200898088.96100                                                                  38580341.43500 163246063.15500                                
C02  36977129.62100 192549554.30100                                                                  36977120.65100 156462280.88900                                
C03  37012387.47200 192733206.74600                                                                  37012374.57100 156611477.77900                                
C07  37168482.21500 193546074.28100                                                                  37168478.62400 157271984.86100                                
C08  37985931.58400 197802736.99100                                                                  37985928.54700 160730942.57900                                
C09  39059331.51300 203392103.58600  39059332.17400 157275738.87000                                  39059332.03100 165272811.33000                                
C10  37308466.56900 194274964.61300  37308463.90600 150225698.78900                                  37308461.53000 157864347.54800                                
C12  23280584.84400 121228175.60300                                                                  23280584.48700  98507728.04700                                
C19  22545531.61300 117400552.03900                                  22545532.31000  88473503.48300  22545526.82400  95397464.11500  22545526.18100 118477552.67600
C20  25161974.40600 131025061.24700                                  25161979.32000  98740974.17200  25161970.63600 106468462.50200  25161968.31300 132227150.18300
C22  23194838.24700 120781604.72200                                  23194829.86600  91021609.96600  23194828.24000  98144883.83900  23194839.28300 121889728.64200
C30  25010473.27100 130236104.45500                                  25010480.66900  98146497.77800  25010473.32500 105827519.26300  25010468.26800 131430902.74000
C36  22431104.35800 116804657.91500                                  22431110.91600  88024693.78800  22431108.50400  94913437.97000  22431100.10500 117876332.92400
C39  25921461.95400 134979921.68300                                  25921453.10900 101721303.58100  25921450.55400 109682139.53310  25921455.86100 136218208.48100
> 2026 06 07 17 19 33.0000000  0 14
C01  38580317.58000 200897946.37200                                                                  38580313.75600 163245947.33900                                
C02  36977327.77000 192550585.92600                                                                  36977318.55000 156463119.20000                                
C03  37012532.58700 192733962.22200                                                                  37012519.47100 156612091.65800                                
C07  37168288.28300 193545059.09600                                                                  37168282.36800 157271160.11700                                
C08  37981203.60200 197778118.04600                                                                  37981200.77800 160710937.70000                                
C09  39064967.26000 203421455.17600  39064968.92200 157298435.44200                                  39064966.99200 165296661.95800                                
C10  37308252.69400 194273851.27900  37308249.47800 150224837.88000                                  37308248.10200 157863442.81900                                
C12  23288831.14800 121271117.09200                                                                  23288829.84400  98542621.52400                                
C19  22550273.19400 117425237.15900                                  22550273.19400  88492106.28200  22550266.95800  95417522.80500  22550267.65500 118502464.25900
C20  25171549.61200 131074920.53700                                  25171553.57900  98778548.33500  25171544.82300 106508977.25700  25171544.53700 132277466.93200
C22  23190643.56500 120759762.57400                                  23190635.56000  91005149.73200  23190636.27500  98127135.42700  23190645.51300 121867686.17200
C30  25003493.04100 130199755.44300                                  25003497.49100  98119105.14300  25003493.98800 105797982.80600  25003488.57400 131394220.29700
C36  22429571.50000 116796677.69000                                  22429579.02300  88018679.85000  22429575.73500  94906953.38100  22429565.88900 117868279.55300
C39                                                                                                  25915917.69700 109658722.08200  25915921.69900 136189125.87000
> 2026 06 07 17 19 48.0000000  0 14
C01  38580292.27700 200897814.83900                                                                  38580288.63200 163245840.42000                                
C02  36977528.04600 192551628.62100                                                                  36977518.64700 156463966.50100                                
C03  37012679.73800 192734728.59200                                                                  37012666.62200 156612714.42000                                
C07  37168094.04700 193544041.49500                                                                  37168086.73800 157270338.18310                                
C08  37976481.67700 197753529.94300                                                                  37976479.01400 160690957.91700                                
C09  39070604.91900 203450822.57000  39070608.58200 157321144.20800                                  39070605.09800 165320525.34100                                
C10  37308037.51600 194272731.51700  37308034.12100 150223972.04900                                  37308033.49500 157862532.96000                                
C12  23297091.62200 121314129.50600                                                                  23297086.53000  98577572.61300                                
C19  22555037.34400 117450042.91400                                  22555037.21800  88510800.03800  22555030.10700  95437679.52600  22555031.25000 118527497.58100
C20  25181130.82100 131124815.09800                                  25181133.03700  98816149.05500  25181126.03200 106549520.65100  25181127.42600 132327819.24400
C22  23186472.95300 120738044.50900                                  23186465.57300  90988782.90500  23186468.45000  98109487.76800  23186474.79400 121845768.83600
C30  24996516.38500 130163425.92400                                  24996519.01200  98091727.16300  24996517.70700 105768462.12900  24996511.56000 131357557.45700
C36  22428047.77200 116788747.99600                                  22428057.22500  88012703.96400  22428052.41800  94900509.83200  22428043.80600 117860277.06600
C39                                                                                                  25910386.82300 109635337.50500  25910395.70400 136160083.92400
> 2026 06 07 17 20 03.0000000  0 14
C01  38580267.67100 200897686.94900                                                                  38580264.11500 163245736.52100                                
C02  36977729.00100 192552675.03800                                                                  36977719.85200 156464816.79600                                
C03  37012827.60400 192735498.56400                                                                  37012814.45300 156613340.10000                                
C07  37167897.25500 193543014.06300                                                                                                                                
C08  37971764.73700 197728965.46100                                                                  37971761.59200 160670997.32000                                
C09                                  39076249.77900 157343859.29400                                  39076245.29400 165344395.48100                                
C10  37307819.76400 194271598.05900  37307816.31500 150223095.57400                                  37307816.29700 157861611.90700                                
C12  23305364.64000 121357205.26400                                                                  23305355.93800  98612575.12100                                
C19  22559822.99000 117474961.83100                                  22559822.95400  88529579.01400  22559815.10900  95457928.15400  22559817.34300 118552645.11100
C20  25190717.10500 131174737.17500                                  25190717.33700  98853770.58300  25190712.81700 106590086.53200  25190714.05000 132378199.40400
C22  23182324.78500 120716443.28200                                  23182318.62000  90972504.14700  23182319.74500  98091935.07600  23182325.51700 121823969.33800
C30  24989541.99800 130127108.73200                                  24989543.71300  98064358.46600  24989541.01500 105738951.56800  24989538.08500 131320907.08600
C36  22426533.51600 116780861.26800                                  22426542.14600  88006760.55000  22426537.25000  94894101.27300  22426529.29900 117852318.02300
C39                                                                  25904868.94000 101656253.81710  25904864.24100 109611979.69100  25904876.12400 136131075.18500
> 2026 06 07 17 20 18.0000000  0 14
C01  38580241.61800 200897551.16200                                                                  38580237.91900 163245626.20400                                
C02  36977928.29500 192553713.60100                                                                  36977918.94900 156465660.70600                                
C03  37012973.95200 192736260.51900                                                                  37012960.74600 156613959.27400                                
C07  37167696.76500 193541940.39810                                                                  37167695.88900 157268668.48300                                
C08  37967050.04900 197704413.13000                                                                  37967046.11800 160651046.57000                                
C09  39081889.29600 203509628.28510  39081891.11900 157366576.58410                                  39081885.41900 165368262.71000                                
C10  37307597.16900 194270439.32600  37307593.84600 150222199.58200                                  37307593.73800 157860670.38900                                
C12  23313646.21800 121400332.39900                                                                  23313638.94500  98647619.41800                                
C19  22564627.57700 117499982.05700                                  22564626.95100  88548434.37200  22564619.64300  95478259.13000  22564622.68100 118577894.91300
C20  25200307.78500 131224675.18600                                  25200305.74800  98891404.00100  25200302.56700 106630665.18600  25200301.31600 132428595.49500
C22  23178196.77200 120694947.58000                                  23178191.53700  90956304.92900  23178191.80500  98074468.06000  23178196.45100 121802276.41000
C30  24982567.68300 130090792.72300                                  24982568.55800  98036990.64000  24982566.45000 105709441.87400  24982565.09200 131284257.82000
C36  22425025.76300 116773005.89400                                  22425032.08900  88000840.78300  22425028.28300  94887718.21600  22425020.56300 117844390.60500
C39                                                                  25899354.61300 101634622.26100  25899348.80600 109588639.07400  25899358.09800 136102087.97000
> 2026 06 07 17 20 33.0000000  0 14
C01  38580215.11900 200897413.18900                                                                  38580211.43800 163245514.14800                                
C02  36978127.17700 192554750.05500                                                                  36978117.65300 156466502.99100                                
C03  37013119.78100 192737020.26500                                                                  37013106.57600 156614576.63200                                
C07  37167494.75500 193540876.11000                                                                  37167492.62900 157267817.64000                                
C08  37962338.59500 197679878.69900                                                                  37962333.87800 160631110.38100                                
C09  39087530.77900 203539002.56200  39087534.56700 157389290.73900                                  39087527.22300 165392120.83610                                
C10  37307370.98300 194269261.02500  37307367.78500 150221288.48700                                  37307367.17700 157859713.01200                                
C12  23321937.76600 121443516.41400                                                                  23321933.81700  98682709.99600                                
C19  22569452.85600 117525109.18200                                  22569450.35500  88567370.28500  22569444.40400  95498676.96300  22569448.85400 118603252.59700
C20  25209902.11000 131274634.40100                                  25209900.21600  98929053.39900  25209896.01700 106671261.11900  25209895.17700 132479013.04600
C22  23174090.04200 120673563.24000                                  23174085.45000  90940189.72300  23174084.25200  98057091.51800  23174088.98800 121780695.91600
C30  24975594.20700 130054483.85300                                  24975596.45900  98009628.16700  24975595.24300 105679938.00200  24975592.36700 131247615.87600
C36  22423524.33700 116765187.58800                                  22423530.84100  87994948.89700  22423527.16000  94881365.20200  22423518.99400 117836500.61800
C39  25893840.10800 134835979.52610                                  25893842.93100 101612996.03600  25893836.98100 109565320.58200                                
> 2026 06 07 17 20 48.0000000  0 14
C01  38580189.42300 200897279.18400                                                                  38580185.77800 163245405.21300                                
C02  36978326.68400 192555790.46500                                                                  36978316.99900 156467348.35700                                
C03  37013266.39600 192737783.77300                                                                  37013253.10200 156615197.06200                                
C07  37167290.03000 193539802.52300                                                                                                                                
C08  37957631.71600 197655368.35100                                                                  37957626.51600 160611193.76700                                
C09  39093173.42400 203568385.19000  39093177.48000 157412011.24900                                                                                                
C10  37307142.36700 194268069.28900  37307139.18600 150220366.99300                                  37307137.59600 157858744.57900                                
C12  23330243.12700 121486763.14300                                                                  23330239.35700  98717851.49800                                
C19  22574299.79300 117550349.10700                                  22574297.00500  88586391.17000  22574291.21600  95519186.41400  22574296.98700 118628724.07900
C20  25219501.65300 131324620.62900                                  25219501.56400  98966723.15500  25219494.14800 106711878.99800  25219494.89900 132529457.86000
C22  23170005.66600 120652296.54000                                  23170000.16200  90924163.15000  23169999.25100  98039810.51200  23170004.37900 121759234.08800
C30  24968623.96600 130018188.48900                                  24968628.05800  97982275.92000  24968623.80500 105650445.08800  24968621.66100 131210987.53700
C36  22422030.61100 116757412.31400                                  22422039.43900  87989089.41800  22422033.97100  94875047.14600  22422026.64400 117828653.97300
C39  25888340.46900 134807315.82700                                  25888336.94900 101591394.71800  25888334.94800 109542028.79200  25888342.54200 136044123.49910
> 2026 06 07 17 21 03.0000000  0 14
C01  38580166.19300 200897158.29300                                                                  38580162.49400 163245307.04600                                
C02  36978528.78300 192556844.10700                                                                  36978519.68800 156468204.61500                                
C03  37013415.53100 192738560.35700                                                                  37013402.27200 156615828.09500                                
C07  37167086.25200 193538728.71800                                                                  37167078.78200 157266076.67710                                
C08  37952931.03700 197630891.37500                                                                  37952926.05200 160591304.25200                                
C09  39098819.23100 203597784.99700  39098823.41200 157434745.10300                                  39098816.22900 165439888.27700                                
C10  37306913.12500 194266873.41600  37306909.80200 150219442.29200                                  37306906.87100 157857772.86700                                
C12  23338562.39000 121530081.58900                                                                  23338558.38800  98753051.20900                                
C19  22579170.28100 117575710.79600                                  22579168.40500  88605503.89100  22579164.20600  95539794.89900  22579168.44100 118654318.55500
C20  25229107.34300 131374642.79200                                  25229109.55900  99004420.06500  25229099.57000 106752526.06500  25229102.37500 132579938.96500
C22  23165945.41300 120631156.86900                                  23165938.90800  90908232.29700  23165939.44400  98022632.76400  23165944.25100 121737900.44200
C30  24961658.29900 129981916.25400                                  24961662.92700  97954941.06500  24961656.76200 105620971.02700  24961654.06400 131174382.57800
C36  22420547.50000 116749689.20600                                  22420556.29200  87983269.21000  22420550.60900  94868771.44300  22420543.51500 117820859.99900
C39  25882844.69000 134778694.24200                                  25882841.26000 101569825.22600                                  25882848.15700 136015239.46800
> 2026 06 07 17 21 18.0000000  0 14
C01  38580139.83600 200897021.39300                                                                  38580136.31600 163245195.73900                                
C02  36978727.84400 192557881.76300                                                                  36978718.17700 156469047.84000                                
C03  37013561.50300 192739320.78900                                                                  37013548.49400 156616446.07900                                
C07                                                                                                  37166867.94600 157265180.23200                                
C08  37948231.12700 197606418.65600                                                                  37948226.69500 160571418.17500                                
C09  39104462.80400 203627173.05100  39104466.96800 157457469.87800                                  39104462.50000 165463778.45100                                
C10  37306677.46900 194265644.14900  37306673.91300 150218491.75000                                  37306669.44500 157856774.04500                                
C12  23346889.01500 121573442.13100                                                                  23346885.78100  98788285.22200                                
C19  22584058.81700 117601165.03600                                  22584056.31500  88624686.25000  22584052.33000  95560478.50900  22584055.85100 118680006.19400
C20  25238714.46200 131424671.43000                                  25238718.55400  99042121.85200  25238708.19000 106793178.43600  25238709.72700 132630426.64000
C22  23161903.76100 120610115.23900                                  23161898.41800  90892375.21000  23161899.33000  98005534.65500  23161902.76100 121716665.72600
C30  24954691.88200 129945638.10200                                  24954695.49100  97927601.83200  24954690.18400 105591492.16800  24954687.09300 131137771.62800
C36  22419069.35700 116741988.90600                                  22419077.21900  87977466.20600  22419072.19800  94862514.32600  22419064.56800 117813089.06900
C39  25877349.94800 134750085.77900                                  25877347.89300 101548265.49900                                  25877355.00500 135986368.52500
> 2026 06 07 17 21 33.0000000  0 14
C01  38580110.03100 200896866.69600                                                                  38580106.70700 163245070.09000                                
C02  36978923.59900 192558901.71400                                                                  36978914.79000 156469876.59600                                
C03  37013704.15100 192740063.40200                                                                  37013691.05300 156617049.50600                                
C07                                                                                                  37166651.49800 157264261.67410                                
C08  37943531.96700 197581948.48400                                                                  37943527.85700 160551534.20100                                
C09  39110104.28700 203656547.18600  39110107.96800 157480183.77900                                  39110103.71500 165487647.39300                                
C10  37306435.16500 194264379.87900  37306431.28700 150217514.11800                                  37306425.76600 157855746.69800                                
C12  23355223.91400 121616842.85800                                                                  23355220.80500  98823551.86100                                
C19  22588964.20300 117626709.72300                                  22588962.18400  88643936.82000  22588956.35900  95581235.63300  22588959.80700 118705785.18300
C20  25248323.44000 131474704.57800                                  25248327.83600  99079827.02000  25248318.77600 106833834.41800  25248319.27700 132680918.85800
C22  23157880.65800 120589170.01900                                  23157875.22600  90876590.84200  23157877.44200  97988514.89800  23157879.56800 121695528.38300
C30  24947724.37400 129909352.69700                                  24947726.62600  97900257.08500  24947722.12300 105562007.42000  24947720.39000 131101153.28900
C36  22417595.28700 116734309.58000                                  22417602.27400  87971679.03500  22417597.57500  94856274.25400  22417590.48100 117805339.31700
C39  25871857.04600 134721488.59800                                  25871855.97400 101526714.30900  25871861.51300 109472320.04910  25871862.94300 135957508.92600
> 2026 06 07 17 21 48.0000000  0 14
C01  38580083.94200 200896731.31600                                                                  38580080.60100 163244960.07800                                
C02  36979123.01700 192559940.97200                                                                  36979115.03000 156470721.16500                                
C03  37013850.55200 192740825.18600                                                                  37013837.31100 156617668.53700                                
C07  37166435.49700 193535383.42510                                                                  37166435.12200 157263344.99200                                
C08  37938840.54400 197557517.99500                                                                  37938836.41600 160531682.47900                                
C09  39115750.70200 203685944.62900  39115753.06000 157502915.80500                                  39115750.00500 165511535.26700                                
C10  37306193.43300 194263117.50800  37306189.10800 150216538.02200                                  37306182.44300 157854720.96300                                
C12  23363573.80500 121660320.52500                                                                  23363570.33800  98858881.00800                                
C19  22593894.08800 117652381.75800                                  22593893.08700  88663283.35600  22593887.10100  95602096.26200  22593888.76300 118731692.75900
C20  25257940.72700 131524779.08600                                  25257944.56900  99117563.36600  25257936.36700 106874524.03600  25257937.56400 132731452.75100
C22  23153883.39300 120568358.54000                                  23153877.55000  90860907.20600  23153881.10600  97971603.88500  23153882.07100 121674525.95800
C30  24940761.67400 129873097.56000                                  24940763.97900  97872935.08300  24940760.76300 105532547.13500  24940757.52800 131064565.44200
C36  22416132.11800 116726688.26400                                  22416138.39000  87965935.55800  22416134.04800  94850081.31800  22416127.56200 117797648.05200
C39  25866375.92000 134692939.57300                                  25866374.13300 101505199.44700                                  25866379.97600 135928698.00100
> 2026 06 07 17 22 03.0000000  0 14
C01  38580056.44200 200896588.59700                                                                  38580053.18900 163244844.07600                                
C02  36979321.00600 192560972.94500                                                                  36979312.69700 156471559.72400                                
C03  37013995.57700 192741579.54000                                                                  37013982.01500 156618281.52600                                
C07  37166214.06500 193534234.78300                                                                  37166214.90400 157262411.49100                                
C08  37934151.33700 197533100.68600                                                                  37934147.19100 160511841.43900                                
C09  39121397.02700 203715338.46300  39121397.34900 157525644.96300                                  39121395.50800 165535420.14400                                
C10  37305946.78600 194261830.55700  37305942.14000 150215542.90400                                  37305934.81400 157853675.17500                                
C12  23371932.66600 121703848.11000                                                                  23371929.75300  98894250.77200                                
C19  22598843.66400 117678154.31200                                  22598842.48500  88682705.69100  22598837.28500  95623038.57800  22598837.16000 118757701.79600
C20  25267560.60500 131574867.95000                                  25267563.57100  99155310.52000  25267556.20900 106915225.34600  25267556.49500 132782001.08100
C22  23149907.30300 120547654.26100                                  23149901.13900  90845304.35700  23149904.48000  97954779.97000  23149905.67700 121653631.74000
C30  24933799.63400 129836846.16200                                  24933801.42100  97845615.90200  24933800.26000 105503089.90200  24933796.49000 131027981.37400
C36  22414674.59600 116719098.18300                                  22414681.36800  87960215.63900  22414677.49000  94843913.74100  22414670.20000 117789988.30800
C39  25860898.06400 134664412.14100                                  25860897.15200 101483700.77000  25860900.74400 109425921.30100  25860901.06600 135899908.80800
> 2026 06 07 17 22 18.0000000  0 14
C01  38580029.24500 200896447.00300                                                                  38580026.04600 163244729.07100                                
C02  36979519.19200 192562006.09100                                                                  36979510.65000 156472399.25600                                
C03  37014140.74500 192742334.93000                                                                  37014126.93200 156618895.37500                                
C07  37165991.07700 193533073.96800                                                                  37165990.63000 157261468.32600                                
C08  37929465.97200 197508705.12800                                                                  37929462.00500 160492018.07600                                
C09  39127043.99600 203744737.31400  39127042.79900 157548378.00500                                  39127043.94200 165559324.18310                                
C10  37305696.85200 194260527.50600  37305692.08100 150214535.27300                                  37305684.52300 157852616.31800                                
C12  23380303.33800 121747433.94400                                                                  23380301.17600  98929667.83900                                
C19  22603813.57600 117704035.74400                                  22603813.16500  88702210.02300  22603806.39200  95644069.32000  22603807.51800 118783820.57000
C20  25277183.91400 131624979.41900                                  25277186.54000  99193074.71600  25277179.91100 106955944.98100  25277180.07200 132832572.24100
C22  23145953.81800 120527065.92300                                  23145946.77700  90829788.98500  23145945.13300  97938050.46900  23145951.54800 121632854.52200
C30  24926840.45400 129800607.32500                                  24926841.06200  97818306.26800  24926841.18700 105473642.90700  24926833.82500 130991410.20600
C36  22413224.77500 116711547.75300                                  22413231.94000  87954525.60500  22413227.86600  94837778.38900  22413219.84300 117782368.59000
C39  25855425.35400 134635914.77200                                  25855426.64000 101462224.83400  25855429.53500 109402764.63500  25855429.10600 135871149.98700
> 2026 06 07 17 22 33.0000000  0 14
C01  38580002.60200 200896308.12500                                                                  38579999.42200 163244616.18600                                
C02  36979717.87700 192563041.98500                                                                  36979708.06700 156473241.05900                                
C03  37014286.37800 192743092.90400                                                                  37014272.42200 156619511.29300                                
C07  37165765.89200 193531902.73500                                                                                                                                
C08  37924785.25300 197484332.81200                                                                  37924781.10700 160472213.62700                                
C09  39132692.59000 203774142.31100  39132688.78400 157571115.87100                                  39132693.21600 165583218.23000                                
C10  37305443.91600 194259209.85300  37305439.19900 150213516.38700                                  37305431.71200 157851545.75500                                
C12  23388686.00000 121791079.29300                                                                  23388684.53500  98965133.22700                                
C19  22608804.51900 117730027.36400                                  22608804.68000  88721797.36000  22608797.76400  95665189.55700  22608800.05200 118810050.62500
C20  25286811.11800 131675114.57500                                  25286814.22700  99230856.81200  25286807.25800 106996683.94400  25286808.84800 132883167.39300
C22  23142023.15100 120506595.13000                                  23142015.02100  90814362.12900  23142011.25000  97921416.33000  23142020.50600 121612195.94700
C30  24919883.93600 129764382.91100                                  24919883.63300  97791007.49400  24919884.20400 105444207.65100  24919875.55600 130954853.51100
C36  22411782.83400 116704038.36000                                  22411789.71300  87948866.51700  22411784.13800  94831676.41800  22411777.33000 117774790.34200
C39  25849959.25500 134607448.78400                                  25849958.00500 101440772.54000  25849969.40500 109379633.61300  25849989.43600 135842604.95510
> 2026 06 07 17 22 48.0000000  0 14
C01  38579982.23200 200896201.77600                                                                  38579978.92600 163244529.78100                                
C02  36979922.96000 192564110.52400                                                                  36979913.32900 156474109.29700                                
C03  37014438.21100 192743883.33900                                                                  37014424.05900 156620153.60000                                
C07  37165544.42300 193530750.94700                                                                                                                                
C08  37920114.96900 197460013.78900                                                                  37920110.41300 160452452.47600                                
C09  39138349.22600 203803583.51900                                                                                                                                
C10  37305193.92900 194257907.55200  37305189.30100 150212509.33800                                  37305182.01000 157850487.40400                                
C12  23397084.69100 121834813.68200                                                                  23397082.95800  99000670.98100                                
C19  22613822.64100 117756158.82700                                  22613822.28300  88741490.08700  22613816.92300  95686423.46400  22613819.76400 118836421.77900
C20  25296448.82900 131725303.17200                                  25296452.38500  99268679.16300  25296443.37900 107037466.29800  25296445.72000 132933816.45700
C22  23138120.77100 120486272.00400                                  23138112.51500  90799046.54100  23138111.67500  97904902.24600  23138117.94700 121591686.37100
C30  24912936.08500 129728203.17800                                  24912937.24600  97763742.40200  24912935.44200 105414808.66800  24912928.13300 130918341.81500
C36  22410354.36600 116696599.85600                                  22410361.81800  87943260.86900  22410355.24200  94825632.02800  22410348.91600 117767283.64100
C39  25844505.30800 134579044.20600                                  25844504.02100 101419366.59700                                                                
> 2026 06 07 17 23 03.0000000  0 14
C01  38579957.98300 200896075.27100                                                                  38579954.83800 163244427.04800                                
C02  36980124.05800 192565158.87500                                                                  36980113.39000 156474961.18600                                
C03  37014586.20200 192744653.53500                                                                  37014571.88900 156620779.42900                                
C07  37165316.77200 193529565.94200                                                                                                                                
C08  37915444.93600 197435695.37100                                                                  37915440.29000 160432691.82300                                
C09  39144002.46700 203833007.86800                                                                                                                                
C10  37304936.74000 194256567.82500  37304932.20100 150211473.36500                                  37304925.26800 157849398.79200                                
C12  23405489.74400 121878584.07400                                                                  23405485.04400  99036237.98500                                
C19  22618855.82600 117782376.95900                                  22618857.48800  88761248.26500  22618852.21700  95707727.96900  22618854.77200 118862880.59700
C20  25306086.64700 131775492.20300                                  25306090.63200  99306501.79200  25306079.50000 107078248.96100  25306084.39600 132984465.93200
C22  23134236.45600 120466044.01000                                  23134228.91500  90783802.71600  23134229.05800  97888465.39800  23134233.29300 121571272.77400
C30  24905986.23200 129692015.64900                                  24905988.59100  97736471.38100  24905984.73100 105385403.39800  24905978.67400 130881822.28500
C36  22408929.13300 116689179.37700                                  22408936.85200  87937668.75600  22408930.15200  94819602.26900  22408924.64800 117759795.05800
C39                                                                  25839052.86100 101397967.03200  25839037.69100 109333421.67110                                
> 2026 06 07 17 23 18.0000000  0 14
C01  38579935.79000 200895959.70100                                                                  38579932.75200 163244333.11500                                
C02  36980327.30000 192566218.18700                                                                  36980317.68700 156475821.97400                                
C03  37014736.17700 192745434.52700                                                                  37014721.91700 156621414.04400                                
C07  37165088.58400 193528378.74300                                                                  37165075.93300 157257594.66510                                
C08  37910781.10300 197411408.65600                                                                  37910776.45700 160412956.93000                                
C09  39149657.22600 203862446.67700                                                                                                                                
C10  37304678.31800 194255221.75900  37304673.77900 150210432.50000                                  37304667.09600 157848305.12000                                
C12  23413907.94800 121922421.34200                                                                  23413903.73000  99071859.28800                                
C19  22623914.31500 117808713.03900                                  22623914.42200  88781095.21500  22623909.22200  95729128.16800  22623910.75900 118889458.28700
C20  25315729.86200 131825712.33200                                  25315734.52600  99344347.89400  25315724.14400 107119056.92100  25315728.07500 133035146.79400
C22  23130376.01500 120445942.36300                                  23130369.31400  90768654.00200  23130368.61700  97872131.13300  23130373.22700 121550986.63300
C30  24899040.68600 129655851.67600                                  24899044.92100  97709218.22600  24899038.45200 105356017.30700  24899033.66300 130845326.51700
C36  22407513.47700 116681807.89400                                  22407519.64200  87932113.60100  22407513.06700  94813612.36200  22407509.26000 117752355.92900
C39  25833629.39900 134522429.02610                                  25833611.47600 101376597.25700  25833594.50000 109310379.56600                                
> 2026 06 07 17 23 33.0000000  0 14
C01  38579906.78900 200895808.81100                                                                  38579903.64400 163244210.52600                                
C02  36980524.02000 192567242.20600                                                                  36980515.40800 156476654.14400                                
C03  37014879.43300 192746180.04800                                                                  37014865.20900 156622019.85300                                
C07  37164851.31900 193527143.18700                                                                  37164842.24200 157256590.74600                                
C08  37906114.41100 197387107.56200                                                                  37906109.58700 160393210.33900                                
C09  39155304.71300 203891853.14900                                                                                                                                
C10  37304409.67500 194253823.17700  37304405.19000 150209351.04500                                  37304399.56100 157847168.59700                                
C12  23422329.33200 121966278.85200                                                                  23422330.08300  99107497.10200                                
C19  22628987.20500 117835120.43000                                  22628984.86400  88800995.89300  22628979.36100  95750586.31000  22628985.95400 118916123.59310
C20  25325370.46800 131875917.07400                                  25325375.16700  99382182.41600  25325367.87700 107159852.42300  25325368.48400 133085812.17000
C22  23126530.88700 120425921.10300                                  23126524.99000  90753565.84100  23126522.54200  97855862.12600  23126528.88500 121530781.51200
C30  24892091.22600 129619665.38000                                  24892098.74900  97681948.20700  24892089.52900 105326613.04600  24892084.36500 130808808.18400
C36  22406098.34000 116674439.08900                                  22406103.61200  87926560.45900  22406098.50100  94807624.61300  22406094.05200 117744919.52300
C39  25828177.09500 134494065.93200                                  25828171.16300 101355222.48700  25828150.64900 109287332.08700  25828166.69500 135727980.83100
> 2026 06 07 17 23 48.0000000  0 14
C01  38579875.78600 200895647.39800                                                                  38579872.51600 163244079.36900                                
C02  36980718.77500 192568255.75900                                                                  36980710.51900 156477477.72000                                
C03  37015020.61600 192746914.96100                                                                  37015006.33900 156622617.04200                                
C07  37164609.40800 193525884.10500                                                                  37164603.99400 157255567.59100                                
C08  37901449.41700 197362816.89300                                                                  37901444.44900 160373472.21100                                
C09  39160950.55600 203921252.45900                                                                                                                                
C10  37304135.65400 194252396.89400  37304131.24000 150208248.15000                                  37304126.66600 157846009.61200                                
C12  23430758.77600 122010181.19300                                                                  23430762.17100  99143171.39700                                
C19  22634077.33900 117861623.70100                                  22634075.35600  88820968.86500  22634068.61900  95772122.38900  22634082.71800 118942870.26000
C20  25335014.09400 131926131.07100                                  25335017.23900  99420023.85900  25335012.30700 107200655.39300  25335008.91200 133136486.80200
C22  23122706.89800 120406004.85600                                  23122700.37600  90738556.94900  23122696.58800  97839678.56800  23122705.29000 121510682.77400
C30  24885142.44600 129583481.78800                                  24885152.09500  97654680.20800  24885142.33900 105297211.00600  24885134.11900 130772292.73900
C36  22404688.29600 116667097.66900                                  22404693.46000  87921027.90800  22404690.04700  94801659.09700  22404683.79300 117737510.73000
C39  25822728.90100 134465720.83800                                  25822738.71200 101333861.29900  25822712.30100 109264299.22900  25822722.52200 135699375.68900
> 2026 06 07 17 24 03.0000000  0 14
C01  38579846.58800 200895495.24600                                                                  38579843.26400 163243955.72100                                
C02  36980915.20900 192569278.60000                                                                  36980906.84600 156478308.89700                                
C03  37015163.58600 192747659.06500                                                                  37015149.25500 156623221.71600                                
C07  37164366.87200 193524621.24800                                                                  37164362.94100 157254541.44900                                
C08  37896789.87300 197338556.56900                                                                  37896785.40500 160353758.73200                                
C09  39166598.56100 203950663.90600  39166595.72000 157707555.23310                                  39166592.71800 165726673.36310                                
C10  37303860.06000 194250962.67400  37303855.80700 150207139.09800                                  37303852.07200 157844844.25200                                
C12  23439201.76400 122054147.88600                                                                  23439204.26600  99178897.97300                                
C19  22639189.68500 117888242.51500                                  22639188.25500  88841028.92200  22639180.73200  95793752.35600  22639194.56300 118969733.38900
C20  25344663.45500 131976373.81700                                  25344665.26000  99457886.93300  25344660.54300 107241481.71600  25344658.61300 133187190.46100
C22  23118907.30000 120386213.89900                                  23118899.90300  90723642.39700  23118896.31100  97823596.76200  23118912.23200 121490707.37610
C30  24878198.09700 129547321.14500                                  24878206.87000  97627429.45000  24878199.24000 105267827.57700  24878191.59200 130735800.37200
C36  22403287.29300 116659803.31800                                  22403292.35000  87915530.84700  22403289.75900  94795731.82900  22403282.28900 117730149.45200
C39  25817288.58800 134437413.60600                                  25817296.64700 101312528.50800  25817279.43900 109241297.04300  25817285.51500 135670808.72300
> 2026 06 07 17 24 18.0000000  0 14
C01  38579817.92600 200895345.97800                                                                  38579814.37000 163243834.45000                                
C02  36981112.07200 192570304.33100                                                                  36981103.20900 156479142.40700                                
C03  37015307.05600 192748405.88000                                                                  37015292.67200 156623828.59500                                
C07  37164122.42400 193523348.38500                                                                  37164118.95700 157253507.11800                                
C08  37892135.17100 197314320.15900                                                                  37892131.31100 160334064.71300                                
C09  39172247.44200 203980081.37400  39172245.38700 157730302.71500                                  39172241.58100 165750579.97700                                
C10  37303581.73200 194249514.13500  37303577.72900 150206019.04300                                  37303574.70900 157843667.17900                                
C12  23447656.59900 122098172.20600                                                                  23447657.27800  99214671.32900                                
C19  22644321.86500 117914970.07100                                  22644322.25800  88861171.04100  22644313.55500  95815470.77900  22644326.40300 118996706.35200
C20  25354316.62300 132026638.51700                                  25354318.30300  99495766.61700  25354311.83400 107282325.87100  25354311.67400 133237916.31100
C22  23115130.57500 120366541.79200                                  23115122.26600  90708817.46000  23115118.90700  97807611.62500  23115133.16600 121470854.74600
C30  24871256.89300 129511177.27900                                  24871264.18300  97600191.35700  24871257.91100 105238457.77500  24871252.64000 130699324.86200
C36  22401894.34900 116652549.50900                                  22401900.60300  87910064.31600  22401896.95800  94789837.50400  22401889.32800 117722829.12700
C39  25811856.38700 134409137.74500                                  25811851.86600 101291219.40300  25811853.52800 109218320.40600  25811855.58300 135642273.43000
> 2026 06 07 17 24 33.0000000  0 14
C01  38579796.69800 200895235.21200                                                                  38579793.08800 163243744.43000                                
C02  36981316.33300 192571368.60400                                                                  36981307.84500 156480007.30800                                
C03  37015457.88900 192749191.15600                                                                  37015443.45100 156624466.69800                                
C07  37163883.03300 193522101.13700                                                                  37163879.62000 157252493.64600                                
C08  37887492.45900 197290143.44300                                                                  37887488.74200 160314419.17400                                
C09  39177904.16700 204009540.29100  39177902.43400 157753082.23800                                  39177898.21700 165774517.72700                                
C10  37303307.67500 194248087.01000  37303303.72600 150204915.47900                                  37303300.83100 157842507.49400                                
C12  23456129.50000 122142289.56800                                                                  23456128.83900  99250520.29000                                
C19  22649483.33200 117941842.08000                                  22649482.15200  88881421.94700  22649473.12900  95837306.48700  22649484.76100 119023824.79000
C20  25363980.56600 132076960.64800                                  25363982.83600  99533689.56900  25363974.27600 107323216.72200  25363975.08000 133288700.10100
C22  23111383.24400 120347024.46600                                  23111374.72100  90694109.20900  23111370.27200  97791752.23300  23111385.29900 121451158.39400
C30  24864326.01700 129475086.11600                                  24864333.39700  97572993.00300  24864325.65900 105209130.82000  24864322.19300 130662902.49900
C36  22400516.02200 116645371.82300                                  22400522.83000  87904655.15100  22400518.38000  94784005.04400  22400511.05400 117715585.58500
C39                                                                  25806432.22700 101269960.82800  25806439.57200 109195398.13000  25806439.10700 135613805.71500
> 2026 06 07 17 24 48.0000000  0 14
C01  38579772.28800 200895107.82600                                                                  38579768.44700 163243640.93700                                
C02  36981517.37700 192572416.27400                                                                  36981509.28300 156480858.59500                                
C03  37015605.50500 192749959.66200                                                                  37015590.99500 156625091.16800                                
C07  37163638.28100 193520824.31200                                                                  37163634.51000 157251456.16000                                
C08  37882850.87300 197265971.26500                                                                  37882846.87100 160294777.33600                                
C09  39183557.89000 204038985.18600  39183556.83600 157775850.94600                                  39183550.33200 165798444.26500                                
C10  37303027.14900 194246626.05500  37303023.23600 150203785.81000                                  37303019.62600 157841320.37300                                
C12  23464609.40600 122186444.40000                                                                  23464608.22700  99286399.69800                                
C19  22654662.09600 117968803.16200                                  22654657.25400  88901739.87300  22654650.96400  95859214.48800  22654661.43500 119051033.10100
C20  25373644.38400 132127284.66300                                  25373648.15400  99571613.98400  25373637.80800 107364109.11200  25373639.64900 133339485.86900
C22  23107654.49800 120327606.89900                                  23107646.31400  90679476.07100  23107640.54200  97775973.90800  23107656.17700 121431562.59400
C30  24857394.42600 129438992.82200                                  24857402.09200  97545792.98900  24857394.98000 105179802.08600  24857391.51400 130626478.04200
C36  22399141.84000 116638214.95700                                  22399147.46900  87899261.71100  22399143.71600  94778189.48900  22399136.40800 117708363.08600
C39                                                                                                  25801023.63200 109172485.37700  25801026.91900 135585349.95800
> 2026 06 07 17 25 03.0000000  0 14
C01  38579743.64400 200894958.56400                                                                  38579739.89200 163243519.69900                                
C02  36981714.34700 192573442.16200                                                                  36981706.18100 156481692.20100                                
C03  37015748.93900 192750706.25900                                                                  37015734.44800 156625697.82700                                
C07  37163386.72000 193519512.77900                                                                  37163382.23500 157250390.53900                                
C08  37878209.09100 197241798.57300                                                                  37878204.76600 160275135.08600                                
C09  39189207.82500 204068410.98800  39189207.78900 157798604.83400                                  39189197.40700 165822330.11810                                
C10  37302739.17200 194245126.13900  37302735.25800 150202626.01800                                  37302729.82600 157840101.52100                                
C12  23473095.87000 122230631.39500                                                                  23473092.60000  99322305.20600                                
C19                                                                  22659850.17100  88922120.76600  22659846.88300  95881190.41900  22659852.58300 119078325.67800
C20  25383308.13000 132177605.14300                                  25383312.40100  99609535.72200  25383301.46500 107404998.64200  25383302.84100 133390268.03700
C22  23103943.28000 120308284.07000                                  23103935.91800  90664914.34800  23103929.78900  97760272.58100  23103944.04900 121412062.45300
C30  24850461.28100 129402892.53500                                  24850467.62500  97518587.69600  24850464.14000 105150467.67900  24850460.06600 130590046.50100
C36  22397770.71400 116631073.71400                                  22397773.39500  87893880.05600  22397771.53600  94772386.64700  22397764.96100 117701156.30400
C39                                                                                                  25795609.60300 109149577.99300                                
> 2026 06 07 17 25 18.0000000  0 14
C01  38579717.30500 200894821.71900                                                                  38579713.44600 163243408.49900                                
C02  36981913.67600 192574480.35600                                                                  36981904.25900 156482535.86100                                
C03  37015894.71500 192751465.01900                                                                  37015880.11600 156626314.45200                                
C07  37163134.74900 193518200.82100                                                                  37163129.92500 157249324.40700                                
C08  37873573.52700 197217659.58200                                                                  37873568.91600 160255520.21100                                
C09  39194860.42200 204097851.79800  39194862.22700 157821370.31500                                  39194851.48800 165846253.11600                                
C10  37302450.31900 194243621.47500  37302446.47700 150201462.53400                                  37302439.31200 157838878.83400                                
C12  23481594.41300 122274884.29400                                                                  23481588.85600  99358264.26900                                
C19  22665070.99900 118022990.65810                                  22665066.60300  88942590.20000  22665063.44000  95903261.86100  22665066.97800 119105736.90700
C20  25392978.20200 132227956.04900                                  25392981.40100  99647480.35000  25392971.48300 107445912.87100  25392971.85900 133441080.86600
C22  23100256.36500 120289090.26500                                  23100249.73500  90650449.84900  23100243.71300  97744676.10400  23100256.09700 121392692.60200
C30  24843533.96100 129366819.67200                                  24843538.69700  97491403.12000  24843537.94600 105121155.56200  24843531.54900 130553642.68200
C36  22396408.98800 116623982.12700                                  22396410.13100  87888535.90500  22396408.07600  94766624.19700  22396403.32300 117693999.65300
C39                                                                                                  25790206.51100 109126703.57100  25790193.55600 135528391.68010
> 2026 06 07 17 25 33.0000000  0 14
C01  38579689.78700 200894678.91200                                                                  38579686.14200 163243292.46100                                
C02  36982111.86200 192575512.70200                                                                  36982101.76600 156483374.69900                                
C03  37016039.36500 192752217.82600                                                                  37016024.56900 156626926.14600                                
C07  37162878.82900 193516870.17300                                                                  37162873.82600 157248243.11700                                
C08  37868940.78600 197193536.13900                                                                  37868935.96100 160235917.97300                                
C09  39200512.26900 204127289.19700  39200516.86200 157844133.14800                                  39200504.53200 165870173.44700                                
C10  37302157.10600 194242093.85400  37302153.24600 150200281.26000                                  37302145.81300 157837637.43700                                
C12  23490101.71200 122319184.62200                                                                  23490095.92200  99394261.87400                                
C19  22670303.76300 118050251.75900                                  22670302.10200  88963134.31700  22670296.92000  95925413.76900  22670303.04900 119133248.19400
C20  25402650.50800 132278318.75200                                  25402651.79400  99685433.87700  25402643.71800 107486836.66400  25402643.39600 133491905.63900
C22  23096591.41000 120270007.46400                                  23096584.62000  90636068.97900  23096578.04400  97729169.76700  23096590.51700 121373401.67610
C30  24836608.58900 129330756.33900                                  24836614.30700  97464225.73600  24836611.98400 105091851.21000  24836604.05000 130517248.58400
C36  22395052.90700 116616921.85400                                  22395056.64200  87883215.26700  22395052.97900  94760887.18200  22395046.92100 117686874.61600
C39  25784800.48900 134268233.11410                                  25784792.66200 101185069.58010                                  25784792.41200 135500006.22400
> 2026 06 07 17 25 48.0000000  0 14
C01  38579662.69800 200894538.16700                                                                  38579658.96300 163243178.06100                                
C02  36982310.51200 192576547.10100                                                                  36982300.66600 156484215.27800                                
C03  37016184.35400 192752972.53800                                                                  37016169.50500 156627539.41900                                
C07  37162620.65800 193515528.70700                                                                  37162616.10100 157247153.14000                                
C08  37864312.65500 197169436.22500                                                                  37864307.63400 160216334.88000                                
C09  39206164.88500 204156730.91100  39206175.66000 157866899.41600                                  39206158.13000 165894097.27300                                
C10  37301860.87300 194240551.08300  37301857.04900 150199088.31900                                  37301850.95600 157836383.88300                                
C12  23498619.64300 122363539.92100                                                                  23498614.46100  99430304.23100                                
C19  22675560.54400 118077619.71100                                  22675559.50800  88983758.92100  22675552.46700  95947652.44100  22675557.54200 119160867.19100
C20  25412326.33400 132328700.94900                                  25412326.10100  99723402.10500  25412318.86400 107527776.25300  25412319.70400 133542750.05800
C22  23092949.59600 120251043.75400                                  23092942.62700  90621777.83000  23092935.81900  97713760.20200  23092942.25200 121354264.06600
C30  24829687.13000 129294710.78500                                  24829693.17000  97437061.76000  24829689.50700 105062561.33700  24829680.30400 130480872.42500
C36  22393704.04600 116609900.76900                                  22393709.92500  87877924.12600  22393705.56500  94755181.92100  22393698.56100 117679789.07300
C39  25779404.77600 134240135.78800                                  25779392.87500 101163895.31300                                  25779398.21800 135471651.22100
> 2026 06 07 17 26 03.0000000  0 14
C01  38579635.87600 200894399.02500                                                                  38579632.30300 163243064.99900                                
C02  36982509.41200 192577583.10800                                                                  36982499.87000 156485057.18700                                
C03  37016329.59300 192753728.68700                                                                  37016314.79800 156628153.89900                                
C07  37162360.53800 193514176.08100                                                                  37162355.96400 157246054.08700                                
C08  37859688.95600 197145359.48900                                                                  37859683.84600 160196770.60100                                
C09  39211818.44700 204186176.58200  39211835.53000 157889668.71300                                  39211811.69200 165918024.31900                                
C10  37301561.44200 194238992.86400  37301557.72500 150197883.45200                                  37301554.24100 157835117.69200                                
C12  23507149.11700 122407949.63400                                                                  23507142.00500  99466390.67500                                
C19  22680837.87400 118105093.82300                                  22680837.67800  89004463.48300  22680827.72400  95969977.33000  22680832.22700 119188593.31800
C20  25422005.91200 132379101.89900                                  25422005.50100  99761384.42800  25421997.15600 107568731.15300  25422000.62300 133593613.40200
C22  23089330.42200 120232198.82400                                  23089323.90000  90607576.19800  23089316.62700  97698447.13300  23089321.86300 121335246.27300
C30  24822769.01300 129258682.86100                                  24822773.62300  97409911.06600  24822769.31700 105033285.82000  24822760.27500 130444514.00800
C36  22392363.36900 116602918.23200                                  22392370.39200  87872662.04800  22392364.31600  94749508.03100  22392358.33000 117672742.47100
C39  25774014.58500 134212068.27800                                  25774001.73800 101142743.45900  25774008.97500 109058273.36010  25774007.81300 135443326.26400
> 2026 06 07 17 26 18.0000000  0 14
C01  38579609.69800 200894263.06300                                                                  38579606.07100 163242954.56900                                
C02  36982708.77600 192578622.39800                                                                  36982698.82300 156485901.68600                                
C03  37016475.44000 192754487.99300                                                                  37016460.64500 156628770.90000                                
C07  37162098.72100 193512814.05800                                                                  37162093.87900 157244947.32400                                
C08  37855069.65300 197121307.63800                                                                  37855065.00700 160177226.52700                                
C09  39217473.27800 204215627.75500                                                                  39217466.75600 165941955.81900                                
C10  37301259.20600 194237420.86100  37301255.48900 150196667.88700                                  37301253.86300 157833840.31600                                
C12  23515689.08000 122452415.01600                                                                  23515681.50400  99502522.41000                                
C19  22686134.94900 118132675.42400                                  22686132.44800  89025249.11500  22686124.87100  95992389.63300  22686129.87500 119216427.96400
C20  25431688.84900 132429522.95200                                  25431689.61800  99799381.87500  25431680.61200 107609702.30600  25431682.20200 133644496.92200
C22  23085733.97700 120213474.49300                                  23085727.99100  90593465.45700  23085720.86200  97683232.05900  23085726.77600 121316350.17100
C30  24815853.41500 129222674.61400                                  24815857.13200  97382775.15300  24815852.82500 105004026.19800  24815845.58800 130408175.32400
C36  22391030.44700 116595975.79400                                  22391037.91700  87867430.19500  22391031.52000  94743866.74500  22391025.83700 117665736.40200
C39  25768630.72000 134184032.07000                                  25768625.05600 101121615.27300  25768625.05600 109035491.64700  25768624.48400 135415032.89900
> 2026 06 07 17 26 33.0000000  0 14
C01  38579582.84100 200894123.36200                                                                  38579578.94600 163242841.02700                                
C02  36982907.21200 192579657.88800                                                                  36982897.49100 156486743.03900                                
C03  37016620.44700 192755243.40300                                                                  37016605.75900 156629384.71300                                
C07  37161833.61600 193511435.58800                                                                  37161829.75700 157243827.12200                                
C08  37850453.63800 197097273.64100                                                                  37850449.92100 160157696.99000                                
C09  39223127.78700 204245077.13700                                                                  39223122.12300 165965885.88700                                
C10  37300952.68000 194235828.00200  37300949.17800 150195436.22500                                  37300948.85600 157832545.97700                                
C12  23524238.17500 122496928.71600                                                                  23524231.26000  99538693.38100                                
C19  22691450.91200 118160357.34300                                  22691444.76500  89046110.32300  22691441.72800  96014883.45700  22691446.96300 119244363.92100
C20  25441373.64500 132479956.75000                                  25441375.82500  99837388.99900  25441367.57000 107650683.92200  25441367.44500 133695393.36900
C22  23082158.99300 120194863.87900                                  23082153.61500  90579440.40300  23082147.27100  97668109.36600  23082152.91800 121297568.74500
C30  24808940.53300 129186679.22800                                  24808943.83900  97355648.96400  24808941.32000 104974777.04800  24808933.17100 130371849.67600
C36  22389703.27900 116589066.43400                                  22389710.55200  87862223.24600  22389705.29900  94738252.30100  22389698.45500 117658763.56000
C39  25763252.69800 134156020.17800                                  25763248.39200 101100505.32000  25763242.71000 109012706.70910  25763246.73000 135386763.99900
> 2026 06 07 17 26 48.0000000  0 14
C01  38579553.53600 200893971.00300                                                                  38579549.69400 163242717.21600                                
C02  36983103.41400 192580680.77800                                                                  36983093.15700 156487571.25110                                
C03  37016763.02400 192755986.00700                                                                  37016748.31800 156629988.14700                                
C07  37161563.74100 193510031.72800                                                                  37161561.68600 157242686.46500                                
C08  37845839.65900 197073248.78000                                                                  37845836.83600 160138174.87000                                
C09  39228780.70600 204274515.95200  39228834.01000 157958188.12910                                  39228776.32800 165989807.26700                                
C10  37300640.65100 194234205.45900  37300637.20300 150194181.60100                                  37300637.64900 157831227.57600                                
C12  23532793.48800 122541481.66000                                                                  23532788.03800  99574896.30600                                
C19  22696783.70800 118188130.48100                                  22696780.11600  89067040.27000  22696775.18400  96037451.44700  22696780.68800 119272391.90900
C20  25451059.35300 132530394.27100                                  25451061.87200  99875398.88400  25451054.36700 107691668.51800  25451054.51000 133746293.61600
C22  23078604.70200 120176358.24800                                  23078599.43100  90565494.48400  23078593.98000  97653072.01600  23078599.27000 121278893.31300
C30  24802028.52700 129150688.17700                                  24802032.01200  97328526.04100  24802030.83200 104945531.43500  24802021.45100 130335528.42300
C36  22388380.52500 116582181.16800                                  22388387.35100  87857034.48300  22388382.47300  94732657.44900  22388376.57600 117651815.06800
C39                                                                  25757868.72600 101079407.03500  25757870.63800 108989957.21500  25757869.38700 135358510.74800
> 2026 06 07 17 27 03.0000000  0 14
C01  38579529.48400 200893845.84700                                                                  38579525.46400 163242615.57000                                
C02  36983304.72600 192581730.87600                                                                  36983296.95300 156488424.68400                                
C03  37016910.83700 192756755.72400                                                                  37016896.07700 156630613.65200                                
C07  37161291.86300 193508591.70310                                                                  37161296.50900 157241557.65500                                
C08  37841235.34800 197049272.97900                                                                  37841233.06100 160118692.60500                                
C09  39234439.77200 204303983.93200  39234492.18200 157980974.62500                                                                                                
C10  37300330.69500 194232593.16100  37300327.28200 150192934.89300                                  37300327.96100 157829917.43300                                
C12  23541362.79200 122586113.36000                                                                  23541359.70100  99611163.27800                                
C19  22702142.96700 118216034.60600                                  22702139.37600  89088068.85900  22702134.33600  96060125.82000  22702137.58900 119300551.97700
C20  25460753.65500 132580875.02100                                  25460754.53100  99913441.38700  25460748.11600 107732688.24100  25460748.79500 133797237.46000
C22  23075078.85800 120157997.62700                                  23075073.74700  90551657.85600  23075068.56500  97638152.50200  23075074.10500 121260364.19400
C30  24795125.22300 129114741.65000                                  24795129.42300  97301436.70100  24795126.70700 104916322.02900  24795117.80800 130299252.15000
C36  22387070.40400 116575359.74000                                  22387076.78300  87851893.86800  22387072.28000  94727114.50700  22387065.43600 117644931.01000
C39                                                                  25752502.89100 101058350.38800  25752508.05500 108967252.58400                                
> 2026 06 07 17 27 18.0000000  0 14
C01  38579504.89600 200893717.74800                                                                  38579501.25100 163242511.46500                                
C02  36983505.57400 192582778.00800                                                                  36983493.47700 156489275.46500                                
C03  37017058.06000 192757522.33400                                                                  37017043.10300 156631236.59300                                
C07  37161024.57900 193507186.93500                                                                  37161027.34800 157240416.17800                                
C08  37836635.04000 197025316.07200                                                                  37836632.55600 160099225.70400                                
C09  39240098.76700 204333450.69900  39240096.98000 158003596.23310                                                                                                
C10  37300017.02300 194230960.85700  37300013.59200 150191672.71400                                  37300014.19900 157828591.16800                                
C12  23549942.90700 122630793.50400                                                                  23549939.97700  99647469.53100                                
C19  22707521.31100 118244039.21500                                  22707518.05900  89109173.21300  22707511.71500  96082881.79100  22707514.05600 119328813.44400
C20  25470449.88700 132631368.54200                                  25470449.49400  99951493.54500  25470444.11600 107773718.40500  25470443.75800 133848194.24400
C22  23071574.70700 120139751.93300                                  23071570.40000  90537907.87100  23071565.32500  97623326.40000  23071570.93600 121241951.16100
C30  24788224.42100 129078809.75200                                  24788229.97800  97274358.32500  24788224.52800 104887124.52500  24788216.34400 130262990.60700
C36  22385767.03700 116568571.84900                                  22385773.29200  87846778.51400  22385769.71800  94721598.81900  22385760.40800 117638080.91300
C39                                                                  25747144.31000 101037312.53200                                  25747157.15800 135302213.94510
> 2026 06 07 17 27 33.0000000  0 14
C01  38579476.91400 200893572.12700                                                                  38579473.19700 163242393.19300                                
C02  36983703.17000 192583807.60300                                                                  36983690.59000 156490112.14500                                
C03  37017201.85200 192758271.30400                                                                  37017186.82400 156631845.21800                                
C07  37160749.57400 193505752.09300                                                                  37160751.48600 157239250.27600                                
C08  37832035.89300 197001363.56800                                                                  37832032.62300 160079762.38900                                
C09  39245755.04500 204362901.77600  39245752.40000 158026369.65800                                                                                                
C10  37299696.88100 194229294.07000  37299693.14700 150190383.85500                                  37299694.23700 157827236.72000                                
C12  23558530.77800 122675507.14300                                                                  23558525.97100  99683802.94500                                
C19  22712915.50400 118272129.53900                                  22712913.68200  89130342.12400  22712905.39000  96105707.42600  22712908.51700 119357161.15500
C20  25480145.22600 132681859.98400                                  25480145.51200  99989544.14200  25480140.18700 107814746.86400  25480139.77600 133899148.96300
C22  23068089.64000 120121606.76900                                  23068086.44100  90524233.67600  23068081.24100  97608581.99000  23068086.26200 121223639.56000
C30  24781323.27900 129042878.27800                                  24781330.37300  97247280.26200  24781323.94100 104857927.27100  24781316.23900 130226729.39300
C36  22384467.40500 116561802.83300                                  22384473.87400  87841677.42000  22384470.37200  94716098.50500  22384462.02700 117631249.81600
C39                                                                  25741784.21100 101016282.53400                                  25741794.23500 135274052.05800
> 2026 06 07 17 27 48.0000000  0 14
C01  38579450.71800 200893435.55500                                                                  38579447.01900 163242282.17900                                
C02  36983902.48100 192584846.32300                                                                  36983890.36600 156490956.17600                                
C03  37017347.34100 192759029.21400                                                                  37017332.36700 156632461.05900                                
C07  37160473.89100 193504313.72600                                                                  37160473.67700 157238081.62200                                
C08  37827442.69600 196977442.15400                                                                  37827438.55000 160060324.32500                                
C09  39251413.20000 204392363.58800  39251409.09000 158049155.34010                                                                                                
C10  37299375.27400 194227619.35400  37299371.04000 150189088.83400                                  37299373.23700 157825875.91600                                
C12  23567129.72700 122720280.49600                                                                  23567124.59800  99720184.88900                                
C19  22718331.06900 118300331.91700                                  22718329.85400  89151595.53500  22718321.56300  96128624.09900  22718328.13900 119385622.25300
C20  25489845.72900 132732375.55100                                  25489847.76600 100027612.99600  25489841.11900 107855795.00900  25489841.29700 133950128.13500
C22  23064629.21400 120103588.90200                                  23064626.74800  90510655.35300  23064621.26200  97593940.99200  23064626.10500 121205456.37300
C30  24774427.83800 129006974.01300                                  24774435.21800  97220222.73500  24774427.98100 104828752.16700  24774420.45800 130190495.69600
C36  22383176.19000 116555079.17800                                  22383183.24800  87836610.50500  22383178.69200  94710635.03200  22383171.91900 117624464.50600
C39                                                                  25736428.75700 100995280.34600                                  25736443.76700 135245927.39500
> 2026 06 07 17 28 03.0000000  0 14
C01  38579425.71900 200893305.12100                                                                  38579421.87700 163242176.22800                                
C02  36984102.93600 192585891.13500                                                                  36984090.62400 156491805.19300                                
C03  37017494.01000 192759793.11200                                                                  37017479.00000 156633081.80900                                
C07  37160196.81400 193502869.17700                                                                  37160194.74100 157236907.74200                                
C08  37822854.50300 196953549.00600                                                                  37822849.92800 160040909.21400                                
C09  39257072.87300 204421833.05100                                                                                                                                
C10  37299051.68400 194225933.70700  37299046.87800 150187785.47900                                  37299050.00500 157824506.29300                                
C12  23575738.25400 122765110.35800                                                                  23575735.03700  99756612.80500                                
C19  22723767.55800 118328643.35400                                  22723767.43300  89172931.05000  22723759.60700  96151629.31200  22723767.00500 119414193.19900
C20  25499552.03900 132782912.35200                                  25499555.09500 100065697.67200  25499546.58900 107896860.24700  25499547.55400 134001128.55800
C22  23061192.76900 120085695.58900                                  23061190.37400  90497170.88800  23061184.56700  97579401.19800  23061189.64100 121187398.87200
C30  24767537.31000 128971094.46600                                  24767544.86900  97193183.80500  24767536.68500 104799597.14800  24767529.75200 130154286.97000
C36  22381893.24800 116548397.93300                                  22381899.96600  87831575.53700  22381895.53500  94705206.03400  22381888.74500 117617722.01800
C39  25731096.15900 133988566.42510                                  25731083.22100 100974303.68500  25731097.24900 108876674.10110  25731114.74200 135217854.99110
> 2026 06 07 17 28 18.0000000  0 14
C01  38579399.48700 200893168.31900                                                                  38579395.78800 163242065.06300                                
C02  36984302.12200 192586929.59900                                                                  36984289.68500 156492649.00200                                
C03  37017639.42800 192760550.51100                                                                  37017624.38300 156633697.28400                                
C07  37159916.36000 193501405.66900                                                                  37159913.51900 157235718.55000                                
C08  37818268.99000 196929671.61300                                                                  37818264.21900 160021506.90700                                
C09  39262731.49200 204451297.63200  39262720.30600 158094689.95210                                                                                                
C10  37298725.12800 194224224.81800  37298718.01600 150186464.11400                                  37298721.73300 157823117.67000                                
C12  23584354.23200 122809983.99400                                                                  23584353.23100  99793076.22200                                
C19                                                                  22729222.48900  89194339.04600  22729215.62700  96174712.67900  22729221.77400 119442861.23400
C20  25509259.54700 132833457.39300                                  25509263.67500 100103788.61200  25509254.11500 107937932.17900  25509254.70400 134052137.27700
C22  23057777.33700 120067914.43200                                  23057775.53200  90483770.95300  23057769.33200  97564952.54400  23057775.30000 121169454.56200
C30  24760649.46300 128935227.32700                                  24760657.18300  97166154.25900  24760649.62400 104770452.20700  24760639.97500 130118090.84200
C36  22380615.57700 116541746.49300                                  22380621.88500  87826562.99200  22380618.13200  94699801.17800  22380611.21700 117611009.49900
C39  25725755.87600 133960752.77600                                  25725743.06400 100953343.18600  25725764.43500 108854073.00300                                
> 2026 06 07 17 28 33.0000000  0 14
C01  38579371.79000 200893024.07900                                                                  38579367.94800 163241947.89900                                
C02  36984499.69900 192587960.64800                                                                  36984486.85100 156493486.87000                                
C03  37017783.31000 192761300.42500                                                                  37017768.37100 156634306.64600                                
C07  37159631.67000 193499922.28100                                                                  37159628.61500 157234513.27800                                
C08  37813686.01400 196905809.04900                                                                  37813681.40400 160002116.63800                                
C09  39268389.27200 204480756.26300  39268392.82800 158117469.21800                                                                                                
C10  37298394.80100 194222491.55100  37298384.41900 150185123.89800                                  37298388.58300 157821709.39400                                
C12  23592984.47000 122854900.27500                                                                  23592977.32200  99829574.14400                                
C19  22734694.96600 118385474.75010                                  22734695.32400  89215818.58200  22734690.23100  96197873.21800  22734695.05600 119471625.22000
C20  25518967.39400 132884009.35400                                  25518971.05700 100141884.78200  25518963.32000 107979009.77900  25518961.96200 134103153.04100
C22  23054383.29500 120050244.57000                                  23054382.24100  90470454.85400  23054375.64700  97550594.34300  23054381.99000 121151622.59700
C30  24753764.26100 128899371.96500                                  24753771.33700  97139133.60400  24753765.13600 104741316.87300  24753755.41500 130081906.57000
C36  22379343.08800 116535123.70600                                  22379349.46700  87821572.02800  22379345.85800  94694419.61100  22379338.51300 117604325.91200
C39  25720417.34500 133932959.50700                                  25720404.40700 100932398.02100                                                                
> 2026 06 07 17 28 48.0000000  0 14
C01  38579345.63000 200892887.57400                                                                  38579341.69900 163241836.96800                                
C02  36984698.76000 192588999.39200                                                                  36984686.64500 156494330.98900                                
C03  37017928.65600 192762057.87400                                                                  37017913.80700 156634922.16300                                
C07  37159349.16100 193498469.23810                                                                  37159344.01500 157233304.15800                                
C08  37809108.68500 196881976.45900                                                                  37809104.59300 159982750.75100                                
C09  39274048.82000 204510223.74300  39274053.64500 158140255.34100                                                                                                
C10  37298062.40200 194220749.19100                                                                  37298053.02000 157820293.53900                                
C12  23601627.43000 122899873.73800                                                                  23601612.68800  99866118.55400                                
C19  22740191.26300 118414087.04000                                  22740185.15200  89237380.74800  22740186.01000  96221123.00000  22740187.40400 119500499.99000
C20  25528678.95800 132934583.10300                                  25528680.17300 100179997.33200  25528676.00900 108020105.08800  25528673.38300 134154190.75800
C22  23051014.44800 120032701.20200                                  23051013.10800  90457234.12400  23051006.03200  97536338.94000  23051012.10700 121133918.30600
C30  24746884.63300 128863543.70600                                  24746890.38700  97112133.35700  24746883.77500 104712203.56000  24746876.41300 130045749.62600
C36  22378078.67600 116528544.59300                                  22378086.23400  87816613.94800  22378082.01700  94689073.50800  22378074.58400 117597686.37900
C39  25715086.21100 133905201.44500                                  25715074.02400 100911479.45100                                                                
> 2026 06 07 17 29 03.0000000  0 14
C01  38579319.68400 200892752.54200                                                                  38579315.61000 163241727.23700                                
C02  36984898.14300 192590039.60000                                                                  36984885.00900 156495176.23600                                
C03  37018074.25300 192762816.69700                                                                  37018059.54700 156635538.78100                                
C07  37159061.57700 193496970.27000                                                                  37159058.05700 157232086.24900                                
C08  37804536.11000 196858167.72600                                                                  37804532.50000 159963404.22200                                
C09  39279708.27900 204539693.92700  39279717.12500 158163043.56700                                                                                                
C10                                  37297709.56000 150182385.34510                                  37297714.68800 157818865.21300                                
C12  23610274.78700 122944897.82800                                                                  23610260.25900  99902704.18000                                
C19  22745703.82100 118442802.57600                                  22745702.62400  89259020.80900  22745701.06900  96244456.77700  22745701.35500 119529479.24700
C20  25538393.09500 132985172.10100                                  25538391.68300 100218121.36700  25538390.48600 108061212.79300  25538389.00300 134205243.87200
C22  23047669.20600 120015278.30200                                  23047666.54400  90444104.14500  23047659.50300  97522181.43100  23047665.43600 121116335.59600
C30  24740008.84700 128827736.70800                                  24740013.33300  97085149.12300  24740006.73900 104683107.49100  24740001.86100 130009614.11500
C36  22376822.23300 116522002.72100                                  22376830.52500  87811684.02200  22376827.11200  94683757.75500  22376818.42700 117591084.52100
C39                                                                  25709750.27000 100890582.86400                                  25709810.82900 135105951.05900
> 2026 06 07 17 29 18.0000000  0 14
C01  38579292.39800 200892610.85300                                                                  38579288.36000 163241612.15400                                
C02  36985096.25700 192591073.20300                                                                  36985082.92600 156496016.13900                                
C03  37018218.54600 192763568.75200                                                                  37018203.96500 156636149.88700                                
C07  37158770.63400 193495452.39600                                                                  37158769.06100 157230852.87600                                
C08  37799967.00000 196834374.69600                                                                  37799963.40900 159944070.48800                                
C09  39285366.20200 204569158.47200  39285379.88900 158185827.44600                                                                                                
C10                                  37297369.81600 150181048.10100                                  37297372.13900 157817417.72700                                
C12  23618929.41600 122989964.13300                                                                  23618915.81700  99939324.26500                                
C19  22751235.94600 118471613.10500                                  22751236.33900  89280732.55400  22751232.55100  96267867.72300  22751245.73800 119558554.65400
C20  25548108.78600 133035767.92000                                  25548107.91100 100256250.58400  25548105.33800 108102326.07100  25548107.42800 134256303.92000
C22  23044345.40700 119997967.84100                                  23044341.86900  90431058.91700  23044334.79300  97508115.31300  23044341.45800 121098866.32900
C30  24733135.51000 128791943.12400                                  24733138.51200  97058175.01800  24733133.66900 104654022.32400  24733128.30900 129973492.14300
C36  22375572.06300 116515489.97800                                  22375580.31800  87806776.04500  22375576.22600  94678465.64700  22375568.59600 117584512.07000
C39                                                                  25704430.19800 100869701.98000                                  25704473.92300 135077988.93200
> 2026 06 07 17 29 33.0000000  0 14
C01  38579264.43300 200892465.27200                                                                  38579260.52000 163241493.86300                                
C02  36985293.74500 192592102.83900                                                                  36985280.07500 156496852.83100                                
C03  37018362.08700 192764316.73800                                                                  37018347.47100 156636757.71800                                
C07  37158476.59900 193493918.33200                                                                  37158476.81300 157229606.38900                                
C08  37795401.68000 196810600.25500                                                                  37795397.82000 159924751.85700                                
C09  39291023.15900 204598620.14800  39291043.10100 158208609.13200                                                                                                
C10  37297048.01300 194215517.42010  37297024.35400 150179654.63700                                  37297025.94500 157815953.46500                                
C12  23627595.91000 123035075.41200                                                                  23627578.32600  99975980.67000                                
C19  22756788.28000 118500521.20500                                  22756785.70700  89302517.84500  22756779.72100  96291357.85600  22756795.71300 119587728.12700
C20  25557826.96200 133086373.07400                                  25557829.08800 100294386.81400  25557820.85000 108143446.90300  25557827.06900 134307373.35000
C22  23041043.76500 119980772.70400                                  23041039.76300  90418100.63900  23041032.57900  97494142.91500  23041039.83400 121081513.49400
C30  24726265.38900 128756166.04200                                  24726266.94300  97031213.37700  24726263.69100 104624950.58700  24726256.47200 129937386.85700
C36  22374327.82500 116509008.96000                                  22374335.61600  87801891.99400  22374329.41500  94673199.36400  22374324.16200 117577971.63900
C39  25699119.22000 133822073.52310                                  25699114.61000 100848838.91000                                                                
> 2026 06 07 17 29 48.0000000  0 14
C01  38579235.82500 200892316.56300                                                                  38579231.78600 163241373.02400                                
C02  36985490.51900 192593129.40400                                                                  36985476.88500 156497687.01900                                
C03  37018505.07500 192765061.40100                                                                  37018490.51200 156637362.81800                                
C07  37158179.52600 193492368.85600                                                                  37158181.27800 157228347.36700                                
C08  37790839.70000 196786845.27600                                                                  37790835.62600 159905448.99500                                
C09  39296679.65200 204628079.60200                                                                                                                                
C10  37296693.70600 194213695.34400  37296676.46200 150178245.71000                                  37296675.94400 157814472.81300                                
C12                                                                                                  23636248.96600 100012673.83000                                
C19  22762359.44800 118529527.43700                                  22762357.26800  89324377.03900  22762349.42400  96314927.68600  22762364.75500 119617000.58200
C20  25567547.26300 133136988.00000                                  25567552.12400 100332530.45000  25567538.88300 108184575.68900  25567545.70900 134358452.63300
C22  23037764.37100 119963693.88100                                  23037759.72500  90405229.96000  23037753.39900  97480264.99600  23037760.42200 121064277.90000
C30  24719397.64400 128720406.64700                                  24719399.55600  97004265.00200  24719396.17900 104595893.18100  24719388.71000 129901299.30700
C36  22373089.80500 116502560.36800                                  22373096.47100  87797032.37700  22373090.39500  94667959.42600  22373085.69600 117571463.90400
C39  25693805.58000 133794413.42100                                  25693804.72300 100827994.12100                                                                
> 2026 06 07 17 30 03.0000000  0 14
C01  38579209.66400 200892180.66500                                                                  38579205.82300 163241262.61300                                
C02  36985689.84800 192594168.75800                                                                  36985677.19600 156498531.64300                                
C03  37018650.44000 192765818.80000                                                                  37018635.94800 156637978.31800                                
C07  37157882.29300 193490819.96100                                                                  37157886.40300 157227088.82500                                
C08  37786284.02800 196763125.69300                                                                  37786279.84700 159886174.93100                                
C09  39302338.71800 204657552.70000                                                                                                                                
C10  37296342.95500 194211869.27800  37296327.55200 150176833.73400                                  37296325.30000 157812989.02900                                
C12  23644939.99400 123125340.70010                                                                  23644930.38100 100049416.50700                                
C19  22767950.12900 118558647.34800                                  22767951.95200  89346322.03800  22767944.39300  96338590.01300  22767955.75800 119646387.76800
C20  25577272.80100 133187628.44500                                  25577277.87600 100370693.27100  25577264.70600 108225725.13900  25577269.24500 134409557.59000
C22  23034509.77800 119946747.40300                                  23034505.00700  90392459.05100  23034499.14600  97466494.61100  23034506.38300 121047175.90500
C30  24712535.61800 128684681.08200                                  24712539.37000  96977342.14800  24712535.63600 104566863.27300  24712526.96900 129865245.94300
C36  22371861.25600 116496160.06900                                  22371865.34800  87792209.17700  22371861.50700  94662758.70600  22371856.43200 117565004.87800
C39  25688501.44700 133766793.60100                                  25688500.92900 100807179.66500  25688488.90300 108696401.09310  25688502.80500 134994043.44510
> 2026 06 07 17 30 18.0000000  0 14
C01  38579178.51900 200892018.53400                                                                  38579174.83800 163241130.89100                                
C02  36985884.35200 192595181.85500                                                                  36985871.25400 156499354.84100                                
C03  37018790.76500 192766549.89200                                                                  37018776.23800 156638572.36500                                
C07  37157577.34000 193489232.62900                                                                  37157590.06300 157225799.17900                                
C08  37781727.83900 196739402.53700                                                                  37781723.40700 159866897.97100                                
C09  39307992.74500 204687000.18300                                                                                                                                
C10  37295983.85900 194210000.21200  37295969.81400 150175388.40100                                  37295966.15100 157811470.27000                                
C12  23653628.12800 123170579.50000                                                                  23653616.06600 100086176.64000                                
C19  22773557.19700 118587841.86600                                  22773560.30600  89368323.17800  22773552.87200  96362312.93000  22773559.93000 119675812.86810
C20  25586995.71100 133238254.99100                                  25586998.85600 100408845.61300  25586990.70800 108266863.28200  25586992.12000 134460648.49400
C22  23031272.64400 119929894.37400                                  23031268.12300  90379758.53100  23031263.15600  97452800.13500  23031269.82100 121030168.20600
C30  24705673.02000 128648950.57600                                  24705678.23700  96950415.54100  24705675.46800 104537829.33600  24705664.62100 129829187.62900
C36  22370633.97600 116489768.88300                                  22370637.42500  87787392.82200  22370635.31600  94657565.38100  22370629.06200 117558555.05100
C39  25683196.97400 133739174.93500                                  25683194.95500 100786366.08700  25683189.21900 108673977.18900  25683197.13500 134966171.26100
> 2026 06 07 17 30 33.0000000  0 14
C01  38579150.75000 200891873.98500                                                                  38579146.87300 163241013.43400                                
C02  36986082.35900 192596212.55800                                                                  36986069.54700 156500192.38400                                
C03  37018934.37900 192767298.35000                                                                  37018919.99400 156639180.57400                                
C07  37157273.22700 193487650.72300                                                                                                                                
C08  37777179.70800 196715719.67300                                                                  37777175.16900 159847653.75400                                
C09  39313650.47100 204716465.81300                                                                                                                                
C10  37295625.21000 194208131.91600  37295611.46900 150173943.71500                                  37295607.68000 157809923.12810                                
C12  23662328.68000 123215883.35500                                                                  23662316.56500 100122989.65100                                
C19  22779187.61800 118617154.55900                                  22779186.68900  89390413.25200  22779182.38300  96386131.82600  22779186.77900 119705394.28500
C20  25596724.00100 133288911.14300                                  25596725.34100 100447020.28400  25596720.08700 108308025.58100  25596721.07000 134511769.38500
C22  23028062.24200 119913178.65700                                  23028058.04300  90367161.56900  23028053.68300  97439217.30200  23028059.34700 121013299.12400
C30  24698819.08800 128613259.23200                                  24698824.37700  96923518.48000  24698821.89300 104508827.26600  24698811.33300 129793168.88200
C36  22369416.16700 116483430.52300                                  22369421.56300  87782616.28600  22369419.93700  94652414.99200  22369412.09200 117552158.58200
C39  25677901.38200 133711601.01600                                  25677899.39800 100765586.41300  25677888.71200 108651560.77200  25677899.38000 134938344.48300
> 2026 06 07 17 30 48.0000000  0 14
C01  38579125.18000 200891740.74000                                                                  38579121.42700 163240905.21300                                
C02  36986282.67000 192597254.54700                                                                  36986269.78700 156501039.17900                                
C03  37019080.19000 192768058.07200                                                                  37019065.91300 156639797.91500                                
C07  37156969.00700 193486067.99400                                                                                                                                
C08  37772638.27800 196692070.97000                                                                  37772633.88200 159828437.29300                                
C09  39319311.28800 204745943.42400                                                                                                                                
C10  37295265.31000 194206258.22100  37295251.37200 150172494.78000                                  37295248.04800 157808400.58300                                
C12  23671039.18500 123261245.77000                                                                  23671030.01900 100159850.22500                                
C19  22784837.94600 118646578.60300                                  22784834.01500  89412587.45700  22784830.94200  96410041.42500  22784838.91100 119735088.50300
C20  25606456.56100 133339590.35800                                  25606457.61500 100485212.38600  25606450.18100 108349206.58000  25606451.91500 134562913.56700
C22  23024877.48200 119896594.22800                                  23024873.78300  90354663.51300  23024869.28000  97425741.14700  23024874.26500 120996562.58600
C30  24691972.19600 128577601.16800                                  24691976.53800  96896646.55100  24691972.35700 104479852.26700  24691965.04900 129757183.71500
C36  22368207.09500 116477138.74700                                  22368214.01000  87777874.76300  22368212.70600  94647302.39500  22368204.20000 117545809.05200
C39  25672613.45500 133684065.70100                                  25672616.36800 100744835.76600  25672602.71600 108629186.20300  25672610.93600 134910556.65900
> 2026 06 07 17 31 03.0000000  0 14
C01  38579095.78500 200891587.57000                                                                  38579091.80000 163240780.75200                                
C02  36986479.06900 192598276.61700                                                                  36986465.86400 156501869.62400                                
C03  37019222.17700 192768797.63500                                                                  37019208.02500 156640398.89400                                
C07  37156658.85500 193484453.20300                                                                  37156653.63700 157221962.83110                                
C08  37768097.11600 196668425.16600                                                                  37768093.30900 159809223.16100                                
C09  39324968.78100 204775401.45300                                                                                                                                
C10  37294897.90500 194204347.80300  37294883.89600 150171017.49000                                                                                                
C12  23679753.37200 123306634.93100                                                                  23679747.85000 100196732.69000                                
C19  22790503.17700 118676082.78400                                  22790501.42600  89434821.97000  22790494.68900  96434016.07400  22790514.25600 119764812.32310
C20  25616187.56600 133390261.23200                                  25616189.29900 100523398.09300  25616179.52500 108390380.69800  25616184.47500 134614049.26200
C22  23021711.96600 119880109.88400                                  23021708.87500  90342240.89700  23021704.03300  97412346.30500  23021708.62500 120979927.09800
C30  24685125.53700 128541945.37700                                  24685128.87900  96869776.30800  24685123.84000 104450879.10900  24685119.31900 129721200.82800
C36  22367001.84700 116470862.05500                                  22367008.28000  87773144.64000  22367007.26100  94642202.08700  22366998.93500 117539474.81600
C39  25667326.24400 133656537.79500                                  25667326.02900 100724090.68200  25667319.13200 108606817.48900  25667323.04500 134882776.04200
> 2026 06 07 17 31 18.0000000  0 14
C01  38579067.89200 200891442.17600                                                                  38579063.80000 163240662.62400                                
C02  36986676.89700 192599306.44800                                                                  36986662.45900 156502706.51200                                
C03  37019365.68300 192769544.87700                                                                  37019351.54900 156641006.14600                                
C07  37156348.11200 193482834.14200                                                                  37156338.80300 157220629.17300                                
C08  37763561.56400 196644810.09200                                                                  37763558.52700 159790034.00900                                
C09  39330627.36500 204804867.64200  39330640.21300 158368144.80210                                                                                                
C10  37294528.57000 194202428.48500  37294514.72200 150169533.31100                                  37294513.23800 157805290.60710                                
C12  23688479.79900 123352078.63000                                                                  23688475.04500 100233659.41500                                
C19  22796191.28000 118705694.70500                                  22796188.22500  89457137.64100  22796182.39900  96458078.15700  22796196.44500 119794695.98300
C20  25625920.48300 133440951.06900                                  25625923.96800 100561598.16800  25625915.46200 108431570.34700  25625920.03600 134665204.20400
C22  23018571.37800 119863753.54100                                  23018568.57300  90329914.74600  23018562.80100  97399055.47000  23018568.16200 120963420.75500
C30  24678284.50700 128506320.00800                                  24678286.90100  96842928.98900  24678282.34500 104421930.67000  24678278.57400 129685248.59600
C36  22365805.08700 116464628.19100                                  22365810.50200  87768446.75000  22365810.66200  94637136.55500  22365802.24600 117533183.72800
C39  25662044.57100 133629044.62000                                  25662045.94700 100703371.95900  25662039.78300 108584477.14800  25662045.73300 134855030.70000
> 2026 06 07 17 31 33.0000000  0 14
C01  38579040.76600 200891300.90700                                                                  38579036.40600 163240547.78000                                
C02  36986875.45700 192600340.31700                                                                  36986860.39400 156503546.53300                                
C03  37019509.94000 192770296.10000                                                                  37019495.80600 156641616.57400                                
C07  37156035.92300 193481207.11500                                                                  37156024.55800 157219306.17100                                
C08  37759031.17700 196621222.10000                                                                  37759028.92600 159770866.86200                                
C09                                  39336301.01200 158390933.23100                                                                                                
C10  37294156.43000 194200496.55000  37294143.31400 150168039.32000                                  37294143.79600 157803728.28200                                
C12  23697216.78600 123397572.71100                                                                  23697211.37200 100270627.05000                                
C19  22801898.62800 118735410.31600                                  22801894.19700  89479531.39800  22801891.67700  96482224.49700  22801899.55800 119824684.23800
C20  25635655.68800 133491656.02500                                  25635661.15600 100599809.62100  25635654.47300 108472772.26800  25635658.79700 134716374.37300
C22  23015454.91400 119847521.67900                                  23015451.96500  90317682.34900  23015445.51400  97385865.76200  23015451.37500 120947039.99800
C30  24671447.28300 128470721.63400                                  24671450.12400  96816101.95800  24671446.31800 104393004.12300  24671441.90400 129649323.55600
C36  22364615.36800 116458433.32000                                  22364619.87100  87763778.25900  22364620.88900  94632102.70000  22364613.02700 117526931.94700
C39                                                                  25656771.38700 100682676.68800  25656767.08100 108562162.16400  25656774.81800 134827316.67500
> 2026 06 07 17 31 48.0000000  0 14
C01  38579012.39000 200891153.37600                                                                  38579008.13800 163240427.95100                                
C02  36987072.98200 192601367.96500                                                                                                                                
C03  37019653.01700 192771040.87000                                                                  37019638.72200 156642221.76300                                
C07  37155719.83800 193479561.82000                                                                  37155707.18600 157217969.25000                                
C08  37754503.77500 196597650.92400                                                                  37754502.64900 159751713.37500                                
C09                                  39341960.93600 158413716.96600                                                                                                
C10  37293776.94500 194198475.64310  37293767.86800 150166527.58800                                  37293769.85100 157802144.16010                                
C12  23705961.36700 123443106.61800                                                                  23705955.48900 100307627.01500                                
C19  22807622.89800 118765218.86300                                  22807620.07500  89501995.34300  22807616.18000  96506446.50100  22807623.82800 119854766.34900
C20                                                                  25645398.00400 100638024.54900  25645393.32200 108513977.82300  25645404.75900 134767549.17900
C22  23012360.17700 119831404.02900                                  23012356.47900  90305536.01300  23012349.99200  97372768.83400  23012356.01400 120930774.46200
C30  24664613.27500 128435140.15800                                  24664616.75900  96789287.70700  24664614.50800 104364091.33200  24664608.87900 129613415.65800
C36  22363430.49100 116452266.97200                                  22363434.19000  87759131.27000  22363434.70800  94627092.04700  22363429.07900 117520708.98300
C39                                                                  25651500.56100 100661997.05200  25651497.79200 108539864.06000  25651506.29700 134799623.69800
> 2026 06 07 17 32 03.0000000  0 14
C01  38578982.60300 200890998.53700                                                                  38578978.42100 163240302.16200                                
C02  36987269.11200 192602388.32200                                                                  36987253.28000 156505173.83310                                
C03  37019794.61100 192771778.23400                                                                  37019780.24500 156642820.99600                                
C07  37155399.66000 193477897.19300                                                                  37155386.68700 157216616.67600                                
C08  37749979.83800 196574095.58400                                                                  37749979.19500 159732572.76900                                
C09                                  39347618.26800 158436495.06500                                                                                                
C10                                  37293388.11500 150164997.37600                                  37293391.86800 157800536.15000                                
C12  23714712.81100 123488678.90700                                                                  23714707.66500 100344658.22600                                
C19  22813366.28800 118795119.51300                                  22813363.62600  89524528.50800  22813355.72800  96530743.14800  22813364.09000 119884941.23800
C20                                                                  25655136.47900 100676241.74900  25655131.99400 108555185.93500  25655155.90200 134818727.20900
C22  23009287.00900 119815399.70700                                  23009282.20300  90293475.11100  23009276.27000  97359764.03000  23009282.07700 120914623.28400
C30  24657782.69800 128399574.92700                                  24657786.55700  96762485.70500  24657785.95000 104335191.72100  24657775.35400 129577524.24100
C36  22362250.11700 116446128.04400                                  22362255.60200  87754505.01200  22362250.83100  94622103.73800  22362250.17000 117514513.75200
C39                                                                  25646235.45400 100641332.17400  25646232.14800 108517581.99300  25646241.94000 134771950.75800
> 2026 06 07 17 32 18.0000000  0 14
C01  38578952.24300 200890840.93000                                                                  38578948.27600 163240174.09100                                
C02  36987464.61700 192603405.81800                                                                  36987449.01700 156506000.67000                                
C03  37019935.65200 192772512.64700                                                                  37019921.23100 156643417.77400                                
C07  37155076.83900 193476217.87100                                                                  37155064.38400 157215252.12400                                
C08  37745460.35100 196550560.61200                                                                  37745459.29700 159713448.71000                                
C09  39353260.93000 204922767.36810  39353273.72500 158459271.01600                                                                                                
C10                                  37293004.62800 150163452.04300                                  37293009.52400 157798912.38200                                
C12  23723472.17000 123534293.75100                                                                  23723468.25700 100381724.06900                                
C19  22819125.74200 118825116.08000                                  22819124.04500  89547134.08800  22819114.93200  96555117.72300  22819123.83000 119915213.06700
C20  25664932.04500 133644015.20110                                  25664874.95300 100714464.48100  25664872.25500 108596477.07110  25664903.49000 134869912.62900
C22  23006236.23100 119799513.29100                                  23006230.69200  90281503.03300  23006225.38500  97346855.01600  23006230.26300 120898591.09300
C30  24650955.94500 128364030.75700                                  24650960.46600  96735699.53100  24650960.09000 104306309.19200  24650950.08400 129541653.91000
C36  22361076.15800 116440020.90300                                  22361086.27100  87749902.72400  22361075.92500  94617141.25900  22361076.92600 117508350.56200
C39                                                                  25640976.18900 100620685.54600  25640971.32900 108495319.58600                                
> 2026 06 07 17 32 33.0000000  0 14
C01  38578926.28000 200890705.91300                                                                  38578922.43800 163240064.39300                                
C02  36987664.50000 192604445.95100                                                                  36987648.81100 156506845.80700                                
C03  37020080.99800 192773269.57200                                                                  37020066.59600 156644032.83000                                
C07  37154756.26800 193474549.27200                                                                  37154744.93900 157213896.31300                                
C08  37740949.99600 196527071.50800                                                                  37740947.85100 159694361.94100                                
C09  39358920.28200 204952244.07700  39358932.75500 158482064.37800                                                                                                
C10                                  37292622.24900 150161911.39800                                  37292626.85900 157797293.38800                                
C12  23732245.89600 123579976.45400                                                                  23732241.80400 100418844.95200                                
C19  22824909.17700 118855233.95500                                  22824908.73000  89569831.05200  22824900.20700  96579590.98500  22824907.60400 119945607.31200
C20                                                                                                  25674618.41300 108637717.72400                                
C22  23003212.84600 119783770.36600                                  23003207.37800  90269639.12600  23003202.26700  97334062.64000  23003206.07400 120882703.74500
C30  24644138.98400 128328533.29700                                  24644143.88000  96708948.62800  24644142.18300 104277464.68900  24644135.07100 129505830.78300
C36  22359915.51100 116433970.81900                                  22359927.28700  87745343.46300  22359912.31200  94612225.08000  22359915.17100 117502245.04600
C39  25635732.47100 133492015.95810                                  25635724.25100 100600076.20700  25635717.71100 108473097.34300  25635728.91500 134716681.70410
> 2026 06 07 17 32 48.0000000  0 14
C01  38578900.33400 200890570.89700                                                                  38578896.47400 163239954.64100                                
C02  36987864.36500 192605486.00000                                                                  36987848.49700 156507693.99410                                
C03  37020226.25500 192774026.23300                                                                  37020211.83500 156644647.71900                                
C07  37154432.96400 193472868.75200                                                                  37154423.61900 157212530.85400                                
C08  37736444.10700 196503605.67200                                                                  37736440.76500 159675294.06500                                
C09  39364580.11700 204981720.55000  39364591.66000 158504857.55100                                                                                                
C10                                  37292236.77900 150160357.86000                                  37292239.88800 157795660.76200                                
C12  23741027.02000 123625703.97800                                                                  23741024.42900 100456002.23300                                
C19  22830712.08800 118885450.19200                                  22830712.91000  89592602.10600  22830705.19100  96604144.11500  22830708.81800 119976100.71800
C20                                                                  25684369.68200 100790981.25310  25684366.55500 108678961.18510                                
C22  23000212.79800 119768148.37400                                  23000207.36600  90257866.35400  23000202.50500  97321368.50400  23000205.97200 120866938.39500
C30  24637327.54500 128293060.21100                                  24637332.42300  96682216.13200  24637329.18900 104248640.03000  24637323.93500 129470032.28700
C36  22358759.22400 116427955.41900                                  22358772.48300  87740810.06300  22358756.68700  94607336.81200  22358758.61700 117496174.18300
C39  25630483.83800 133464695.11200                                  25630473.47400 100579487.15500  25630471.06200 108450896.91000  25630486.14400 134689110.04900
