     3.05           OBSERVATION DATA    M                   RINEX VERSION / TYPE
rtklib_java         USER                20260627 031352     PGM / RUN BY / DATE 
ROVER                                                       MARKER NAME         
ROVER                                                                           MARKER NUMBER       
USER                AGENCY                                  OBSERVER / AGENCY   
                    UNKNOWN                                 REC # / TYPE / VERS 
                    UNKNOWN                                                     ANT # / TYPE        
  -492860.3329  5551481.2314  3092889.6323                  APPROX POSITION XYZ 
        0.0000        0.0000        0.0000                  ANTENNA: DELTA H/E/N
C   10 C2I L2I C7I L7I C5P L5P C6I L6I C1P L1P              SYS / # / OBS TYPES 
  2026    06    07    17    00   18.0000000     GPS                  TIME OF FIRST OBS
                                                            END OF HEADER       
> 2026 06 07 17 00 18.0000000  0 13
C01  38582162.03809 200907540.10209              00              00              00              00  38582157.28509 163253741.86609              00              00
C02  36961861.07709 192470049.90709              00              00              00              00  36961844.56609 156397675.42209              00              00
C03  37001066.89209 192674235.16309              00              00              00              00  37001048.30909 156563557.15509              00              00
C07  37175104.26109 193580527.60909              00              00              00              00  37175093.96809 157299992.52109              00              00
C08  38355126.52309 199725211.63509              00              00              00              00  38355122.62809 162293106.72009              00              00
C09  38634669.12609 201180806.80009  38634677.61309 155565788.52809              00              00              00              00              00              00
C10              00              00  37314548.80909 150250203.69409              00              00  37314544.59209 157890082.62209              00              00
C12  22691289.91209 118159482.59509              00              00              00              00  22691285.30209  96014238.40509              00              00
C19  22249106.01809 115856981.63609              00              00  22249105.30409  87310262.60709  22249097.74509  94143186.73309  22249100.64009 116919821.08209
C20  24451758.43809 127326786.26109              00              00  24451761.15409  95953940.68309  24451753.13109 103463312.62109  24451753.25609 128494946.06809
C22  23574002.06409 122756002.76409              00              00              00              00  23573995.64909  99749284.74009  23574002.51009 123882211.39109
C36  22570957.35609 117532851.18509              00              00  22570962.50309  88573487.17709  22570982.15909  95505137.05509  22570953.40709 118611070.36109
C39  26358757.25909 137256812.47209              00              00  26358767.10409 103437434.45209  26358765.38909 111532563.46109  26358757.68809 138516269.45509
> 2026 06 07 17 00 33.0000000  0 13
C01  38582143.36509 200907443.18009              00              00              00              00  38582138.68309 163253663.12309              00              00
C02  36962066.23109 192471118.37109              00              00              00              00  36962049.82709 156398543.66709              00              00
C03  37001221.13809 192675039.67309              00              00              00              00  37001202.87609 156564210.88109              00              00
C07  37175127.45509 193580652.57909              00              00              00              00              00              00              00              00
C08  38350156.84409 199699334.62509              00              00              00              00  38350153.12809 162272079.60309              00              00
C09  38640199.39209 201209577.22309  38640201.51809 155588035.55209              00              00              00              00              00              00
C10  37314599.55709 194306910.88309  37314601.54009 150250418.12609              00              00  37314597.85909 157890307.94409              00              00
C12  22698517.68209 118197114.97809              00              00              00              00  22698512.50009  96044817.74909              00              00
C19  22252162.39009 115872896.66409              00              00  22252162.72909  87322256.24109  22252153.97309  94156118.97809  22252156.81509 116935882.11909
C20  24460829.54009 127374023.86309              00              00  24460832.20309  95989539.12709  24460824.41209 103501697.06509  24460825.73409 128542617.07209
C22              00              00              00              00              00              00              00              00  23568279.79509 123852139.92109
C36  22568800.86909 117521624.05409              00              00  22568805.08609  88565026.42409  22568800.15419  95495978.48219  22568796.54509 118599740.26409
C39  26352785.59209 137225715.49509              00              00  26352792.34709 103413999.53209  26352787.93309 111507294.59809  26352784.35909 138484887.14909
> 2026 06 07 17 00 48.0000000  0 13
C01  38582125.97809 200907352.83309              00              00              00              00  38582121.33209 163253589.75409              00              00
C02  36962272.69009 192472193.63009              00              00              00              00  36962256.42909 156399417.39609              00              00
C03  37001376.68809 192675850.82809              00              00              00              00  37001358.69409 156564870.01109              00              00
C07  37175149.48709 193580769.08509              00              00              00              00              00              00              00              00
C08  38345191.72209 199673478.65809              00              00              00              00  38345188.13009 162251069.58109              00              00
C09  38645734.53609 201238365.92109  38645728.97909 155610296.68509              00              00              00              00              00              00
C10  37314652.68209 194307176.89809  37314652.05609 150250623.84109              00              00  37314648.42909 157890524.16109              00              00
C12  22705762.14109 118234834.29509              00              00              00              00  22705756.13709  96075467.69909              00              00
C19  22255243.22409 115888939.44209              00              00  22255243.65309  87334346.14409  22255234.71809  94169155.03009  22255236.98709 116952072.04909
C20  24469911.22109 127421313.68509              00              00  24469913.15109  96025176.91809  24469904.68109 103540123.91809  24469905.71809 128590340.71609
C22              00              00              00              00              00              00              00              00  23562567.64019 123822145.11319
C36  22566655.44309 117510450.54409              00              00  22566659.05209  88556606.08109  22566657.44409  95486899.13409  22566650.88609 118588464.31209
C39  26346821.23409 137194656.72509              00              00  26346812.49609 103390593.86609  26346818.41009 111482056.76609  26346818.92909 138453543.55709
> 2026 06 07 17 01  3.0000000  0 12
C01  38582106.17909 200907249.89809              00              00              00              00  38582101.46209 163253506.13609              00              00
C02  36962476.75409 192473256.48209              00              00              00              00  36962460.92209 156400281.05009              00              00
C03  37001529.73609 192676649.33409              00              00              00              00  37001512.01009 156565518.90309              00              00
C07  37175166.60609 193580857.69609              00              00              00              00              00              00              00              00
C08  38340226.97509 199647624.62609              00              00              00              00  38340223.77609 162230061.10909              00              00
C09  38651269.12609 201267153.61009  38651256.08209 155632557.02909              00              00              00              00              00              00
C10  37314698.42609 194307412.48909  37314696.81809 150250805.94109              00              00  37314692.99409 157890715.56209              00              00
C12  22713016.98209 118272621.03109              00              00              00              00  22713012.62209  96106172.46309              00              00
C19  22258344.98209 115905090.66209              00              00  22258344.53609  87346517.76009  22258336.81609  94182279.19109  22258337.85309 116968371.44909
C20  24478999.19209 127468636.23809              00              00  24478998.51309  96060839.31709  24478990.88309 103578577.31809  24478994.11709 128638097.41209
C36              00              00              00              00  22564519.38009  88548211.65009  22564518.73609  95477847.68109  22564511.78509 118577223.09409
C39  26340859.18109 137163617.03109              00              00  26340851.14009 103367202.24409  26340855.03509 111456834.42009  26340856.23209 138422218.91909
> 2026 06 07 17 01 18.0000000  0 12
C01  38582082.80709 200907128.40809              00              00              00              00  38582078.12509 163253407.37809              00              00
C02  36962677.28009 192474300.92709              00              00              00              00  36962661.75209 156401129.79309              00              00
C03  37001679.22809 192677429.31209              00              00              00              00  37001661.73409 156566152.70309              00              00
C07  37175177.13109 193580912.60109              00              00              00              00  37175174.82619 157300320.32719              00              00
C08  38335261.33409 199621766.58909              00              00              00              00  38335258.70709 162209049.38609              00              00
C09  38656802.26909 201295934.17009  38656782.04109 155654811.96309              00              00              00              00              00              00
C10  37314737.04109 194307611.66509  37314734.73609 150250959.95409              00              00  37314730.55509 157890877.34409              00              00
C12  22720284.60009 118310468.88309              00              00              00              00  22720281.56209  96136927.00909              00              00
C19  22261466.32509 115921344.23009              00              00  22261464.75309  87358766.51309  22261458.28409  94195486.52509  22261459.76709 116984774.16409
C20  24488091.71909 127515985.22709              00              00  24488089.50309  96096521.71309  24488084.58909 103617052.22509  24488086.35809 128685880.80209
C36  22562382.87019 117488191.79019              00              00  22562384.76409  88539838.53609  22562384.42509  95468819.19009  22562379.83209 118566010.34709
C39  26334900.00409 137132590.27609              00              00  26334898.61109 103343820.36909  26334895.62709 111431622.63509  26334896.19809 138390907.41509
> 2026 06 07 17 01 33.0000000  0 12
C01  38582064.20509 200907031.86209              00              00              00              00  38582059.84509 163253328.95909              00              00
C02  36962882.57709 192475370.49009              00              00              00              00  36962867.42409 156401998.93809              00              00
C03  37001833.49109 192678234.19509              00              00              00              00  37001816.35509 156566806.75809              00              00
C07              00              00              00              00              00              00  37175186.95919 157300382.09819              00              00
C08  38330303.21609 199595948.13609              00              00              00              00  38330300.89309 162188069.81809              00              00
C09  38662300.80019 201324741.99219  38662315.02409 155677095.06109              00              00              00              00              00              00
C10  37314776.88909 194307817.91609  37314774.13709 150251119.48109              00              00  37314769.86709 157891044.99209              00              00
C12  22727574.35709 118348421.42709              00              00              00              00  22727571.48009  96167766.48409              00              00
C19  22264615.58009 115937743.53909              00              00  22264614.11509  87371125.10109  22264609.52209  94208812.30909  22264609.50409 117001323.95209
C20  24497197.72009 127563403.88209              00              00  24497196.79009  96132256.56809  24497193.50209 103655583.74509  24497192.94909 128733734.55709
C36  22560263.85409 117477152.61609              00              00  22560265.64109  88531519.41809  22560264.08609  95459848.96209  22560260.45909 118554869.90709
C39  26328952.12109 137101620.02509              00              00  26328952.85409 103320481.05609  26328944.83109 111406456.76209  26328948.81609 138359652.91309
> 2026 06 07 17 01 48.0000000  0 12
C01  38582040.72509 200906909.59309              00              00              00              00  38582036.13309 163253229.64609              00              00
C02  36963082.99609 192476414.52809              00              00              00              00  36963068.32609 156402847.31609              00              00
C03  37001982.84109 192679013.41109              00              00              00              00  37001965.99009 156567439.94809              00              00
C08  38325342.91809 199570118.72409              00              00              00              00  38325340.39909 162167081.37109              00              00
C09  38667835.21209 201353544.66209  38667845.55809 155699367.09209              00              00              00              00              00              00
C10  37314807.58809 194307980.60909  37314805.30109 150251245.21609              00              00  37314801.01209 157891177.19509              00              00
C12  22734873.62109 118386427.58909              00              00              00              00  22734869.76109  96198649.53609              00              00
C19  22267783.04309 115954237.88509              00              00  22267781.72109  87383555.27009  22267776.00209  94222215.29109  22267777.62909 117017969.60209
C20  24506307.72309 127610841.33209              00              00  24506309.86709  96168005.59809  24506304.43509 103694130.57009  24506302.73709 128781607.23709
C22              00              00              00              00              00              00  23539926.92719  99605135.26819              00              00
C36  22558146.66109 117466134.51709              00              00  22558150.66309  88523216.10109  22558146.87509  95450895.79709  22558143.60509 118543750.66009
C39  26323005.11409 137070655.58109              00              00  26323004.47109 103297146.16009  26322996.68009 111381295.64109  26323004.27409 138328404.36809
> 2026 06 07 17 02  3.0000000  0 12
C01  38582013.17109 200906766.17009              00              00              00              00  38582008.63209 163253113.04409              00              00
C02  36963279.43009 192477437.54309              00              00              00              00  36963265.09909 156403678.64009              00              00
C03  37002128.15209 192679771.41509              00              00              00              00  37002111.62309 156568055.91909              00              00
C08  38320381.54809 199544282.92909              00              00              00              00  38320378.52909 162146087.72809              00              00
C09  38673365.49509 201382337.23109  38673374.21609 155721631.37109              00              00              00              00              00              00
C10  37314830.56809 194308104.25309  37314828.97709 150251340.88009              00              00  37314824.99309 157891277.63309              00              00
C12  22742183.58809 118424491.59309              00              00              00              00  22742178.37009  96229579.62609              00              00
C19  22270969.64409 115970831.60109              00              00  22270969.26809  87396060.37709  22270961.63809  94235699.05109  22270963.42509 117034715.54509
C20  24515422.56809 127658301.82609              00              00  24515426.10609  96203771.98409  24515418.36909 103732696.09109  24515417.19009 128829503.16009
C22  23534315.82119 122549440.62619              00              00              00              00  23534308.83519  99581365.02219              00              00
C36  22556033.72009 117455141.78509              00              00  22556040.01009  88514931.90009  22556035.06009  95441963.23809  22556030.93309 118532657.03609
C39  26317060.25109 137039701.44809              00              00  26317059.12509 103273819.11209  26317053.31809 111356142.76109  26317059.57209 138297166.31709
> 2026 06 07 17 02 18.0000000  0 12
C01  38581987.42209 200906631.97009              00              00              00              00  38581982.65109 163253004.09309              00              00
C02  36963477.56209 192478469.96809              00              00              00              00  36963463.66009 156404517.59309              00              00
C03  37002275.23209 192680538.65309              00              00              00              00  37002258.88109 156568679.38009              00              00
C08  38315424.66409 199518471.23309              00              00              00              00  38315421.30409 162125113.65809              00              00
C09  38678900.19309 201411150.34609  38678906.78709 155743911.51509              00              00              00              00              00              00
C10  37314851.13519 194308220.23319  37314851.06309 150251429.83409              00              00  37314847.97209 157891371.06509              00              00
C12  22749510.81709 118462643.66809              00              00              00              00  22749505.00909  96260581.26209              00              00
C19  22274181.49309 115987555.04209              00              00  22274182.45809  87408663.22309  22274175.34609  94249288.20709  22274174.64909 117051592.31809
C20  24524547.56409 127705815.47209              00              00  24524550.36909  96239578.44009  24524542.43509 103771304.76809  24524542.20309 128877452.69609
C22  23528717.20609 122520289.54109              00              00              00              00  23528712.66809  99557677.44609              00              00
C36  22553931.75109 117444204.69009              00              00  22553940.36409  88506689.65109  22553934.37809  95433075.94309  22553929.75009 118521619.66309
C39  26311123.51819 137008858.99319              00              00  26311121.35609 103250522.68309  26311131.45209 111331022.74809  26311124.37609 138265969.31509
> 2026 06 07 17 02 33.0000000  0 12
C01  38581963.19109 200906505.74709              00              00              00              00  38581958.51009 163252901.49509              00              00
C02  36963677.28409 192479510.54609              00              00              00              00  36963663.81109 156405363.14109              00              00
C03  37002423.74109 192681313.84809              00              00              00              00  37002407.87309 156569309.30609              00              00
C08  38310471.88909 199492682.48309              00              00              00              00  38310468.95809 162104158.22609              00              00
C09  38684438.07109 201439982.45709  38684442.93209 155766206.32709              00              00  38684439.39409 163686533.08709              00              00
C10  37314873.25709 194308325.38609  37314871.34509 150251511.14109              00              00  37314868.95009 157891456.53509              00              00
C12  22756854.36009 118500882.29509              00              00              00              00  22756848.94509  96291653.19409              00              00
C19  22277418.10909 116004406.81109              00              00  22277418.25209  87421362.77609  22277411.56909  94262981.67709  22277411.39109 117068598.66409
C20  24533682.08309 127753380.71209              00              00  24533683.85209  96275423.76209  24533676.04309 103809955.38709  24533676.47209 128925454.32109
C22  23523138.92609 122491244.97909              00              00              00              00  23523135.03109  99534076.35609              00              00
C36  22551841.93309 117433321.92509              00              00  22551851.15409  88498488.35709  22551844.52409  95424232.82109  22551841.57609 118510637.01509
C39  26305196.66709 136977984.95209              00              00  26305192.05709 103227255.98709  26305202.13509 111305935.04109  26305196.45309 138234812.11709
> 2026 06 07 17 02 48.0000000  0 12
C01  38581941.71309 200906394.07409              00              00              00              00  38581936.92409 163252810.74509              00              00
C02  36963879.83009 192480565.78509              00              00              00              00  36963867.08909 156406220.66109              00              00
C03  37002575.12709 192682103.61609              00              00              00              00  37002559.58109 156569951.05509              00              00
C08  38305524.72509 199466923.28109              00              00              00              00  38305522.59809 162083226.81509              00              00
C09  38689980.79209 201468840.13609  38689983.75809 155788520.90009              00              00              00              00              00              00
C10  37314893.23409 194308427.24309  37314891.07209 150251589.92309              00              00  37314889.55309 157891539.29209              00              00
C12  22764214.21709 118539213.66909              00              00              00              00  22764211.73309  96322800.54509              00              00
C19  22280680.17109 116021393.32709              00              00  22280678.72409  87434163.85909  22280670.82609  94276784.63309  22280674.77509 117085741.05809
C20  24542827.32409 127801003.89109              00              00  24542829.20009  96311312.72109  24542821.21309 103848653.06609  24542822.01709 128973514.34809
C22  23517582.71419 122462229.87619              00              00              00              00  23517576.69309  99510567.47409              00              00
C36  22549764.42709 117422499.92309              00              00  22549772.98609  88490332.90209  22549766.41109  95415439.08909  22549763.83709 118499715.74309
C39  26299276.62409 136947156.98109              00              00  26299272.94309 103204023.98509  26299278.78609 111280884.76609              00              00
> 2026 06 07 17 03  3.0000000  0 13
C01  38581920.10909 200906281.48209              00              00              00              00  38581915.32009 163252719.29709              00              00
C02  36964082.28609 192481620.28309              00              00              00              00  36964069.49109 156407077.54309              00              00
C03  37002726.28109 192682892.41609              00              00              00              00  37002711.12809 156570592.05209              00              00
C08  38300580.47309 199441178.25509              00              00              00              00  38300579.04409 162062306.92209              00              00
C09  38695525.37109 201497707.73409  38695526.60409 155810843.13709              00              00  38695522.29809 163733418.70109              00              00
C10  37314909.90609 194308510.30909  37314907.19009 150251654.18009              00              00  37314906.35009 157891606.86109              00              00
C12  22771589.26309 118577622.16609              00              00              00              00  22771588.03009  96354010.61809              00              00
C19  22283964.40809 116038498.99709              00              00  22283963.67509  87447054.77709  22283951.65009  94290684.39109  22283960.40509 117103003.74009
C20  24551980.49909 127848669.16509              00              00  24551983.21509  96347233.46009  24551975.72809 103887384.98209  24551975.22709 129021616.90009
C22  23512046.87319 122433398.11419              00              00              00              00  23512039.06409  99487138.44309              00              00
C27  25387805.63809 132200982.30609              00              00              00              00              00              00              00              00
C36  22547695.80209 117411723.17209              00              00  22547702.73509  88482211.55609  22547697.17809  95406682.11309  22547693.30009 118488840.18109
C39  26293362.38809 136916359.43409              00              00  26293358.06409 103180814.88809  26293361.72709 111255859.31509              00              00
> 2026 06 07 17 03 18.0000000  0 13
C01  38581899.68509 200906175.08109              00              00              00              00  38581894.78909 163252632.82609              00              00
C02  36964285.90309 192482681.11309              00              00              00              00  36964273.37709 156407939.58309              00              00
C03  37002878.61509 192683687.35709              00              00              00              00  37002863.78409 156571238.06209              00              00
C08  38295640.60009 199415454.58409              00              00              00              00  38295639.22409 162041404.40309              00              00
C09  38701073.41709 201526592.35409  38701073.04209 155833178.58909              00              00  38701068.50309 163756890.81109              00              00
C10  37314924.54109 194308581.73009  37314921.11009 150251709.38909              00              00  37314919.85909 157891664.83309              00              00
C12  22778980.62409 118616114.64409              00              00              00              00  22778978.40809  96385288.89809              00              00
C19  22287273.69809 116055730.95809              00              00  22287273.84009  87460040.84409  22287262.95809  94304686.69009  22287269.65909 117120393.74209
C20  24561143.73409 127896383.42909              00              00  24561146.53909  96383191.12509  24561139.26609 103926156.73909  24561139.33809 129069768.96009
C22              00              00              00              00              00              00  23506523.41509  99463795.23309  23506535.58409 123527681.09809
C27  25384261.96109 132182483.17109              00              00              00              00              00              00  25384259.35209 133395164.96209
C36  22545636.59409 117400998.69109              00              00  22545644.47409  88474129.61409  22545639.38109  95397967.59309  22545633.62709 118478017.26309
C39  26287454.42509 136885599.59809              00              00  26287449.31409 103157634.14209  26287449.47509 111230864.37209              00              00
> 2026 06 07 17 03 33.0000000  0 14
C01  38581878.61709 200906065.51609              00              00              00              00  38581873.82909 163252543.84209              00              00
C02  36964488.98509 192483738.95209              00              00              00              00  36964476.83409 156408799.17809              00              00
C03  37003030.35909 192684479.13209              00              00              00              00  37003015.81309 156571881.46709              00              00
C07              00              00              00              00              00              00  37175137.06809 157300171.35009              00              00
C08  38290703.35309 199389742.98009              00              00              00              00  38290701.35109 162020511.68209              00              00
C09  38706622.62409 201555484.56009  38706620.94409 155855519.91209              00              00              00              00              00              00
C10  37314935.03009 194308632.13309  37314931.00909 150251748.35209              00              00  37314929.31209 157891705.80109              00              00
C12  22786385.56509 118654681.51309              00              00              00              00  22786383.52809  96416627.60009              00              00
C19  22290605.34109 116073079.59009              00              00  22290604.25109  87473114.84409  22290600.05209  94318783.87509  22290601.08809 117137901.50909
C20  24570315.08109 127944137.13409              00              00  24570317.08309  96419178.44109  24570309.36309 103964960.49409  24570310.11409 129117960.74009
C22              00              00              00              00              00              00  23501027.20809  99440530.33209  23501035.05209 123498787.64509
C27  25380728.80809 132164068.55909              00              00              00              00              00              00              00              00
C36  22543585.17609 117390316.90409              00              00  22543594.77209  88466079.88009  22543587.26709  95389287.85209  22543582.83509 118467237.49409
C39  26281553.09109 136854867.85209              00              00  26281545.92509 103134474.71809  26281544.31709 111205892.37109              00              00
> 2026 06 07 17 03 48.0000000  0 13
C01  38581862.64209 200905982.47309              00              00              00              00  38581857.81809 163252476.37509              00              00
C02  36964697.19409 192484823.44609              00              00              00              00  36964685.25809 156409680.44909              00              00
C03  37003187.14109 192685297.40809              00              00              00              00  37003172.98909 156572546.38809              00              00
C07              00              00              00              00              00              00  37175127.08019 157300127.94019              00              00
C08  38285774.30809 199364073.16609              00              00              00              00  38285771.25209 161999652.92209              00              00
C09  38712178.21109 201584413.88109  38712175.79809 155877889.81709              00              00              00              00              00              00
C10  37314946.82409 194308691.22509  37314942.64209 150251794.05009              00              00  37314940.10509 157891753.84409              00              00
C12  22793810.84109 118693352.11909              00              00              00              00  22793809.44709  96448050.63309              00              00
C19  22293965.03909 116090574.47709              00              00  22293963.07409  87486299.05809  22293961.10809  94332999.95109  22293960.57209 117155556.86509
C20  24579498.95509 127991959.59609              00              00  24579500.90309  96455217.62309  24579492.27209 104003820.13309  24579491.77209 129166221.85009
C22              00              00              00              00              00              00  23495555.37309  99417368.17309  23495561.19909 123470021.70209
C36  22541548.09009 117379707.46609              00              00  22541556.59509  88458084.68809  22541546.64209  95380666.94209  22541545.87409 118456530.77709
C39  26275663.19309 136824193.87609              00              00  26275655.36609 103111358.85509  26275651.56009 111180967.40509              00              00
> 2026 06 07 17 04  3.0000000  0 13
C01  38581839.89509 200905864.02509              00              00              00              00  38581835.05309 163252380.18109              00              00
C02  36964898.59609 192485872.70109              00              00              00              00  36964886.85609 156410533.07809              00              00
C03  37003337.22309 192686080.26409              00              00              00              00  37003323.39309 156573182.53509              00              00
C07              00              00              00              00              00              00  37175107.51309 157300040.61109              00              00
C08  38280841.33209 199338383.37009              00              00              00              00  38280837.36509 161978777.92209              00              00
C09  38717729.22309 201613318.16909  38717725.98809 155900240.44809              00              00              00              00              00              00
C10  37314947.91409 194308697.09009  37314944.12509 150251798.57009              00              00  37314940.71209 157891758.60509              00              00
C12  22801245.98009 118732064.40509              00              00              00              00  22801244.78309  96479507.49309              00              00
C19  22297340.80109 116108153.58509              00              00  22297339.06809  87499546.79109  22297335.60109  94347284.48709  22297337.65609 117173297.29909
C20  24588683.52509 128039788.63609              00              00  24588685.81309  96491261.74609  24588676.48509 104042685.12909  24588677.32509 129214489.67909
C22              00              00              00              00              00              00  23490095.10009  99394258.46509  23490099.60309 123441321.08009
C36  22539513.14709 117369108.56009              00              00  22539518.91909  88450097.37009  22539511.61109  95372054.42009  22539510.61009 118445834.58409
C39  26269772.15109 136793515.91809              00              00  26269765.34309 103088239.88809  26269762.07309 111156039.10509  26269793.88019 138048629.88019
> 2026 06 07 17 04 18.0000000  0 13
C01  38581814.66409 200905732.66309              00              00              00              00  38581809.91109 163252273.46709              00              00
C02  36965097.55009 192486909.12709              00              00              00              00  36965085.82809 156411375.31609              00              00
C03  37003484.69609 192686850.14009              00              00              00              00  37003471.31209 156573808.15509              00              00
C07  37175095.80919 193580504.62019              00              00              00              00  37175082.28209 157299930.53109              00              00
C08  38275908.39109 199312696.12209              00              00              00              00  38275904.12109 161957904.94009              00              00
C09  38723280.84209 201642220.00809  38723275.71409 155922589.15709              00              00              00              00              00              00
C10  37314942.62409 194308672.16709  37314939.64009 150251779.30309              00              00  37314935.35209 157891738.33209              00              00
C12  22808694.84309 118770840.56309              00              00              00              00  22808695.34409  96511016.23209              00              00
C19  22300736.91609 116125839.27109              00              00  22300735.23709  87512874.80209  22300728.98209  94361655.57209  22300734.36109 117191145.23009
C20  24597873.02809 128087646.29409              00              00  24597875.79809  96527327.51309  24597866.39909 104081573.44409  24597867.50609 129262786.46909
C22  23484660.64809 122290781.91609              00              00              00              00  23484652.12409  99371219.79009  23484653.55409 123412708.42909
C36  22537483.04809 117358542.42509              00              00  22537489.33809  88442134.67709  22537482.92309  95363468.45109  22537481.97609 118435171.41709
C39              00              00              00              00  26263877.91109 103065134.78709  26263874.03309 111131125.68609  26263905.19709 138017688.91809
> 2026 06 07 17 04 33.0000000  0 14
C01  38581793.38209 200905622.00809              00              00              00              00  38581788.70009 163252183.49609              00              00
C02  36965300.50609 192487966.48809              00              00              00              00  36965289.24909 156412234.51109              00              00
C03  37003636.22609 192687640.73709              00              00              00              00  37003623.16309 156574450.57809              00              00
C07  37175070.91709 193580375.04709              00              00              00              00  37175058.03409 157299825.19709              00              00
C08  38270981.86609 199287045.17609              00              00              00              00  38270977.68509 161937061.47909              00              00
C09  38728839.48409 201671152.99009  38728831.76509 155944961.89009              00              00              00              00              00              00
C10  37314937.51409 194308650.15509  37314935.69109 150251762.25009              00              00  37314930.81309 157891720.43609              00              00
C12              00              00              00              00              00              00  22816161.70009  96542604.00409              00              00
C19  22304159.87109 116143665.07109              00              00  22304160.12109  87526308.44609  22304153.18809  94376140.50009  22304157.67309 117209134.59609
C20  24607075.55709 128135566.22509              00              00  24607078.09409  96563440.16109  24607069.05309 104120512.31109  24607069.58909 129311146.01709
C22  23479238.82909 122262550.77109              00              00  23479223.01509  92137512.60909              00              00  23479231.93109 123384218.36509
C27  25366726.55319 132091198.29019              00              00              00              00              00              00              00              00
C36  22535466.38509 117348042.52009              00              00  22535472.46109  88434221.93709  22535466.74309  95354936.32609  22535464.59909 118424575.20309
C39  26258027.11019 136732462.90519              00              00  26258001.96909 103042068.78409  26257993.71309 111106254.47609  26258022.82219 137986842.43419
> 2026 06 07 17 04 48.0000000  0 14
C01  38581772.04709 200905511.00409              00              00              00              00  38581767.22209 163252093.39809              00              00
C02  36965503.46309 192489023.62909              00              00              00              00  36965492.15209 156413093.52009              00              00
C03  37003787.68409 192688430.97109              00              00              00              00  37003775.05009 156575092.74509              00              00
C07              00              00              00              00              00              00  37175030.42609 157299707.50809              00              00
C08  38266058.14609 199261409.47109              00              00              00              00  38266053.98309 161916230.40609              00              00
C09  38734400.05609 201700095.80309  38734390.85309 155967342.24009              00              00              00              00              00              00
C10              00              00  37314928.20409 150251731.14309              00              00  37314922.64709 157891687.77509              00              00
C12  22823649.01819 118848752.71819              00              00              00              00  22823638.08209  96574253.41209              00              00
C19  22307605.91209 116161609.82209              00              00  22307606.91209  87539831.70809  22307601.49809  94390722.08709  22307603.91009 117227243.93709
C20  24616285.91209 128183526.93409              00              00  24616289.20009  96599583.56409  24616280.57009 104159484.33509  24616281.60609 129359546.79509
C22  23473835.84409 122234420.00609              00              00  23473820.92309  92116313.16109              00              00  23473830.50109 123355829.45509
C27  25363259.26509 132073145.24409              00              00              00              00              00              00              00              00
C36  22533458.74709 117337587.72609              00              00  22533463.51809  88426343.27009  22533468.86119  95346476.71619  22533455.78109 118414024.57009
C39  26252151.07909 136701886.05809              00              00  26252130.51109 103019026.03409  26252121.84509 111081408.37009  26252143.00209 137955985.21509
> 2026 06 07 17 05  3.0000000  0 14
C01  38581742.45509 200905357.03209              00              00              00              00  38581737.50609 163251968.28009              00              00
C02  36965698.23509 192490037.89209              00              00              00              00  36965686.78109 156413917.75309              00              00
C03  37003930.93909 192689178.24209              00              00              00              00  37003918.68109 156575699.95409              00              00
C07              00              00              00              00              00              00  37174991.41809 157299542.78309              00              00
C08  38261129.53009 199235746.41809              00              00              00              00  38261124.74109 161895377.14509              00              00
C09  38739953.62309 201729005.84509  38739944.36709 155989697.31609              00              00              00              00              00              00
C10              00              00  37314908.97709 150251653.03709              00              00  37314903.06209 157891605.64409              00              00
C12  22831134.06509 118887735.02009              00              00              00              00  22831120.23509  96605929.59009              00              00
C19  22311066.53409 116179630.66109              00              00  22311067.21309  87553412.34909  22311062.54909  94405365.57809  22311064.81809 117245430.17809
C20  24625496.50009 128231485.50109              00              00  24625499.98509  96635725.32109  24625491.69409 104198454.59109  24625491.15809 129407945.35409
C22  23468443.52709 122206347.22409              00              00  23468430.60709  92095157.45409  23468436.00419  99302644.48219  23468440.38209 123327499.06009
C27  25359800.66209 132055122.45409              00              00              00              00              00              00              00              00
C36  22531451.66309 117327135.31309              00              00  22531456.14809  88418466.36509  22531463.17009  95337983.14709  22531448.32109 118403476.28109
C39  26246272.15209 136671297.72909              00              00  26246254.31909 102995974.50809  26246246.81409 111056552.79509  26246269.24009 137925116.22309
> 2026 06 07 17 05 18.0000000  0 13
C01  38581716.31309 200905220.91909              00              00              00              00  38581711.61409 163251857.72209              00              00
C02  36965896.52809 192491070.20609              00              00              00              00  36965885.02009 156414756.63509              00              00
C03  37004077.64409 192689943.37309              00              00              00              00  37004065.54709 156576321.69509              00              00
C07              00              00              00              00              00              00  37174953.75009 157299380.52009              00              00
C08  38256207.56109 199210116.99909              00              00              00              00  38256201.91509 161874551.20109              00              00
C09  38745511.64009 201757943.81109  38745503.93809 156012073.98909              00              00              00              00              00              00
C10              00              00  37314889.57109 150251574.94809              00              00  37314883.76409 157891523.59809              00              00
C12  22838637.30409 118926810.83309              00              00              00              00  22838626.06409  96637681.82309              00              00
C19  22314553.70909 116197788.44509              00              00  22314554.29909  87567096.15509  22314546.45509  94420120.29509  22314551.35109 117263754.50309
C20  24634718.27409 128279502.59509              00              00  24634720.86509  96671911.15809  24634712.57409 104237472.35709  24634714.02109 129456402.97209
C22  23463074.06409 122178393.53309              00              00  23463062.69909  92074091.48409  23463066.50509  99279929.83709  23463073.11709 123299288.89909
C36  22529456.46109 117316746.10109              00              00  22529463.37709  88410637.01109  22529469.48809  95329540.96409  22529453.33409 118392991.72309
C39  26240393.13619 136640553.07719              00              00  26240386.84709 102972959.97109  26240382.16509 111031737.05409  26240403.60809 137894296.69709
> 2026 06 07 17 05 33.0000000  0 13
C01  38581697.01509 200905120.64409              00              00              00              00  38581692.58309 163251776.21809              00              00
C02  36966101.62809 192492138.53009              00              00              00              00  36966090.40609 156415624.72409              00              00
C03  37004231.28209 192690744.24009              00              00              00              00  37004219.32809 156576972.54309              00              00
C07              00              00              00              00              00              00  37174921.56809 157299235.34709              00              00
C08  38251295.59909 199184539.25109              00              00              00              00  38251289.23809 161853767.25709              00              00
C09  38751076.66109 201786927.52809  38751072.42609 156034486.06409              00              00              00              00              00              00
C10              00              00  37314873.45309 150251510.82409              00              00  37314868.00309 157891456.22509              00              00
C12  22846161.64609 118965997.99009              00              00              00              00  22846155.28409  96669524.52209              00              00
C19  22318070.53009 116216100.90109              00              00  22318070.38709  87580896.50809  22318059.59409  94435000.66609  22318068.08209 117282235.00509
C20  24643953.80709 128327595.83509              00              00  24643955.04009  96708154.34609  24643946.60609 104276552.02809  24643951.09109 129504937.43109
C22  23457730.79709 122150577.25809              00              00  23457720.14709  92053128.96309  23457723.56009  99257326.73509  23457731.33309 123271217.17309
C36  22527477.39509 117306437.86509              00              00  22527485.15109  88402868.71609  22527490.85109  95321164.61109  22527473.58909 118382588.94209
C39  26234543.24709 136610080.54409              00              00  26234535.09909 102949995.92109  26234531.70409 111006975.76409  26234551.94909 137863544.66409
> 2026 06 07 17 05 48.0000000  0 13
C01  38581674.91109 200905005.94109              00              00              00              00  38581670.39009 163251683.03109              00              00
C02  36966303.99509 192493192.56209              00              00              00              00  36966293.11309 156416481.20509              00              00
C03  37004382.02509 192691530.70509              00              00              00              00  37004370.33909 156577611.63709              00              00
C07              00              00              00              00              00              00  37174884.59709 157299066.38509              00              00
C08  38246383.99409 199158962.96909              00              00              00              00  38246377.41909 161832984.45409              00              00
C09  38756639.78809 201815906.81909  38756637.78709 156056894.63209              00              00  38756632.78419 163991995.09019              00              00
C10              00              00  37314851.13509 150251421.73009              00              00  37314846.11409 157891362.62809              00              00
C12  22853697.72709 119005245.89009              00              00              00              00  22853692.29509  96701416.63509              00              00
C19  22321607.77409 116234517.71209              00              00  22321606.50609  87594775.48309  22321597.50009  94449965.82109  22321604.41509 117300820.79409
C20  24653193.77209 128375714.61109              00              00  24653194.07609  96744416.84009  24653186.74909 104315652.44209  24653191.05609 129553497.70209
C22  23452404.34509 122122848.05009              00              00  23452393.10609  92032232.16409  23452397.43009  99234794.51109  23452405.54209 123243233.66309
C36  22525503.72609 117296160.28209              00              00  22525510.92709  88395123.43209  22525516.18109  95312813.07009  22525499.09809 118372217.09309
C39  26228693.26919 136579697.16019              00              00  26228688.80109 102927044.46509  26228684.62009 110982228.04809  26228706.17019 137832689.80719
> 2026 06 07 17 06  3.0000000  0 13
C01  38581650.82309 200904880.58709              00              00              00              00  38581646.37409 163251581.22509              00              00
C02  36966504.34209 192494235.98409              00              00              00              00  36966493.22809 156417329.14809              00              00
C03  37004530.80309 192692306.50709              00              00              00              00  37004519.50909 156578242.03709              00              00
C07              00              00              00              00              00              00  37174841.69309 157298876.73509              00              00
C08  38241473.46209 199133391.95609              00              00              00              00  38241467.40409 161812205.98409              00              00
C09  38762202.54009 201844885.19709  38762200.87909 156079302.55409              00              00  38762198.25209 164015542.39309              00              00
C10              00              00  37314823.20609 150251310.62209              00              00  37314818.98909 157891245.83409              00              00
C12  22861246.69309 119044558.09609              00              00              00              00  22861239.63409  96733360.95909              00              00
C19  22325165.30009 116253042.44509              00              00  22325164.24609  87608735.77309  22325156.24109  94465018.67009  22325160.88709 117319515.46109
C20  24662439.95509 128423862.47009              00              00  24662440.72309  96780701.24709  24662434.64809 104354776.49509  24662435.66609 129602087.26709
C22  23447096.83409 122095210.10809              00              00  23447082.68209  92011403.97009  23447088.84709  99212336.36009  23447098.13909 123215342.06509
C36  22523535.57809 117285917.07509              00              00  22523543.58409  88387404.05109  22523544.53109  95304489.22609  22523533.41609 118361879.80009
C39  26222849.45509 136549272.93309              00              00  26222844.52309 102904108.34909  26222840.10909 110957496.90909  26222872.70209 137801975.29409
> 2026 06 07 17 06 18.0000000  0 13
C01  38581625.98509 200904751.11909              00              00              00              00  38581621.55409 163251476.02109              00              00
C02  36966703.93909 192495275.55309              00              00              00              00  36966692.78909 156418173.90209              00              00
C03  37004678.84709 192693078.15109              00              00              00              00  37004667.76909 156578869.09609              00              00
C07  37174794.43019 193578901.49619              00              00              00              00  37174793.30409 157298671.82809              00              00
C08  38236565.32409 199107832.93709              00              00              00              00  38236560.37409 161791437.23009              00              00
C09  38767766.54309 201873869.14909  38767765.84609 156101714.74909              00              00  38767764.86309 164039094.28309              00              00
C10              00              00  37314791.02409 150251182.58209              00              00  37314787.34309 157891111.31809              00              00
C12  22868808.23809 119083940.82709              00              00              00              00  22868802.05509  96765362.65309              00              00
C19  22328744.73409 116271681.57809              00              00  22328743.42909  87622782.28609  22328736.37109  94480164.48509  22328738.73009 117338325.53709
C20  24671693.48209 128472045.74909              00              00  24671696.05509  96817012.32009  24671688.99709 104393929.33509  24671688.01409 129650712.59509
C22  23441808.60409 122067670.15809              00              00              00              00  23441799.02609  99189957.90909              00              00
C36  22521575.54309 117275714.72509              00              00  22521585.26409  88379715.41609  22521583.03009  95296198.88709  22521575.95409 118351583.66309
C39              00              00              00              00  26217004.22909 102881192.64409  26217000.60209 110932787.77109  26217029.55009 137771288.07009
> 2026 06 07 17 06 33.0000000  0 13
C01  38581602.72009 200904630.11509              00              00              00              00  38581598.21709 163251377.67709              00              00
C02  36966905.16209 192496323.65409              00              00              00              00  36966894.08409 156419025.57209              00              00
C03  37004828.53609 192693858.23609              00              00              00              00  37004817.69009 156579502.98909              00              00
C07  37174748.18509 193578642.90809              00              00              00              00  37174741.94909 157298461.68709              00              00
C08  38231661.92109 199082298.49709              00              00              00              00  38231658.36509 161770688.41809              00              00
C09  38773334.83409 201902871.12609  38773334.88809 156124140.88809              00              00  38773334.78109 164062660.79109              00              00
C10  37314764.68519 194307761.49119  37314756.94709 150251047.28509              00              00  37314753.99909 157890969.12409              00              00
C12  22876386.34809 119123406.45209              00              00              00              00  22876382.09509  96797431.69509              00              00
C19  22332348.50509 116290447.46909              00              00  22332347.66509  87636924.32309  22332341.07109  94495413.31209  22332343.69809 117357263.62209
C20  24680956.19409 128520276.66909              00              00  24680959.76809  96853359.30209  24680951.53009 104433120.89909  24680950.11809 129699385.98009
C22  23436541.58509 122040240.91609              00              00              00              00  23436530.29109  99167669.41209              00              00
C36  22519627.49809 117265565.39809              00              00  22519637.46909  88372066.93509              00              00  22519626.30109 118341341.52809
C39              00              00              00              00  26211170.81509 102858306.67309  26211167.81309 110908110.72709  26211193.49109 137740640.67009
> 2026 06 07 17 06 48.0000000  0 13
C01  38581580.54409 200904514.79909              00              00              00              00  38581576.04109 163251284.02709              00              00
C02  36967107.54709 192497377.60509              00              00              00              00  36967096.64709 156419882.02209              00              00
C03  37004979.31509 192694643.94209              00              00              00              00  37004968.62909 156580141.46809              00              00
C07  37174697.00809 193578375.36909              00              00              00              00  37174687.32309 157298244.26709              00              00
C08  38226762.82409 199056785.92709              00              00              00              00  38226760.43009 161749957.42209              00              00
C09  38778906.82509 201931888.27409  38778907.57509 156146578.89309              00              00  38778907.59309 164086239.64509              00              00
C10  37314725.99809 194307551.48309  37314720.62009 150250902.70209              00              00  37314718.24309 157890817.18009              00              00
C12  22883980.61109 119162951.92509              00              00              00              00  22883977.16209  96829565.60509              00              00
C19  22335975.61209 116309337.21109              00              00  22335976.25609  87651159.73409  22335969.25109  94510762.81909  22335970.82409 117376326.74009
C20  24690226.96509 128568552.14809              00              00  24690230.19909  96889739.87209  24690222.26509 104472348.66109  24690219.40609 129748104.34409
C22  23431295.22209 122012919.97109              00              00              00              00  23431282.74909  99145468.91109              00              00
C36  22517688.88809 117255466.44309              00              00  22517697.10709  88364456.40809  22517696.30319  95279790.91419  22517686.85109 118331150.00409
C39              00              00              00              00  26205344.88809 102835448.41409  26205341.42209 110883463.53809  26205365.02709 137710030.35609
> 2026 06 07 17 07  3.0000000  0 13
C01  38581558.35109 200904399.46809              00              00              00              00  38581553.83009 163251190.32509              00              00
C02  36967309.91409 192498431.64809              00              00              00              00  36967299.13909 156420738.53109              00              00
C03  37005130.14709 192695429.61909              00              00              00              00  37005119.58709 156580779.92109              00              00
C07  37174642.81109 193578093.08309              00              00              00              00  37174627.78309 157298014.99509              00              00
C08  38221866.85509 199031289.59109              00              00              00              00  38221864.87209 161729239.62909              00              00
C09  38784482.06709 201960914.77209  38784482.40709 156169024.02109              00              00  38784481.01309 164109826.08409              00              00
C10  37314690.52809 194307346.72409  37314680.84309 150250744.27209              00              00  37314678.93109 157890650.65909              00              00
C12  22891589.22309 119202571.26709              00              00              00              00  22891585.45309  96861759.55009              00              00
C19  22339625.89609 116328345.00609              00              00  22339625.59309  87665484.13209  22339619.16009  94526208.20009  22339620.58909 117395508.92509
C20  24699505.11509 128616866.22409              00              00  24699507.27709  96926149.56709  24699500.46909 104511607.83109  24699496.69909 129796861.68909
C22  23426068.44309 121985701.78309              00              00  23426051.75319  91928861.97719  23426055.73809  99123351.85509              00              00
C36  22515758.58609 117245412.07509              00              00  22515769.18309  88356879.45609  22515762.01709  95271620.86009  22515756.72809 118321003.33609
C39  26199532.79219 136427857.06219              00              00  26199526.02009 102812613.51609  26199521.78509 110858841.52109  26199542.49509 137679451.26709
> 2026 06 07 17 07 18.0000000  0 13
C01  38581532.47709 200904264.49809              00              00              00              00  38581527.75909 163251080.66309              00              00
C02  36967508.49209 192499466.20709              00              00              00              00  36967497.91409 156421579.24909              00              00
C03  37005277.17409 192696195.64909              00              00              00              00  37005266.77409 156581402.39209              00              00
C07  37174581.86009 193577776.49909              00              00              00              00              00              00              00              00
C08  38216969.76009 199005790.04809              00              00              00              00  38216967.70509 161708519.16409              00              00
C09  38790056.32709 201989931.09709  38790055.39709 156191461.27909              00              00  38790050.09009 164133404.16309              00              00
C10  37314644.99809 194307104.41309  37314633.91909 150250556.90209              00              00  37314632.88309 157890453.80609              00              00
C12  22899207.75209 119242244.63909              00              00              00              00  22899201.55209  96893997.35909              00              00
C19  22343295.67609 116347451.20009              00              00  22343293.51309  87679882.56909  22343288.20609  94541733.50309  22343289.77909 117414790.30509
C20  24708787.17909 128665199.03009              00              00  24708788.34109  96962573.36309  24708781.15709 104550882.15709  24708779.08509 129845637.92009
C22  23420857.55009 121958566.88609              00              00  23420841.27109  91908413.25009  23420844.93509  99101302.54409  23420856.76419 123077442.38019
C36  22513832.94909 117235382.59209              00              00  22513845.01109  88349321.16909  22513834.43209  95263471.03909  22513830.62609 118310881.74509
C39  26193717.76509 136397567.33209              00              00  26193710.45709 102789787.15709  26193706.24009 110834228.79009  26193722.16109 137648883.80209
> 2026 06 07 17 07 33.0000000  0 14
C01  38581508.53209 200904139.54809              00              00              00              00  38581503.60009 163250979.18309              00              00
C02  36967709.01809 192500510.84509              00              00              00              00  36967698.49309 156422428.14509              00              00
C03  37005426.02309 192696971.57009              00              00              00              00  37005415.82009 156582032.93909              00              00
C07  37174520.19409 193577455.27509              00              00              00              00              00              00              00              00
C08  38212076.98909 198980316.86409              00              00              00              00  38212074.73809 161687820.15009              00              00
C09  38795633.17709 202018966.63009  38795632.01609 156213913.37909              00              00  38795621.97309 164156997.90709              00              00
C10  37314597.82409 194306854.46409  37314585.78009 150250363.49109              00              00  37314585.22609 157890250.61309              00              00
C12  22906842.43509 119282001.30609              00              00              00              00  22906833.75109  96926302.86509              00              00
C19  22346989.48809 116366685.13209              00              00  22346988.34509  87694377.31909  22346982.30509  94557362.62909  22346982.41209 117434200.66609
C20  24718078.51709 128713579.88309              00              00  24718079.37509  96999033.34209  24718070.36909 104590195.50209  24718071.03009 129894462.65509
C22  23415667.51009 121931545.28109              00              00  23415656.02009  91888049.60109  23415655.52009  99079345.23009  23415666.74209 123050172.81509
C27  25326046.25619 131879332.25519              00              00              00              00              00              00              00              00
C36  22511917.22909 117225407.48109              00              00  22511926.98509  88341803.91009  22511918.31909  95255365.36409  22511915.06709 118300815.09109
C39              00              00              00              00  26187900.89809 102766991.69609  26187899.41509 110809649.30309  26187911.38709 137618357.73609
> 2026 06 07 17 07 48.0000000  0 13
C01  38581484.32009 200904013.72009              00              00              00              00  38581479.51309 163250876.91409              00              00
C02  36967909.47309 192501554.80509              00              00              00              00  36967898.93009 156423276.41009              00              00
C03  37005574.71109 192697746.64509              00              00              00              00  37005564.68609 156582662.75609              00              00
C07  37174455.72309 193577118.55509              00              00              00              00              00              00              00              00
C08  38207187.22009 198954859.28209              00              00              00              00  38207184.04009 161667133.82109              00              00
C09  38801208.59809 202048010.36309  38801210.08109 156236371.86709              00              00  38801197.12609 164180598.27009              00              00
C10  37314546.79009 194306585.67209  37314534.12109 150250155.69109              00              00  37314533.65609 157890032.18609              00              00
C12  22914491.16309 119321830.24009              00              00              00              00  22914484.98109  96958667.02409              00              00
C19  22350704.60109 116386035.77109              00              00  22350705.31609  87708960.09009  22350697.25709  94573086.64109  22350698.34709 117453728.90709
C20  24727376.91309 128761997.66209              00              00  24727377.36009  97035521.14009  24727367.19309 104629538.86609  24727369.03309 129943324.58709
C22  23410496.42909 121904626.14909              00              00  23410490.83609  91867763.33709  23410485.63709  99057471.23509  23410496.50109 123023006.75109
C36  22510008.31709 117215475.81309              00              00  22510015.64309  88334319.36309  22510005.52909  95247295.13809  22510008.28109 118290792.30609
C39              00              00              00              00  26182096.16409 102744218.86909  26182096.82509 110785094.26209              00              00
> 2026 06 07 17 08  3.0000000  0 12
C01  38581463.77009 200903907.13509              00              00              00              00  38581459.08809 163250790.35709              00              00
C02  36968113.64409 192502618.11809              00              00              00              00  36968103.12009 156424140.46809              00              00
C03  37005727.08009 192698540.95509              00              00              00              00  37005717.12709 156583308.22809              00              00
C08  38202304.65309 198929437.52209              00              00              00              00  38202299.73909 161646476.62209              00              00
C09  38806788.98709 202077082.43209  38806793.40109 156258852.27609              00              00  38806779.44509 164204221.75909              00              00
C10  37314495.88109 194306318.46909  37314482.92609 150249949.05909              00              00  37314482.35409 157889815.06809              00              00
C12  22922157.20709 119361751.29509              00              00              00              00  22922154.06209  96991106.14209              00              00
C19  22354446.62509 116405523.25809              00              00  22354446.71409  87723645.94009  22354439.35209  94588921.80409  22354440.80009 117473395.09309
C20  24736685.47709 128810472.23909              00              00  24736686.10309  97072051.74309  24736676.43609 104668928.32209  24736678.59809 129992243.87609
C22  23405348.98909 121877829.92609              00              00              00              00  23405339.53709  99035697.17509  23405349.82909 122995964.67909
C36  22508112.48509 117205607.55709              00              00  22508119.91909  88326882.64409  22508113.73609  95239276.45509  22508113.62909 118280833.47209
C39              00              00              00              00  26176303.52709 102721483.84709  26176301.20409 110760580.00109              00              00
> 2026 06 07 17 08 18.0000000  0 13
C01  38581442.04109 200903794.31709              00              00              00              00  38581437.32409 163250698.71309              00              00
C02  36968316.63709 192503675.32609              00              00              00              00  36968305.91509 156424999.57409              00              00
C03  37005878.30609 192699328.94709              00              00              00              00  37005868.49509 156583948.54609              00              00
C07  37174332.35519 193576516.64919              00              00              00              00              00              00              00              00
C08  38197424.30109 198904026.14509              00              00              00              00  38197418.40409 161625827.84809              00              00
C09  38812370.78709 202106157.20309  38812377.04109 156281334.76009              00              00  38812364.28309 164227847.35209              00              00
C10              00              00  37314426.92409 150249723.85209              00              00  37314426.06709 157889578.32209              00              00
C12  22929835.32909 119401738.56709              00              00              00              00  22929833.68509  97023599.10109              00              00
C19  22358210.57409 116425121.82509              00              00  22358210.03809  87738415.47809  22358203.92609  94604847.24109  22358206.30309 117493173.43709
C20  24745999.59809 128858977.69309              00              00  24746001.52809  97108605.63409  24745993.68409 104708342.97009  24745994.63109 130041194.39009
C22              00              00              00              00              00              00  23400212.66409  99014002.39809  23400222.38509 122969021.22509
C36  22506225.33809 117195776.98909              00              00  22506231.73509  88319474.32109  22506227.73209  95231288.41209  22506226.42809 118270912.78809
C39  26170534.31619 136276827.15119              00              00  26170517.60909 102698767.30309  26170511.55109 110736085.69109              00              00
> 2026 06 07 17 08 33.0000000  0 13
C01  38581415.38109 200903656.06409              00              00              00              00  38581410.87809 163250586.37609              00              00
C02  36968514.80409 192504707.22409              00              00              00              00  36968504.02909 156425838.13209              00              00
C03  37006024.61709 192700091.49809              00              00              00              00  37006015.05709 156584568.21909              00              00
C07  37174257.73409 193576123.70409              00              00              00              00  37174233.84319 157296345.93519              00              00
C08  38192542.25209 198878606.09509              00              00              00              00  38192536.90909 161605171.99909              00              00
C09  38817949.94309 202135215.47209  38817957.66209 156303804.40709              00              00  38817947.45909 164251459.44809              00              00
C10              00              00  37314362.29209 150249465.20709              00              00  37314361.50609 157889306.57109              00              00
C12  22937523.35109 119441772.74609              00              00              00              00  22937521.60009  97056130.21009              00              00
C19  22361991.99909 116444812.12309              00              00  22361992.30209  87753254.22409  22361986.08409  94620847.31809  22361987.67409 117513044.44409
C20  24755316.52509 128907494.70909              00              00  24755320.09809  97145168.23009  24755313.50509 104747767.01909  24755312.52209 130090156.55709
C22              00              00              00              00  23395115.88219  91807457.90519  23395101.15809  98992371.50009              00              00
C36  22504341.49609 117185965.02209              00              00  22504347.50009  88312080.03209  22504339.13709  95223315.49609  22504342.89009 118261010.80009
C39  26164747.59409 136246688.87509              00              00  26164731.08309 102676054.84709  26164725.15009 110711595.81309              00              00
> 2026 06 07 17 08 48.0000000  0 13
C01  38581389.47109 200903521.69309              00              00              00              00  38581385.09309 163250477.19609              00              00
C02  36968713.77609 192505743.13809              00              00              00              00  36968703.07209 156426679.89309              00              00
C03  37006171.64309 192700857.87409              00              00              00              00  37006162.19109 156585190.99009              00              00
C07  37174176.68019 193575691.00519              00              00              00              00  37174156.91709 157296017.94709              00              00
C08  38187664.49109 198853206.65109              00              00              00              00  38187660.39909 161584532.95609              00              00
C09  38823531.45709 202164286.36609  38823541.21409 156326283.90109              00              00  38823533.44109 164275081.95709              00              00
C10              00              00  37314294.35409 150249195.86109              00              00  37314294.26509 157889023.46009              00              00
C12  22945227.43809 119481882.95209              00              00              00              00  22945224.91809  97088722.97609              00              00
C19  22365797.36809 116464623.46609              00              00  22365797.04609  87768184.12809  22365790.34509  94636945.66409  22365792.74009 117533037.56909
C20  24764641.58209 128956052.33709              00              00  24764645.58409  97181761.39909  24764639.24109 104787223.98709  24764636.61409 130139159.59809
C22  23390023.80019 121797976.21919              00              00  23390024.19409  91787478.55209  23390010.20209  98970828.60909              00              00
C36  22502466.37409 117176200.84709              00              00  22502472.46809  88304721.72209  22502462.37209  95215381.37809  22502467.14309 118251157.02509
C39  26158963.62409 136216585.18609              00              00  26158953.99209 102653368.55309  26158945.18309 110687134.03409              00              00
> 2026 06 07 17 09  3.0000000  0 13
C01  38581365.43709 200903397.09809              00              00              00              00  38581361.20209 163250376.00709              00              00
C02  36968914.60509 192506788.95609              00              00              00              00  36968903.72309 156427529.75009              00              00
C03  37006320.61809 192701634.01309              00              00              00              00  37006311.34309 156585821.66009              00              00
C07              00              00              00              00              00              00  37174078.40009 157295686.11209              00              00
C08  38182792.26909 198827833.85809              00              00              00              00  38182789.03509 161563915.54209              00              00
C09  38829116.58109 202193375.70209  38829129.19709 156348777.67909              00              00  38829122.42409 164298719.46109              00              00
C10              00              00  37314224.00409 150248920.36409              00              00  37314225.50509 157888733.94809              00              00
C12  22952946.39109 119522074.70009              00              00              00              00  22952943.15709  97121382.01509              00              00
C19  22369626.34209 116484561.53809              00              00  22369626.34209  87783209.53909  22369618.80109  94653146.96709  22369622.25009 117553158.61509
C20  24773974.89409 129004656.08609              00              00  24773978.75409  97218389.33509  24773972.03509 104826718.49809  24773971.69509 130188209.26709
C22  23384954.55509 121771578.78509              00              00  23384954.12609  91767585.28909  23384940.77809  98949378.48909              00              00
C36  22500601.20609 117166490.22509              00              00  22500607.01309  88297403.75409  22500598.84709  95207490.78709  22500600.77709 118241357.34109
C39  26153186.39009 136186522.02109              00              00  26153195.39609 102630712.63809  26153172.14809 110662705.26409              00              00
> 2026 06 07 17 09 18.0000000  0 13
C01  38581343.45809 200903282.98209              00              00              00              00  38581339.18709 163250283.28509              00              00
C02  36969117.49009 192507845.38509              00              00              00              00  36969106.71509 156428388.19209              00              00
C03  37006471.66409 192702420.59409              00              00              00              00  37006462.46209 156586460.81909              00              00
C07              00              00              00              00              00              00  37173997.70409 157295350.98409              00              00
C08  38177925.42709 198802488.49109              00              00              00              00  38177922.13909 161543320.45109              00              00
C09  38834705.38609 202222484.14209  38834721.36109 156371286.24309              00              00  38834714.03509 164322372.44309              00              00
C10              00              00              00              00              00              00  37314155.36909 157888438.48009              00              00
C12  22960678.37109 119562348.25309              00              00              00              00  22960676.10109  97154107.68909              00              00
C19  22373479.17109 116504626.85809              00              00  22373479.10009  87798330.87209  22373472.43509  94669451.71109  22373475.99109 117573408.02309
C20  24783317.33709 129053306.40509              00              00  24783321.12609  97255052.41609  24783313.38809 104866250.83709  24783313.29909 130237305.90209
C22  23379907.27109 121745296.54509              00              00  23379905.39509  91747778.91209  23379893.70809  98928022.09009  23379895.13819 122862136.53219
C36  22498745.86509 117156833.82609              00              00  22498752.08309  88290126.63909  22498746.43709  95199644.20709  22498744.48909 118231612.32809
C39  26147417.51909 136156500.01409              00              00  26147401.07919 102608010.36519  26147405.27809 110638310.01209              00              00
> 2026 06 07 17 09 33.0000000  0 13
C01  38581321.21109 200903167.42109              00              00              00              00  38581316.97609 163250189.35709              00              00
C02  36969320.03609 192508900.47509              00              00              00              00  36969309.60009 156429245.52309              00              00
C03  37006622.28209 192703205.62009              00              00              00              00  37006613.24109 156587098.76909              00              00
C07              00              00              00              00              00              00  37173913.80909 157295002.88909              00              00
C08  38173061.55009 198777158.65409              00              00              00              00  38173057.06509 161522737.96909              00              00
C09  38840296.10309 202251599.57209  38840315.25909 156393800.12609              00              00  38840305.86009 164346031.10309              00              00
C10              00              00  37314077.21019 150248327.93919              00              00  37314081.39109 157888127.44809              00              00
C12  22968426.02209 119602691.73509              00              00              00              00  22968423.84209  97186890.05809              00              00
C19  22377354.67709 116524807.36509              00              00  22377353.80109  87813538.97409  22377346.27809  94685849.99809  22377350.92409 117593773.68209
C20  24792666.42809 129101991.10309              00              00  24792671.18109  97291741.37109  24792662.56809 104905811.13509  24792662.96109 130286437.22909
C22  23374879.78609 121719117.75509              00              00  23374875.96209  91728050.45709  23374869.04609  98906749.57509  23374869.40409 122835717.55209
C36  22496898.99409 117147219.56109              00              00  22496905.80209  88282881.26909  22496901.03109  95191831.86709  22496896.72509 118221909.80909
C39  26141655.92009 136126507.38509              00              00  26141641.66109 102585407.96509  26141640.33809 110613938.60509              00              00
> 2026 06 07 17 09 48.0000000  0 13
C01  38581299.08909 200903052.41009              00              00              00              00  38581294.87209 163250095.97409              00              00
C02  36969522.77809 192509956.21709              00              00              00              00  36969512.34209 156430103.45909              00              00
C03  37006773.06109 192703991.21009              00              00              00              00  37006764.12709 156587737.14409              00              00
C07              00              00              00              00              00              00  37173828.48409 157294643.54709              00              00
C08  38168200.80109 198751846.47309              00              00              00              00  38168194.88609 161502169.79609              00              00
C09  38845889.71509 202280723.92009  38845910.65709 156416321.10009              00              00  38845897.32709 164369697.18209              00              00
C10              00              00  37314005.14409 150248018.66809              00              00  37314004.50109 157887802.44909              00              00
C12  22976187.25309 119643106.71009              00              00              00              00  22976185.82409  97219730.53409              00              00
C19  22381252.59009 116545104.93109              00              00  22381251.57109  87828835.28309  22381242.45809  94702343.38609  22381249.39109 117614257.45609
C20  24802022.70209 129150711.88709              00              00  24802028.67009  97328457.58009  24802018.87809 104945400.76709  24802020.61109 130335605.05309
C22  23369872.47409 121693044.63109              00              00  23369867.11409  91708401.73709              00              00  23369863.18309 122809405.29209
C36  22495062.45209 117137649.27409              00              00  22495068.33109  88275669.07309  22495063.04109  95184055.24409  22495057.25209 118212251.77009
C39  26135901.16609 136096545.98009              00              00  26135890.46209 102562828.92209  26135884.33309 110589592.59209  26135895.71619 137345059.43419
> 2026 06 07 17 10  3.0000000  0 13
C01  38581275.82409 200902931.41809              00              00              00              00  38581271.60709 163249997.63909              00              00
C02  36969724.34009 192511006.09209              00              00              00              00  36969713.76209 156430956.58209              00              00
C03  37006922.73209 192704770.76009              00              00              00              00  37006913.83309 156588370.60409              00              00
C07              00              00              00              00              00              00  37173740.51509 157294267.58709              00              00
C08  38163341.74909 198726545.45209              00              00              00              00  38163335.58409 161481610.71909              00              00
C09  38851484.57809 202309850.65209  38851505.77009 156438843.88109              00              00  38851486.56109 164393365.01909              00              00
C10              00              00  37313924.43009 150247691.11509              00              00  37313923.12509 157887458.20509              00              00
C12  22983960.67109 119683586.40109              00              00              00              00  22983958.63409  97252623.63109              00              00
C19  22385171.71309 116565512.83009              00              00  22385169.55109  87844214.76509  22385165.74509  94718926.45809  22385169.64009 117634852.61809
C20  24811385.24809 129199462.00709              00              00  24811391.34109  97365195.85309  24811380.88809 104985014.20209  24811381.74609 130384802.38109
C22  23364884.17609 121667070.97009              00              00  23364877.72509  91688827.88809              00              00  23364876.92109 122783193.23809
C36  22493232.80709 117128116.48509              00              00  22493238.18509  88268485.09209  22493232.75309  95176309.03909  22493242.06319 118202751.72519
C39  26130151.61109 136066609.27309              00              00  26130148.57309 102540268.63409  26130139.13809 110565266.67409  26130155.63109 137314856.21909
> 2026 06 07 17 10 18.0000000  0 13
C01  38581251.59309 200902805.43909              00              00              00              00  38581247.34109 163249895.31809              00              00
C02  36969925.02709 192512051.09009              00              00              00              00  36969914.57409 156431805.75709              00              00
C03  37007071.40209 192705545.22509              00              00              00              00  37007062.57509 156588999.91809              00              00
C07              00              00              00              00              00              00  37173649.91909 157293875.76409              00              00
C08  38158485.12709 198701256.56209              00              00              00              00  38158479.40909 161461061.50509              00              00
C09  38857080.22609 202338980.60909  38857100.27509 156461369.07509              00              00              00              00              00              00
C10              00              00  37313839.44409 150247345.88909              00              00  37313837.51509 157887095.40609              00              00
C12  22991747.38409 119724131.45509              00              00              00              00  22991742.95209  97285569.81209              00              00
C19  22389112.40409 116586031.91309              00              00  22389109.08109  87859677.99109  22389107.31209  94735599.89609  22389109.95609 117655559.88709
C20  24820752.52909 129248242.04509              00              00  24820759.26609  97401956.72509  24820749.52709 105024651.96009  24820747.59809 130434029.91909
C22  23359914.97909 121641197.80409              00              00  23359908.65409  91669329.83209              00              00  23359909.31509 122757082.75009
C36              00              00              00              00  22491414.24109  88261329.94309  22491409.86309  95168593.90209  22491416.04509 118193170.02109
C39  26124408.07809 136036698.21909              00              00  26124404.64709 102517727.55809  26124397.12409 110540961.49009  26124410.31209 137284670.65409
> 2026 06 07 17 10 33.0000000  0 13
C01  38581223.91409 200902661.38509              00              00              00              00  38581219.55409 163249778.25509              00              00
C02  36970122.24809 192513078.12909              00              00              00              00  36970111.59809 156432640.31309              00              00
C03  37007216.69509 192706301.59709              00              00              00              00  37007207.86809 156589614.55609              00              00
C07              00              00              00              00              00              00  37173553.35509 157293457.60009              00              00
C08  38153628.80909 198675966.89909              00              00              00              00  38153623.46609 161440511.67909              00              00
C09  38862673.73109 202368100.55509  38862691.08209 156483886.54909              00              00              00              00              00              00
C10              00              00  37313747.54409 150246973.09809              00              00  37313745.11409 157886703.64909              00              00
C12  22999544.33609 119764728.71309              00              00              00              00  22999538.13509  97318558.36609              00              00
C19  22393071.71509 116606648.95909              00              00  22393068.64209  87875215.06309  22393063.79909  94752352.91609  22393069.14209 117676366.09209
C20  24830123.13409 129297038.73309              00              00  24830130.19309  97438730.14009  24830121.63309 105064303.27509  24830118.20309 130483274.32409
C22  23354962.95509 121615412.37109              00              00  23354956.86109  91649897.90509  23354944.87119  98822410.14819  23354957.77309 122731060.77209
C36  22489611.98919 117109355.77819              00              00  22489594.37009  88254193.75109  22489591.35009  95160899.20109  22489596.26409 118183613.69309
C39  26118666.51109 136006799.74009              00              00  26118660.38209 102495195.89809  26118655.82509 110516666.49209  26118668.33309 137254497.74609
> 2026 06 07 17 10 48.0000000  0 14
C01  38581196.96809 200902521.11709              00              00              00              00  38581192.64309 163249664.30709              00              00
C02  36970320.27209 192514109.09109              00              00              00              00  36970309.78309 156433478.08209              00              00
C03  37007362.73909 192707061.71209              00              00              00              00  37007353.98309 156590232.22109              00              00
C07  37173465.33219 193571993.59919              00              00              00              00  37173453.89609 157293030.72409              00              00
C08  38148776.36909 198650698.38909              00              00              00              00  38148771.22209 161419979.02109              00              00
C09  38868269.32609 202397232.42909  38868282.81709 156506413.16409              00              00              00              00              00              00
C10              00              00  37313652.76709 150246589.43909              00              00  37313649.92609 157886300.44809              00              00
C12  23007355.02809 119805399.60709              00              00              00              00  23007349.22109  97351606.74009              00              00
C19  22397053.93409 116627385.65609              00              00  22397051.84409  87890842.33409  22397046.28609  94769203.15809  22397051.82609 117697293.07909
C20  24839501.99509 129345873.59109              00              00  24839508.66009  97475532.27809  24839500.15409 105103985.60309  24839497.31309 130532557.27609
C22  23350032.76609 121589736.72809              00              00  23350025.42209  91630548.66809  23350016.75609  98801546.68809  23350027.92409 122705149.60709
C30  25248277.82009 131474393.73709              00              00  25248280.66209  99079674.80709  25248276.99909 106833728.68709  25248267.86709 132680552.56809
C36  22487796.53209 117099933.04209              00              00  22487784.59509  88247092.88909  22487781.59309  95153242.55609  22487783.29109 118174104.78309
C39  26112930.66209 135976935.48909              00              00  26112923.72809 102472690.13209  26112922.29909 110492399.41509  26112932.93109 137224359.60809
> 2026 06 07 17 11  3.0000000  0 14
C01  38581170.91509 200902385.51609              00              00              00              00  38581166.59009 163249554.08409              00              00
C02  36970519.20809 192515144.80409              00              00              00              00  36970508.84409 156434319.69809              00              00
C03  37007509.62209 192707826.44409              00              00              00              00  37007500.81309 156590853.67609              00              00
C07  37173356.56309 193571458.63309              00              00              00              00  37173351.75609 157292596.13609              00              00
C08  38143927.50209 198625452.03709              00              00              00              00  38143922.91009 161399464.31109              00              00
C09  38873866.38709 202426376.86409  38873876.89309 156528949.49409              00              00              00              00              00              00
C10              00              00  37313555.45209 150246195.71809              00              00  37313551.98609 157885886.70509              00              00
C12  23015179.62309 119846144.83809              00              00              00              00  23015174.72709  97384715.49509              00              00
C19  22401059.79409 116648242.76209              00              00  22401058.06109  87906560.33909  22401052.50309  94786151.27209  22401056.23809 117718341.48109
C20  24848888.43209 129394747.32009              00              00  24848882.58909  97512363.58809  24848885.00109 105143699.47309  24848883.19609 130581879.38009
C22              00              00              00              00  23345114.46109  91611283.13809  23345109.31409  98780773.29109  23345121.41209 122679350.15709
C30  25241277.93509 131437945.36709              00              00  25241280.06109  99052207.24809  25241276.48709 106804111.45709  25241268.58909 132643769.91509
C36  22485992.29709 117090558.16509              00              00  22485984.52309  88240027.89809  22485981.45009  95145624.63909  22485984.63109 118164643.81009
C39              00              00              00              00  26107194.65209 102450210.93409  26107196.63509 110468160.94209  26107205.19409 137194257.03809
> 2026 06 07 17 11 18.0000000  0 14
C01  38581145.84509 200902254.97709              00              00              00              00  38581141.50209 163249448.03509              00              00
C02  36970719.18009 192516185.72309              00              00              00              00  36970708.78009 156435165.55109              00              00
C03  37007657.50609 192708596.19509              00              00              00              00  37007648.55409 156591479.15209              00              00
C07  37173252.58309 193570914.49309              00              00              00              00  37173247.25809 157292153.93809              00              00
C08  38139082.87009 198600228.21509              00              00              00              00  38139079.10009 161378967.95109              00              00
C09  38879464.10809 202455534.11909  38879473.84709 156551495.84609              00              00  38879475.29419 164511776.39519              00              00
C10              00              00  37313455.58209 150245792.26109              00              00  37313451.49009 157885462.75209              00              00
C12  23023017.72709 119886964.43509              00              00              00              00  23023012.59909  97417884.70809              00              00
C19  22405089.25909 116669220.56909              00              00  22405087.16809  87922369.26709  22405080.52109  94803197.41109  22405084.45209 117739511.74209
C20  24858281.64109 129443659.98809              00              00  24858281.10509  97549224.08509  24858276.97709 105183444.98409  24858276.90609 130631240.76109
C22              00              00              00              00  23340224.19209  91592101.45709  23340222.26209  98760090.50309              00              00
C30  25234278.74509 131401500.34009              00              00  25234280.51409  99024742.20009  25234277.81609 106774496.94709  25234269.66809 132606990.49809
C36  22484199.64009 117081231.24909              00              00  22484195.08409  88232999.02309  22484190.13409  95138045.66409              00              00
C39              00              00              00              00  26101473.29409 102427758.57309  26101474.52709 110443951.41809  26101481.53209 137164190.41309
> 2026 06 07 17 11 33.0000000  0 15
C01  38581122.27509 200902132.63609              00              00              00              00  38581118.11209 163249348.62009              00              00
C02  36970920.74309 192517234.91109              00              00              00              00  36970910.43209 156436018.14909              00              00
C03  37007806.90909 192709374.05609              00              00              00              00  37007798.04609 156592111.26109              00              00
C07  37173147.67409 193570364.22909              00              00              00              00  37173141.13409 157291706.82909              00              00
C08  38134243.67109 198575030.10909              00              00              00              00  38134240.61509 161358492.50109              00              00
C09  38885065.18909 202484707.42209  38885074.55209 156574054.52909              00              00  38885079.80609 164535482.06309              00              00
C10  37313350.13719 194300418.94619  37313353.72909 150245381.43309              00              00  37313349.15409 157885030.99309              00              00
C12  23030870.35909 119927861.24009              00              00              00              00  23030864.42609  97451116.69209              00              00
C19  22409141.61409 116690321.92809              00              00  22409139.27309  87938271.34609  22409132.84009  94820343.97909  22409136.23509 117760806.68809
C20  24867682.46309 129492614.35309              00              00  24867688.48409  97586116.24709  24867677.26309 105223224.39009  24867679.19309 130680644.26009
C22  23335362.63819 121513389.87819              00              00              00              00  23335356.45509  98739500.93009              00              00
C27  25275052.21119 131613826.25119              00              00              00              00              00              00              00              00
C30  25227280.66409 131365062.06209              00              00  25227282.16509  98997282.23309  25227281.59309 106744887.91609  25227271.96209 132570217.97109
C36  22482417.68809 117071955.22809              00              00  22482415.04309  88226008.53109  22482408.37809  95130508.09709  22482409.12919 118145920.51219
C39  26095808.36719 135887712.00019              00              00  26095759.28109 102405335.26609  26095756.70809 110419773.26509  26095766.44709 137134162.73609
> 2026 06 07 17 11 48.0000000  0 14
C01  38581098.08109 200902006.85409              00              00              00              00  38581094.00609 163249246.47609              00              00
C02  36971121.66209 192518280.83609              00              00              00              00  36971111.37009 156436868.03009              00              00
C03  37007955.70509 192710148.58509              00              00              00              00  37007946.78809 156592740.56509              00              00
C07  37173039.31709 193569796.37909              00              00              00              00  37173031.54409 157291245.30809              00              00
C08  38129407.49109 198549846.24509              00              00              00              00  38129404.95409 161338028.60309              00              00
C09  38890667.39609 202513884.96809  38890676.47309 156596616.47809              00              00  38890685.15809 164559191.29909              00              00
C10  37313245.15709 194299866.58309  37313247.65809 150244954.30409              00              00  37313242.97609 157884582.14309              00              00
C12  23038736.87509 119968823.45509              00              00              00              00  23038732.24609  97484401.81709              00              00
C19  22413214.91109 116711535.11609              00              00  22413211.96309  87954257.72909  22413206.88809  94837581.45109  22413209.71109 117782214.54609
C20  24877089.50309 129541598.65609              00              00  24877095.64909  97623030.97809  24877084.05209 105263028.11609  24877083.28409 130730077.91609
C22  23330516.75509 121488154.92109              00              00              00              00  23330509.62609  98718995.42809  23330515.77319 122602741.82919
C30  25220281.49309 131328619.24909              00              00  25220283.28009  98969818.86109  25220284.78109 106715275.18009  25220275.16709 132533440.75809
C36              00              00              00              00  22480640.41709  88219047.68509  22480635.80709  95123002.43009  22480634.82409 118136598.99909
C39  26090055.90019 135857746.06819              00              00  26090051.75409 102382932.38909  26090047.10809 110395617.19709  26090059.83109 137104162.44109
> 2026 06 07 17 12  3.0000000  0 14
C01  38581073.33209 200901878.18509              00              00              00              00  38581069.18609 163249141.88409              00              00
C02  36971322.02709 192519323.88909              00              00              00              00  36971311.78909 156437715.63609              00              00
C03  37008103.96409 192710919.96109              00              00              00              00  37008095.01109 156593367.42409              00              00
C07              00              00              00              00              00              00  37172917.98609 157290769.84809              00              00
C08  38124574.15309 198524677.18109              00              00              00              00  38124571.91909 161317576.70509              00              00
C09  38896270.90709 202543067.00309  38896279.35909 156619181.89009              00              00  38896289.15109 164582904.13409              00              00
C10  37313135.45909 194299293.53109  37313137.56709 150244511.24709              00              00  37313132.99309 157884116.53809              00              00
C12  23046616.68509 120009851.34509              00              00              00              00  23046613.75409  97517740.30009              00              00
C19  22417310.22309 116732860.48909              00              00  22417307.13209  87970328.61909  22417302.82509  94854910.07109  22417304.98709 117803735.58809
C20  24886502.52909 129590613.03109              00              00  24886507.62109  97659968.39509  24886497.59709 105302856.26609  24886496.75709 130779541.95009
C22  23325690.67209 121463023.96709              00              00  23325684.40019  91534991.42819  23325682.47009  98698574.53509  23325690.81509 122577380.34809
C30  25213281.85709 131292172.58209              00              00  25213284.19809  98942352.58809  25213285.82409 106685659.29409  25213276.35409 132496659.68309
C36  22478868.14919 117053360.77919              00              00  22478871.58009  88212116.74309  22478871.06209  95115528.95809  22478868.09609 118127317.53009
C39              00              00              00              00  26084349.35609 102360550.09509  26084345.60409 110371483.32609  26084357.98709 137074189.86109
> 2026 06 07 17 12 18.0000000  0 14
C01  38581045.65309 200901734.01209              00              00              00              00  38581041.50709 163249024.77409              00              00
C02  36971519.46209 192520351.62009              00              00              00              00  36971509.20609 156438550.76409              00              00
C03  37008249.34609 192711675.84809              00              00              00              00  37008240.16209 156593981.67709              00              00
C07              00              00              00              00              00              00  37172798.49609 157290270.22609              00              00
C08  38119741.27909 198499510.38909              00              00              00              00  38119739.01009 161297126.68909              00              00
C09  38901872.61309 202572241.15609  38901880.69009 156641741.14409              00              00  38901891.53709 164606610.54609              00              00
C10  37313019.93509 194298687.35109  37313021.04309 150244042.51709              00              00  37313017.13009 157883623.97909              00              00
C12  23054505.96609 120050931.93209              00              00              00              00  23054504.08909  97551121.64509              00              00
C19  22421425.17309 116754285.37809              00              00  22421421.68909  87986474.45309  22421417.15009  94872319.50509  22421420.22309 117825357.02109
C20  24895918.95009 129639644.62409              00              00  24895923.27409  97696918.77809  24895914.35709 105342698.41109  24895912.91009 130829023.34709
C22  23320882.69009 121437984.79709              00              00  23320875.18509  91516121.95209  23320873.16509  98678228.21009  23320882.90409 122552111.42009
C30  25206279.52309 131255709.73709              00              00  25206282.50709  98914874.14909  25206283.04309 106656030.32609  25206274.41309 132459862.35109
C36  22477108.06809 117044190.63609              00              00  22477108.14009  88205206.09809  22477109.21209  95108077.44909  22477106.72809 118118063.30009
C39              00              00              00              00  26078648.83409 102338178.90009  26078639.89909 110347361.41009  26078657.48309 137044232.07709
> 2026 06 07 17 12 33.0000000  0 14
C01  38581025.56809 200901629.47509              00              00              00              00  38581021.51209 163248939.86409              00              00
C02  36971724.49109 192521419.00809              00              00              00              00  36971714.21709 156439418.10409              00              00
C03  37008402.32309 192712471.34509              00              00              00              00  37008392.99509 156594628.09209              00              00
C07              00              00              00              00              00              00  37172684.15209 157289791.28109              00              00
C08  38114919.48409 198474401.10109              00              00              00              00  38114916.58909 161276723.40209              00              00
C09              00              00  38907490.83109 156664336.84709              00              00  38907502.69609 164630355.18609              00              00
C10  37312908.71909 194298103.15309  37312908.89709 150243590.77609              00              00  37312905.53809 157883149.28509              00              00
C12  23062415.65309 120092120.13309              00              00              00              00  23062414.17009  97584590.49409              00              00
C19  22425568.85709 116775864.64909              00              00  22425565.55109  88002736.64709  22425560.44009  94889854.40209  22425565.72909 117847134.26109
C20  24905348.91609 129688748.29709              00              00  24905352.97209  97733923.50709  24905343.89409 105382599.16009  24905341.58909 130878577.46609
C22  23316103.35109 121413092.69609              00              00  23316094.23809  91497363.22809  23316092.48709  98658001.37009  23316102.70809 122526991.01509
C30  25199284.98009 131219286.19809              00              00  25199289.10809  98887425.36009  25199287.76809 106626433.28309  25199279.83409 132423104.66709
C36  22475361.78209 117035102.53809              00              00  22475362.58709  88198357.30209  22475362.78309  95100692.62309  22475360.65709 118108891.85209
C39              00              00              00              00  26072960.73109 102315860.66209  26072955.29909 110323296.69309  26072970.82709 137014345.18709
> 2026 06 07 17 12 48.0000000  0 14
C01  38581002.67809 200901510.26809              00              00              00              00  38580998.47909 163248842.98009              00              00
C02  36971926.73309 192522471.80709              00              00              00              00  36971916.40509 156440273.63909              00              00
C03  37008552.45809 192713252.05809              00              00              00              00  37008542.95209 156595262.51909              00              00
C07              00              00              00              00              00              00  37172564.85809 157289288.76809              00              00
C08  38110098.10009 198449295.05409              00              00              00              00  38110094.43709 161256322.73209              00              00
C09  38913089.62519 202630650.84419  38913099.70309 156686926.70509              00              00  38913112.08609 164654093.74909              00              00
C10  37312791.10509 194297486.61509  37312790.67609 150243114.04809              00              00  37312787.94209 157882648.32609              00              00
C12  23070335.82909 120133361.37209              00              00              00              00  23070334.04209  97618102.39009              00              00
C19  22429731.74909 116797543.78209              00              00  22429729.17609  88019074.11309  22429723.19009  94907470.48309  22429726.40609 117869012.21109
C20  24914782.00909 129737869.38709              00              00  24914785.97609  97770941.36109  24914776.68409 105422514.09809  24914775.70109 130928149.26709
C22  23311341.77509 121388293.55009              00              00  23311363.46819  91478796.01319  23311329.73109  98637850.08009  23311339.41609 122501964.29009
C30  25192287.66709 131182847.95909              00              00  25192290.79409  98859965.38509  25192290.29409 106596824.27409  25192283.18209 132386332.07509
C36  22473620.89309 117026042.03509              00              00  22473625.86009  88191529.34409  22473623.14409  95093330.18909  22473618.58809 118099748.18409
C39              00              00              00              00  26067276.38009 102293554.09509  26067270.01909 110299244.46609              00              00
> 2026 06 07 17 13  3.0000000  0 14
C01  38580979.55509 200901390.03209              00              00              00              00  38580975.41009 163248745.29209              00              00
C02  36972128.83209 192523523.76909              00              00              00              00  36972118.57509 156441128.42809              00              00
C03  37008702.30809 192714031.75409              00              00              00              00  37008692.67709 156595896.08309              00              00
C07              00              00              00              00              00              00  37172443.67109 157288774.06709              00              00
C08  38105279.87909 198424205.99809              00              00              00              00  38105275.91209 161235935.88509              00              00
C09  38918695.56609 202659870.82009  38918709.79009 156709521.32709              00              00  38918722.67309 164677837.38909              00              00
C10  37312669.61309 194296851.43309  37312668.97009 150242622.89409              00              00  37312666.48609 157882132.18609              00              00
C12  23078269.42509 120174669.09709              00              00              00              00  23078266.85209  97651668.28909              00              00
C19  22433917.01409 116819336.45409              00              00  22433914.74409  88035497.10909  22433908.61509  94925178.75809  22433911.58209 117891004.83109
C20  24924221.46309 129787021.44009              00              00  24924225.09009  97807982.54509  24924216.12009 105462454.14309  24924216.51309 130977752.28509
C22  23306600.49809 121363601.32409              00              00  23306617.99209  91460188.03409  23306587.34609  98617785.63009  23306597.06709 122477045.54109
C30  25185290.05109 131146409.01809              00              00  25185292.40909  98832505.00209  25185290.67609 106567214.74409  25185285.11909 132349558.85609
C36  22471888.34809 117017022.71209              00              00  22471894.24509  88184732.31109  22471891.35009  95086001.22709  22471883.70209 118090646.12109
C39  26061610.05909 135709722.52809              00              00  26061600.83909 102271269.50509  26061593.45909 110275215.98209              00              00
> 2026 06 07 17 13 18.0000000  0 14
C01  38580955.71809 200901266.38109              00              00              00              00  38580951.57209 163248644.84209              00              00
C02  36972330.28709 192524572.39009              00              00              00              00  36972319.99509 156441980.53309              00              00
C03  37008851.62209 192714807.97509              00              00              00              00  37008841.75809 156596526.78409              00              00
C07              00              00              00              00              00              00  37172319.33809 157288245.06809              00              00
C08  38100464.49909 198399131.58009              00              00              00              00  38100460.69309 161215560.93209              00              00
C09  38924351.70119 202689318.63119  38924321.23509 156732118.84709              00              00  38924334.99409 164701583.97809              00              00
C10  37312543.74409 194296195.20409  37312543.11809 150242115.46309              00              00  37312540.86709 157881598.96309              00              00
C12  23086215.28009 120216040.58709              00              00              00              00  23086211.67009  97685285.96609              00              00
C19  22438122.84609 116841239.94709              00              00  22438121.18409  88052003.64109  22438115.78809  94942977.11909  22438117.34209 117913109.25909
C20  24933666.24209 129836201.70909              00              00  24933669.70909  97845045.00909  24933661.41809 105502417.09909  24933661.29309 131027383.74709
C22  23301879.07309 121339013.72509              00              00  23301891.63509  91441658.60909  23301865.04609  98597806.19209  23301874.94509 122452232.35309
C30  25178291.70109 131109967.25109              00              00  25178294.73909  98805042.42509  25178290.57609 106537602.88509  25178286.71609 132312782.72009
C36  22470163.57609 117008042.01609              00              00  22470170.40209  88177964.42309  22470166.23909  95078703.71809  22470157.53709 118081583.01809
C39  26055936.21609 135680178.87309              00              00  26055933.39209 102249005.09909  26055920.33009 110251209.29609              00              00
> 2026 06 07 17 13 33.0000000  0 14
C01  38580930.46909 200901135.00809              00              00              00              00  38580926.44909 163248538.11909              00              00
C02  36972530.33109 192525613.38709              00              00              00              00  36972520.19909 156442826.45609              00              00
C03  37008999.41609 192715576.40909              00              00              00              00  37008989.32009 156597151.23209              00              00
C07              00              00              00              00              00              00  37172191.12809 157287698.30109              00              00
C08  38095650.92309 198374067.58909              00              00              00              00  38095647.83209 161195194.42209              00              00
C09  38929979.62209 202718586.62009  38929933.25109 156754715.81009              00              00  38929950.35219 164725356.97419              00              00
C10  37312412.90709 194295513.57309  37312412.28109 150241588.42709              00              00  37312409.99409 157881045.06709              00              00
C12  23094172.15909 120257471.23509              00              00              00              00  23094166.13709  97718951.71109              00              00
C19  22442348.81609 116863249.76909              00              00  22442348.95909  88068590.37709  22442342.43709  94960861.93109  22442340.20309 117935320.94809
C20  24943114.56009 129885405.52309              00              00  24943119.27709  97882125.20709  24943110.46809 105542399.21409  24943110.27109 131077038.96309
C22  23297176.80409 121314526.58309              00              00  23297185.20209  91423205.19109  23297161.66909  98577908.42109  23297171.97909 122427520.62609
C30  25171291.61909 131073518.62209              00              00  25171296.05009  98777574.68409  25171291.02909 106507985.42809  25171286.07909 132275999.68709
C36  22468445.05909 116999095.56709              00              00  22468452.85009  88171222.36209  22468445.95209  95071434.07409  22468439.60909 118072554.47809
C39  26050265.92809 135650657.75409              00              00  26050270.27009 102226757.64509  26050251.52609 110227220.83309  26050266.12519 136895022.03319
> 2026 06 07 17 13 48.0000000  0 14
C01  38580903.25509 200900993.63509              00              00              00              00  38580899.28809 163248423.21609              00              00
C02  36972728.40909 192526644.41309              00              00              00              00  36972718.33109 156443664.28509              00              00
C03  37009145.22809 192716334.73809              00              00              00              00  37009135.04209 156597767.43509              00              00
C07              00              00              00              00              00              00  37172058.28909 157287131.93509              00              00
C08  38090838.86709 198349011.74509              00              00              00              00  38090836.41909 161174834.53009              00              00
C09  38935592.94309 202747806.66009  38935544.94709 156777310.43709              00              00              00              00              00              00
C10  37312276.78109 194294804.29809  37312276.08409 150241039.96409              00              00  37312273.76109 157880468.74209              00              00
C12  23102139.45609 120298958.46309              00              00              00              00  23102131.64709  97752663.44009              00              00
C19  22446595.85409 116885363.55609              00              00  22446596.67609  88085255.43409  22446589.01009  94978831.19809  22446587.40209 117957637.63609
C20  24952566.77209 129934630.34609              00              00  24952572.72309  97919221.24009  24952562.98409 105582398.39009  24952564.73509 131126715.41009
C22  23292494.24409 121290137.87809              00              00  23292499.08709  91404825.77009  23292477.57209  98558090.60809  23292489.33009 122402908.18109
C30  25164290.17809 131037061.15009              00              00  25164295.07409  98750100.24209  25164290.33909 106478360.75009  25164283.35209 132239207.69609
C36  22466732.56309 116990180.94409              00              00  22466740.40809  88164504.29309  22466733.29609  95064190.29709  22466728.68609 118063558.06009
C39  26044599.41109 135621156.84109              00              00  26044605.80809 102204525.35009  26044588.38509 110203248.74009  26044600.42909 136865250.40809
> 2026 06 07 17 14  3.0000000  0 14
C01  38580878.07709 200900862.73309              00              00              00              00  38580873.93209 163248316.85009              00              00
C02  36972928.52409 192527686.07609              00              00              00              00  36972918.32109 156444510.70209              00              00
C03  37009293.05809 192717103.46609              00              00              00              00  37009282.76509 156598392.14509              00              00
C07              00              00              00              00              00              00  37171924.50409 157286562.66509              00              00
C08  38086032.60009 198323984.67709              00              00              00              00  38086030.33109 161154498.01809              00              00
C09  38941162.89619 202776918.65919  38941159.96609 156799918.36309              00              00              00              00              00              00
C10  37312139.42109 194294087.93309  37312138.52809 150240486.02109              00              00  37312135.99109 157879886.62509              00              00
C12  23110121.01209 120340522.49109              00              00              00              00  23110115.00809  97786437.57909              00              00
C19  22450866.56809 116907601.66409              00              00  22450866.74709  88102014.16809  22450859.58209  94996901.46109  22450858.22409 117980079.77009
C20  24962027.38409 129983896.36809              00              00  24962033.78109  97956348.33809  24962024.20309 105622431.08309  24962025.93609 131176433.47009
C22  23287835.43309 121265868.20609              00              00  23287836.68309  91386536.14609  23287819.38609  98538369.54509  23287829.82209 122378416.08909
C30  25157291.11409 131000615.66709              00              00  25157296.77909  98722634.83209  25157291.13209 106448745.87609  25157282.85909 132202427.83309
C36  22465031.07509 116981318.62009              00              00  22465038.40109  88157825.65009  22465032.29009  95056988.95409  22465027.85809 118054614.46609
C39  26038940.95209 135591696.48509              00              00              00              00  26038929.96309 110179309.75309  26038941.43509 136835519.71509
> 2026 06 07 17 14 18.0000000  0 14
C01  38580853.72209 200900735.90509              00              00              00              00  38580849.75509 163248213.80809              00              00
C02  36973129.42609 192528731.86509              00              00              00              00  36973119.45509 156445360.55009              00              00
C03  37009441.69309 192717876.26109              00              00              00              00  37009431.09609 156599020.09609              00              00
C07              00              00              00              00              00              00  37171788.75309 157285985.30509              00              00
C08  38081230.85409 198298979.99009              00              00              00              00  38081228.29909 161134179.71109              00              00
C09  38946775.30619 202805989.53019  38946776.80709 156822534.63109              00              00              00              00              00              00
C10  37311999.47109 194293357.99009  37311998.41709 150239921.61109              00              00  37311995.55809 157879293.52909              00              00
C12  23118115.91709 120382156.70609              00              00              00              00  23118111.89709  97820268.76809              00              00
C19  22455158.99409 116929957.38509              00              00  22455157.35009  88118861.54209  22455153.40109  95015067.34909  22455151.97109 118002640.63409
C20  24971495.71409 130033196.97009              00              00  24971501.43209  97993501.47209  24971493.19509 105662491.85409  24971494.35609 131226186.37109
C22  23283197.86709 121241711.56209              00              00  23283196.77709  91368331.73409  23283183.14309  98518740.37009  23283191.95309 122354037.86509
C30  25150293.12209 130964175.99309              00              00  25150300.00209  98695173.80309  25150293.15809 106419135.72709  25150283.08009 132165653.84509
C36  22463338.32409 116972502.05609              00              00  22463346.34809  88151181.45309  22463340.00409  95049824.75309  22463334.87609 118045717.01909
C39  26033289.05209 135562270.42709              00              00  26033279.51019 102160182.68819  26033276.11509 110155398.50209  26033287.55109 136805823.54609
> 2026 06 07 17 14 33.0000000  0 14
C01  38580827.91909 200900601.69109              00              00              00              00  38580823.97009 163248104.79109              00              00
C02  36973328.95109 192529770.32909              00              00              00              00  36973318.96209 156446204.38509              00              00
C03  37009588.95109 192718641.59009              00              00              00              00  37009577.98009 156599642.00909              00              00
C07              00              00              00              00              00              00  37171648.78509 157285390.53809              00              00
C08  38076431.43109 198273986.30909              00              00              00              00  38076428.42909 161113870.32609              00              00
C09  38952397.31209 202835236.63009  38952393.77409 156845150.34609              00              00  38952388.94909 164820304.43309              00              00
C10  37311854.80409 194292603.08609  37311853.58809 150239337.86709              00              00  37311850.28309 157878680.06709              00              00
C12  23126122.34709 120423849.28609              00              00              00              00  23126118.29109  97854147.34109              00              00
C19  22459472.32609 116952419.17109              00              00  22459467.85809  88135788.81809  22459467.42909  95033319.41109  22459465.75009 118025308.50809
C20  24980968.40509 130082520.38309              00              00  24980973.21209  98030671.76809  24980966.70809 105702571.13409  24980967.72609 131275962.28409
C22  23278579.58209 121217656.55609              00              00  23278576.54509  91350203.73209  23278564.69809  98499193.76409  23278573.82909 122329762.23009
C30  25143294.39809 130927730.95509              00              00  25143301.40309  98667708.76109  25143294.43409 106389521.20009  25143285.74909 132128874.54909
C36  22461651.75709 116963719.68409              00              00  22461659.61909  88144563.03809  22461653.43609  95042688.34009  22461648.82609 118036854.07509
C39  26027641.94009 135532866.91509              00              00  26027633.61309 102138024.00809  26027628.48509 110131505.66009  26027641.49309 136776150.36009
> 2026 06 07 17 14 48.0000000  0 14
C01  38580800.84709 200900460.68209              00              00              00              00  38580796.86209 163247990.18509              00              00
C02  36973527.15409 192530802.14009              00              00              00              00  36973517.25509 156447042.79309              00              00
C03  37009734.83409 192719400.07609              00              00              00              00  37009723.61209 156600258.34109              00              00
C07  37171513.10519 193561819.54119              00              00              00              00  37171504.68909 157284778.89609              00              00
C08  38071634.29509 198249004.36109              00              00              00              00  38071630.70409 161093570.48209              00              00
C09  38958013.47409 202864483.51209  38958010.74009 156867765.80009              00              00  38958005.95109 164844069.81609              00              00
C10  37311705.22209 194291823.81209  37311704.23909 150238735.29909              00              00  37311700.43309 157878046.83409              00              00
C12  23134140.44609 120465600.61809              00              00              00              00  23134135.65709  97888073.68009              00              00
C19  22463806.70709 116974987.50909              00              00  22463804.86709  88152796.30709  22463800.20309  95051657.99009  22463800.25709 118048083.88609
C20  24990444.97309 130131866.90809              00              00  24990448.81509  98067859.49409  24990443.79409 105742669.21809  24990440.11309 131325761.45009
C22              00              00              00              00  23273975.75409  91332153.20609  23273965.35409  98479730.50609  23273974.59209 122305590.00709
C30  25136294.67309 130891281.54309              00              00  25136301.21309  98640240.42409  25136295.44109 106359903.12509  25136288.54409 132092090.67409
C36  22459971.90809 116954971.96809              00              00  22459979.39509  88137970.78309  22459972.69409  95035580.16509  22459968.85209 118028026.11809
C39  26021998.74209 135503486.65409              00              00  26021995.91909 102115882.75509  26021988.86009 110107631.84309  26022001.02909 136746500.63709
> 2026 06 07 17 15  3.0000000  0 14
C01  38580772.93609 200900315.45909              00              00              00              00  38580769.13009 163247872.29309              00              00
C02  36973724.62509 192531829.86009              00              00              00              00  36973714.54709 156447877.93509              00              00
C03  37009879.80509 192720154.28809              00              00              00              00  37009868.45809 156600871.23109              00              00
C07  37171365.70409 193561048.73509              00              00              00              00  37171356.78709 157284152.51709              00              00
C08  38066839.76809 198224036.76209              00              00              00              00  38066835.33709 161073282.30809              00              00
C09  38963629.67209 202893732.62909  38963628.20709 156890383.06609              00              00  38963623.23909 164867837.13209              00              00
C10  37311551.17309 194291022.74109  37311550.74409 150238115.85809              00              00  37311546.50909 157877395.94609              00              00
C12  23142170.37409 120507413.03609              00              00              00              00  23142164.78109  97922049.61709              00              00
C19  22468161.67409 116997664.72809              00              00  22468162.63909  88169885.96609  22468154.56209  95070085.07409  22468155.56309 118070969.13609
C20  24999926.13409 130181238.85509              00              00  24999928.01009  98105066.40309  24999924.59709 105782788.01409  24999921.13109 131375586.33909
C22              00              00              00              00  23269394.54709  91314181.81309  23269386.77409  98460352.65109  23269394.94009 122281523.97909
C30  25129294.39409 130854830.55009              00              00  25129300.04009  98612770.91409  25129295.75209 106330283.72809  25129286.53109 132055305.33009
C36  22458298.93809 116946261.46709              00              00  22458306.26509  88131406.54409  22458300.36809  95028502.23109  22458295.00709 118019235.70509
C39  26016360.01109 135474132.24909              00              00  26016352.72009 102093761.07409  26016356.49109 110083778.88809  26016365.87209 136716876.95209
> 2026 06 07 17 15 18.0000000  0 14
C01  38580748.34809 200900187.61009              00              00              00              00  38580744.50609 163247768.32509              00              00
C02  36973925.38309 192532874.96809              00              00              00              00  36973915.32309 156448727.21609              00              00
C03  37010028.15409 192720925.81609              00              00              00              00  37010016.64609 156601498.14909              00              00
C07  37171218.44509 193560281.31009              00              00              00              00  37171209.10009 157283528.89809              00              00
C08  38062052.03209 198199105.13909              00              00              00              00  38062046.63509 161053023.36709              00              00
C09  38969250.30209 202923005.41609  38969250.14109 156913018.58609              00              00  38969244.74509 164891623.63609              00              00
C10  37311396.99909 194290221.44309  37311397.16009 150237496.24609              00              00  37311392.42509 157876744.75909              00              00
C12  23150215.20509 120549307.66609              00              00              00              00  23150209.70109  97956092.42209              00              00
C19  22472542.19409 117020472.21309              00              00  22472542.40809  88187073.79109  22472535.11709  95088618.03109  22472536.47509 118093985.89009
C20  25009416.89009 130230657.49809              00              00  25009415.87209  98142308.44709  25009413.87009 105822944.70209  25009412.51209 131425458.38109
C22              00              00              00              00  23264838.23209  91296306.18509  23264832.38909  98441078.00209  23264839.93009 122257586.16909
C30  25122298.02809 130818399.85609              00              00  25122303.38909  98585316.70409  25122298.60009 106300680.88509  25122290.48709 132018540.40909
C36  22456637.35109 116937609.55909              00              00  22456644.66009  88124886.44909  22456639.71009  95021471.92409  22456633.15209 118010504.39209
C39  26010731.80509 135444825.13809              00              00  26010724.58609 102071674.96309  26010727.03409 110059964.35109  26010738.27309 136687300.99009
> 2026 06 07 17 15 33.0000000  0 14
C01  38580725.13609 200900066.87309              00              00              00              00  38580721.40209 163247670.20809              00              00
C02  36974127.62509 192533927.29909              00              00              00              00  36974117.65409 156449582.29309              00              00
C03  37010177.86109 192721704.29609              00              00              00              00  37010166.08509 156602130.77309              00              00
C07  37171069.54309 193559507.07209              00              00              00              00  37171059.62509 157282899.73009              00              00
C08  38057269.06609 198174199.33309              00              00              00              00  38057263.25909 161032785.43509              00              00
C09  38974873.70109 202952291.58809  38974874.64809 156935664.48909              00              00  38974868.82309 164915421.06609              00              00
C10  37311241.00309 194289409.66009  37311241.44909 150236868.54609              00              00  37311236.48209 157876085.16009              00              00
C12  23158272.63309 120591274.01909              00              00              00              00  23158268.72009  97990193.56609              00              00
C19  22476945.44209 117043399.58209              00              00  22476943.78109  88204351.92809  22476937.72309  95107248.37209  22476939.61709 118117123.57009
C20  25018914.91909 130280112.26109              00              00  25018913.16809  98179577.75509  25018909.93409 105863130.75309  25018910.59509 131475366.90809
C22  23260316.02919 121122571.49919              00              00  23260304.55709  91278518.61809  23260300.28709  98421898.33909  23260309.52509 122233766.37409
C30  25115303.71709 130781979.53909              00              00  25115309.00609  98557870.28209  25115301.84109 106271086.51009  25115296.90909 131981785.97609
C36  22454985.07409 116929005.93609              00              00  22454991.95409  88118402.75409  22454988.54109  95014480.81209  22454981.26809 118001821.80209
C39  26005112.22909 135415554.94209              00              00  26005107.02909 102049616.71809  26005105.04609 110036179.84409  26005116.37509 136657762.31209
> 2026 06 07 17 15 48.0000000  0 14
C01  38580699.26209 200899932.22909              00              00              00              00  38580695.33109 163247560.85709              00              00
C02  36974327.13309 192534965.76109              00              00              00              00  36974317.48309 156450426.14209              00              00
C03  37010324.85109 192722468.82509              00              00              00              00  37010312.89709 156602752.04109              00              00
C07  37170915.11909 193558705.00709              00              00              00              00  37170905.11209 157282247.95109              00              00
C08  38052486.92209 198149298.40409              00              00              00              00  38052481.58009 161012551.42809              00              00
C09  38980495.72509 202981569.96609  38980497.83309 156958304.39809              00              00  38980491.47209 164939212.16309              00              00
C10  37311079.09109 194288566.38309  37311079.57409 150236216.49609              00              00  37311074.30309 157875399.96309              00              00
C12  23166341.05109 120633290.92609              00              00              00              00  23166337.72709  98024335.74509              00              00
C19  22481367.15009 117066425.58009              00              00  22481365.64909  88221704.42109  22481358.51909  95125958.86809  22481361.32509 118140360.84509
C20  25028415.68209 130329581.90009              00              00  25028415.71809  98216858.23609  25028409.05309 105903328.85409  25028409.75009 131525290.37609
C22  23255801.93909 121099064.28909              00              00  23255789.73409  91260803.49209  23255786.16109  98402796.82109  23255797.04309 122210043.45109
C30  25108307.72709 130745548.89209              00              00  25108312.78309  98530416.08709  25108308.15509 106241483.74309  25108301.24009 131945021.09009
C36  22453337.80109 116920429.46709              00              00  22453344.35909  88111939.53009  22453341.42809  95007511.76109  22453334.53109 117993166.62309
C39  25999495.56609 135386300.79409              00              00  25999490.24209 102027570.49609  25999486.34609 110012408.36909  25999495.29809 136628239.87109
> 2026 06 07 17 16  3.0000000  0 14
C01  38580675.31709 200899807.64009              00              00              00              00  38580671.29709 163247459.62509              00              00
C02  36974528.62409 192536014.39009              00              00              00              00  36974518.84909 156451278.28209              00              00
C03  37010473.70009 192723243.41709              00              00              00              00  37010461.60309 156603381.46109              00              00
C07  37170759.98009 193557899.20809              00              00              00              00  37170750.77709 157281593.14609              00              00
C08  38047710.55109 198124426.35209              00              00              00              00  38047706.01209 160992340.92709              00              00
C09  38986121.23309 203010864.38409  38986124.25309 156980956.72709              00              00  38986117.28409 164963016.38609              00              00
C10  37310915.67909 194287715.63609  37310916.12609 150235558.65109              00              00  37310910.46109 157874708.62609              00              00
C12  23174424.60409 120675382.02209              00              00              00              00  23174421.26209  98058538.21309              00              00
C19  22485812.55209 117089574.06509              00              00  22485811.83709  88239149.17509  22485804.27909  95144768.87909  22485807.90609 118163721.76909
C20  25037922.98509 130379090.12009              00              00  25037925.57609  98254167.82109  25037915.49809 105943558.29609  25037916.49909 131575252.81509
C22  23251310.54209 121075677.31409              00              00  23251297.83709  91243179.03409  23251294.21009  98383793.01009  23251307.36109 122186441.99309
C30  25101314.13009 130709132.17209              00              00  25101319.86609  98502972.40409  25101317.18609 106211892.29109  25101308.30509 131908270.25509
C36  22451700.89109 116911904.01109              00              00  22451707.14509  88105514.79009  22451701.99909  95000584.18509  22451697.72809 117984562.95509
C39  25993886.58709 135357086.59309              00              00  25993881.60209 102005554.42009  25993872.81009 109988669.30309  25993884.65809 136598757.62709
> 2026 06 07 17 16 18.0000000  0 14
C01  38580652.24809 200899687.55209              00              00              00              00  38580648.38909 163247362.05109              00              00
C02  36974730.99009 192537067.63209              00              00              00              00  36974721.27009 156452134.16909              00              00
C03  37010623.37109 192724022.39209              00              00              00              00  37010611.20209 156604014.47409              00              00
C07  37170602.87509 193557084.03509              00              00              00              00  37170594.88809 157280930.73609              00              00
C08  38042938.80709 198099577.76609              00              00              00              00  38042934.80409 160972149.45509              00              00
C09  38991748.77809 203040169.39209  38991752.92309 157003617.24209              00              00  38991745.65109 164986829.06809              00              00
C10  37310749.73009 194286851.88809  37310750.15809 150234890.74209              00              00  37310743.97609 157874006.80509              00              00
C12  23182521.91609 120717541.53809              00              00              00              00  23182517.94909  98092796.24009              00              00
C19  22490280.91609 117112839.33209              00              00  22490280.07609  88256681.93609  22490274.09009  95163673.78909  22490274.03609 118187200.37009
C20  25047436.39909 130428631.04309              00              00  25047440.77709  98291502.04709  25047428.66209 105983814.29709  25047430.98509 131625248.24509
C22  23246841.17809 121052405.31609              00              00  23246828.50909  91225641.14909  23246824.11309  98364882.62409  23246840.73109 122162956.49109
C30  25094321.60709 130672724.16109              00              00  25094328.98609  98475535.20109  25094328.61109 106182307.83309  25094317.49709 131871528.16109
C36  22450072.66609 116903423.98409              00              00  22450078.86609  88099124.24309  22450072.39809  94993693.47909  22450068.84209 117976005.16809
C39  25988283.29109 135327906.87509              00              00  25988277.89409 101983564.10709  25988268.24509 109964958.14209  25988281.25409 136569309.93209
> 2026 06 07 17 16 33.0000000  0 14
C01  38580625.64209 200899549.14209              00              00              00              00  38580621.90709 163247249.56509              00              00
C02  36974929.76509 192538102.58309              00              00              00              00  36974920.31309 156452975.12109              00              00
C03  37010769.48609 192724782.98109              00              00              00              00  37010757.22809 156604632.51709              00              00
C07  37170439.05209 193556236.68409              00              00              00              00  37170432.58309 157280242.20609              00              00
C08  38038166.92009 198074729.78209              00              00              00              00  38038162.97109 160951958.46109              00              00
C09  38997373.57109 203069461.95809  38997379.03909 157026268.11909              00              00  38997372.32009 165010631.62509              00              00
C10  37310577.06109 194285952.25609  37310577.25809 150234195.09609              00              00  37310570.59309 157873275.76109              00              00
C12  23190627.19709 120759746.21809              00              00              00              00  23190622.71209  98127090.96409              00              00
C19  22494767.38109 117136198.30109              00              00  22494767.11309  88274285.32009  22494759.34009  95182654.81109  22494759.41109 118210773.57709
C20  25056951.76109 130478181.53009              00              00  25056957.15809  98328843.50109  25056945.40009 106024078.12909  25056945.59709 131675253.30309
C22  23242389.59309 121029225.59809              00              00  23242376.72809  91208172.77809  23242371.18809  98346047.20009  23242409.41019 122139670.93219
C30  25087326.76009 130636302.23709              00              00  25087334.33609  98448087.56309  25087336.74809 106152712.07209  25087323.06109 131834772.03809
C36  22448447.72809 116894966.42509              00              00  22448454.08909  88092750.58909  22448448.76409  94986820.98409  22448443.72509 117967469.96909
C39  25982682.83509 135298738.31409              00              00  25982675.47309 101961582.42009  25982670.22009 109941256.25409  25982678.95809 136539873.91409
> 2026 06 07 17 16 48.0000000  0 14
C01  38580598.32009 200899406.89909              00              00              00              00  38580594.49609 163247134.04509              00              00
C02  36975127.91509 192539133.81609              00              00              00              00  36975118.30109 156453813.12009              00              00
C03  37010914.86809 192725539.74609              00              00              00              00  37010902.48509 156605247.43909              00              00
C07  37170271.94109 193555371.68609              00              00              00              00  37170266.40209 157279539.40509              00              00
C08  38033397.58809 198049897.02609              00              00              00              00  38033393.10309 160931779.86209              00              00
C09  39002998.40009 203098756.51509  39003005.31509 157048920.43209              00              00  39002998.79309 165034435.80709              00              00
C10  37310400.46209 194285031.29509  37310400.39009 150233482.99309              00              00  37310392.77809 157872527.44509              00              00
C12  23198742.52109 120802010.39609              00              00              00              00  23198739.05509  98161434.04509              00              00
C19  22499273.75209 117159665.28609              00              00  22499274.19809  88291970.15609  22499266.01409  95201723.66709  22499266.83609 118234455.88209
C20  25066472.14509 130527755.86109              00              00  25066477.23709  98366202.94009  25066468.58909 106064361.30809  25066465.31909 131725282.43809
C22  23237958.71909 121006152.81709              00              00  23237945.22809  91190785.09509  23237938.77709  98327298.72009              00              00
C30  25080333.03809 130599881.24909              00              00  25080339.47109  98420640.64509  25080337.93509 106123117.17709  25080325.42609 131798016.93909
C36  22446830.17109 116886545.64009              00              00  22446837.06809  88086404.73009  22446832.86909  94979978.45009  22446826.77509 117958971.97109
C39  25977088.22309 135269595.69709              00              00  25977079.12709 101939620.26309  25977078.05509 109917575.42409  25977082.16509 136510464.09409
> 2026 06 07 17 17  3.0000000  0 14
C01  38580574.64309 200899283.68809              00              00              00              00  38580570.83709 163247033.89109              00              00
C02  36975329.71009 192540184.10909              00              00              00              00  36975320.34609 156454666.60409              00              00
C03  37011063.82509 192726315.30909              00              00              00              00  37011051.40609 156605877.69809              00              00
C07  37170106.13409 193554511.98609              00              00              00              00  37170100.80909 157278840.86809              00              00
C08  38028635.88709 198025102.40509              00              00              00              00  38028630.27609 160911632.25309              00              00
C09  39008627.82109 203128075.71909  39008636.07709 157071591.91009              00              00              00              00              00              00
C10  37310224.05909 194284111.82309  37310223.91609 150232772.02609              00              00  37310215.78509 157871780.30809              00              00
C12  23206873.15909 120844356.52809              00              00              00              00  23206871.60409  98195843.77609              00              00
C19  22503805.13909 117183262.94309              00              00  22503804.90709  88309753.46509  22503799.51109  95220898.73409  22503800.01109 118258270.08409
C20  25076001.69509 130577376.58309              00              00  25076005.76909  98403597.30009  25075999.76509 106104682.18009  25075996.19109 131775358.42209
C22              00              00              00              00  23233538.38709  91173495.34509  23233531.54309  98308655.86009              00              00
C30  25073343.82009 130563484.34609              00              00  25073349.25209  98393211.87409  25073343.69509 106093541.83109  25073334.63609 131761286.09609
C36  22445224.97809 116878184.43609              00              00  22445232.05409  88080103.74809  22445227.78409  94973184.33609  22445220.24309 117950534.12609
C39  25971503.00909 135240501.84509              00              00  25971492.61009 101917694.81109  25971491.26909 109893934.11209  25971495.54009 136481103.45809
> 2026 06 07 17 17 18.0000000  0 14
C01  38580550.87809 200899159.73609              00              00              00              00  38580547.07109 163246933.20909              00              00
C02  36975531.34409 192541233.75909              00              00              00              00  36975521.74809 156455519.55509              00              00
C03  37011212.62009 192727090.18409              00              00              00              00  37011200.11209 156606507.35409              00              00
C07  37169937.66509 193553637.88009              00              00              00              00  37169932.43009 157278130.58409              00              00
C08  38023878.00909 198000326.27409              00              00              00              00  38023871.45109 160891499.67909              00              00
C09  39014257.93909 203157399.82209  39014267.01709 157094267.21109              00              00              00              00              00              00
C10  37310044.02809 194283174.16509  37310043.93909 150232046.97809              00              00  37310035.80909 157871018.40109              00              00
C12  23215017.48409 120886764.69909              00              00              00              00  23215015.60809  98230303.88409              00              00
C19  22508357.54109 117206971.41809              00              00  22508356.73709  88327620.25109  22508351.93009  95240163.80609  22508353.14509 118282196.05909
C20  25085536.03309 130627023.64509              00              00  25085539.21409  98441011.48709  25085532.94209 106145024.45509  25085529.97609 131825460.90109
C22  23229163.37119 120960317.98319              00              00  23229152.50709  91156288.89009  23229146.71709  98290102.72809  23229159.49409 122070081.59109
C30  25066355.04909 130527092.13609              00              00  25066360.46309  98365786.59609  25066354.87009 106063970.19809  25066345.79309 131724559.99509
C36  22443627.48809 116869863.00109              00              00  22443633.59909  88073832.70409  22443628.57809  94966422.51209  22443621.80509 117942136.38609
C39              00              00              00              00  25965909.63009 101895791.12309  25965900.58809 109870316.52209  25965914.22209 136451771.90909
> 2026 06 07 17 17 33.0000000  0 14
C01  38580527.16509 200899036.22509              00              00              00              00  38580523.35909 163246832.84209              00              00
C02  36975733.03209 192542283.91509              00              00              00              00  36975723.65009 156456372.91409              00              00
C03  37011361.57609 192727865.30009              00              00              00              00  37011348.97809 156607137.24709              00              00
C07  37169766.55109 193552750.42609              00              00              00              00  37169761.63709 157277409.48209              00              00
C08  38019123.92009 197975569.80309              00              00              00              00  38019117.21909 160871383.07509              00              00
C09  39019888.80809 203186729.89809  39019898.18909 157116946.99009              00              00              00              00              00              00
C10  37309860.65609 194282219.39809  37309860.76409 150231308.69409              00              00  37309852.32909 157870242.52509              00              00
C12  23223174.49709 120929235.74209              00              00              00              00  23223172.17409  98264815.05509              00              00
C19  22512931.52809 117230791.57509              00              00  22512931.17109  88345571.24309  22512925.36409  95259519.67909  22512927.20409 118306234.63509
C20  25095075.07209 130676697.79709              00              00  25095077.50209  98478446.14909  25095070.01509 106185388.80009  25095069.94309 131875590.86709
C22  23224799.59509 120937597.45809              00              00  23224788.55209  91139166.58109  23224784.31709  98271640.44009  23224796.32509 122047152.60409
C30  25059368.22509 130490705.96309              00              00  25059372.42409  98338365.90209  25059367.67109 106034403.52509  25059359.52309 131687840.00309
C36  22442037.43109 116861582.40109              00              00  22442042.21909  88067592.44409  22442037.44809  94959693.87009  22442032.58809 117933779.83709
C39              00              00              00              00  25960333.40509 101873910.14109  25960328.02609 109846723.22409              00              00
> 2026 06 07 17 17 48.0000000  0 14
C01  38580502.38109 200898907.64909              00              00              00              00  38580498.62809 163246728.37609              00              00
C02  36975933.70109 192543329.07909              00              00              00              00  36975924.51609 156457222.19809              00              00
C03  37011509.49609 192728635.33009              00              00              00              00  37011496.82709 156607762.97809              00              00
C07  37169592.23909 193551844.23909              00              00              00              00  37169587.70009 157276673.19709              00              00
C08  38014372.45709 197950827.59209              00              00              00              00  38014366.18509 160851278.06809              00              00
C09  39025519.60509 203216060.16309  39025528.84309 157139626.94609              00              00              00              00              00              00
C10  37309673.04909 194281242.07909  37309673.13909 150230552.98509              00              00  37309665.13309 157869448.39409              00              00
C12  23231342.21309 120971763.92309              00              00              00              00  23231340.33609  98299372.66209              00              00
C19  22517527.06609 117254717.93009              00              00  22517526.20809  88363602.20909  22517520.66909  95278961.77409  22517522.22309 118330380.52409
C20  25104618.57709 130726393.46609              00              00  25104619.88209  98515896.98309  25104611.89409 106225770.57409  25104612.41309 131925742.39809
C22  23220456.63609 120914983.36009              00              00  23220445.11109  91122124.60109  23220442.16209  98253264.67409  23220453.34809 122024331.04609
C30  25052381.40109 130454320.73509              00              00  25052384.52809  98310945.91809  25052380.45409 106004837.58409  25052372.89609 131651120.89809
C36  22440453.75309 116853337.11809              00              00  22440458.39909  88061378.71509  22440454.32409  94952993.83609  22440450.03609 117925458.78309
C39              00              00              00              00  25954764.07709 101852047.64009  25954755.64309 109823149.81209              00              00
> 2026 06 07 17 18  3.0000000  0 14
C01  38580476.43509 200898772.69409              00              00              00              00  38580472.75409 163246618.73009              00              00
C02  36976133.17309 192544367.97309              00              00              00              00  36976123.72009 156458066.36809              00              00
C03  37011656.14709 192729398.94609              00              00              00              00  37011643.42409 156608383.49309              00              00
C07  37169414.38909 193550918.05509              00              00              00              00  37169409.90409 157275920.62109              00              00
C08  38009623.30009 197926098.44509              00              00              00              00  38009617.72509 160831183.65409              00              00
C09  39031151.02809 203245389.43309  39031159.80119 157162327.21919              00              00  39031152.65419 165153579.95919              00              00
C10  37309480.86809 194280240.95609  37309480.83209 150229778.83509              00              00  37309473.48809 157868634.90309              00              00
C12  23239519.48909 121014347.61609              00              00              00              00  23239518.68509  98333975.37009              00              00
C19  22522141.92009 117278748.80409              00              00  22522141.33009  88381711.98409  22522135.50509  95298488.86509  22522135.63009 118354631.90909
C20  25114166.08609 130776108.99609              00              00  25114166.62209  98553362.74609  25114160.72509 106266168.44509  25114160.01009 131975914.04509
C22  23216133.85209 120892474.67209              00              00  23216122.29009  91105161.96609  23216118.94909  98234974.57309  23216130.43909 122001615.84209
C30  25045393.34509 130417935.44209              00              00  25045395.41809  98283525.89309  25045393.23809 105975271.59409  25045385.64309 131614401.80509
C36  22438877.22209 116845125.58209              00              00  22438882.44009  88055190.45909  22438877.36509  94946321.28309  22438874.20209 117917171.86809
C39  25949225.78819 135124424.23919              00              00  25949197.16209 101830202.57209  25949191.42609 109799595.30209  25949216.53219 136364060.64719
> 2026 06 07 17 18 18.0000000  0 14
C01  38580449.07809 200898630.56509              00              00              00              00  38580445.28909 163246503.19809              00              00
C02  36976331.30409 192545399.69709              00              00              00              00  36976322.45909 156458904.84409              00              00
C03  37011801.42209 192730155.25709              00              00              00              00  37011788.61009 156608998.10509              00              00
C07  37169232.78609 193549971.05509              00              00              00              00  37169228.35409 157275151.16309              00              00
C08  38004875.96509 197901381.58409              00              00              00              00  38004871.48009 160811099.19109              00              00
C09  39036783.23609 203274716.80509  39036791.99209 157185004.92509              00              00  39036786.34609 165177410.85809              00              00
C10  37309283.80909 194279215.15809  37309283.54109 150228985.60709              00              00  37309276.80409 157867801.39109              00              00
C12  23247707.96809 121056985.66109              00              00              00              00  23247707.05709  98368622.30709              00              00
C19  22526776.05409 117302883.23609              00              00  22526776.44709  88399899.83609  22526769.99709  95318100.11109  22526768.62109 118378987.67809
C20  25123717.32909 130825843.27709              00              00  25123717.65009  98590842.71609  25123714.66609 106306581.59909  25123710.73509 132026104.65709
C22  23211831.06209 120870070.76009              00              00  23211820.00109  91088278.25109  23211814.62309  98216769.55409  23211827.84609 121979006.30109
C30  25038405.10909 130381549.50709              00              00  25038406.53909  98256105.43809  25038406.77109 105945705.07209  25038396.37109 131577682.25009
C36  22437307.08909 116836946.90509              00              00  22437311.75309  88049026.96509  22437306.49909  94939675.42809  22437302.94409 117908918.17509
C39  25943666.05609 135095459.47009              00              00  25943632.26509 101808374.43409  25943629.38819 109775989.81719              00              00
> 2026 06 07 17 18 33.0000000  0 14
C01  38580420.66609 200898482.69909              00              00              00              00  38580416.87809 163246383.09009              00              00
C02  36976528.45309 192546425.80609              00              00              00              00  36976519.35809 156459738.63409              00              00
C03  37011945.66109 192730905.83509              00              00              00              00  37011932.72409 156609608.01709              00              00
C07  37169047.30509 193549004.73009              00              00              00              00  37169042.83809 157274366.01009              00              00
C08  38000131.20309 197876678.52309              00              00              00              00  38000127.88009 160791025.96309              00              00
C09  39042416.24909 203304043.55109  39042423.55809 157207682.37609              00              00  39042420.53819 165201255.36719              00              00
C10  37309082.12109 194278166.22609  37309081.44209 150228174.51109              00              00  37309075.61709 157866948.99809              00              00
C12  23255908.02709 121099679.46009              00              00              00              00  23255905.24009  98403314.46109              00              00
C19  22531430.89909 117327122.58009              00              00  22531431.11309  88418166.71709  22531424.66309  95337796.58009  22531425.32409 118403449.44309
C20  25133272.32409 130875597.52909              00              00  25133273.50309  98628337.68509  25133270.30509 106347010.99809  25133264.69409 132076315.34409
C22  23207548.19709 120847773.20009              00              00  23207538.03009  91071474.71809  23207530.66709  98198650.95109  23207545.14109 121956504.14109
C30  25031417.08809 130345164.75009              00              00  25031420.69809  98228685.77109  25031420.60909 105916139.47909  25031409.29809 131540963.59409
C36  22435743.04909 116828802.43709              00              00  22435747.71309  88042889.26609  22435742.67409  94933057.42109  22435738.77909 117900699.02209
C39  25938103.26809 135066518.50609              00              00  25938072.56909 101786564.03809              00              00  25938088.36509 136305599.62709
> 2026 06 07 17 18 48.0000000  0 14
C01  38580393.23709 200898340.05809              00              00              00              00  38580389.50209 163246267.20409              00              00
C02  36976726.62109 192547457.21309              00              00              00              00  36976717.41809 156460576.81309              00              00
C03  37012090.79309 192731661.52409              00              00              00              00  37012077.82009 156610222.10709              00              00
C07  37168859.60909 193548030.09209              00              00              00              00  37168855.69609 157273574.00109              00              00
C08  37995391.71309 197852000.29209              00              00              00              00  37995388.99709 160770972.92409              00              00
C09  39048051.69309 203333380.57709              00              00              00              00  39048054.55209 165225094.05809              00              00
C10  37308878.05709 194277105.07309  37308876.75209 150227353.94009              00              00  37308872.07109 157866086.78309              00              00
C12  23264120.11209 121142439.46509              00              00              00              00  23264116.34209  98438060.43109              00              00
C19  22536107.83009 117351477.53109              00              00  22536107.63309  88436520.74709  22536101.34309  95357587.01809  22536102.71909 118428027.93409
C20  25142832.50209 130925382.42309              00              00  25142835.37809  98665855.77909  25142830.35709 106387465.30509  25142826.12209 132126556.94809
C22  23203287.25709 120825593.16909              00              00  23203278.44809  91054759.80409  23203270.80009  98180627.91809  23203285.64909 121934120.58209
C30  25024431.94409 130308792.37709              00              00  25024438.66309  98201275.53209  25024435.39309 105886584.01009  25024424.58209 131504257.53809
C36  22434187.81909 116820703.06309              00              00  22434192.51809  88036785.58809  22434187.98009  94926476.06909  22434183.44109 117892525.47409
C39  25932546.73509 135037612.17709              00              00  25932524.00509 101764779.86409              00              00  25932537.03209 136276428.08409
> 2026 06 07 17 19  3.0000000  0 14
C01  38580368.86409 200898213.27109              00              00              00              00  38580365.21809 163246164.22309              00              00
C02  36976927.89709 192548504.48809              00              00              00              00  36976918.82009 156461427.78109              00              00
C03  37012238.89209 192732432.94709              00              00              00              00  37012225.88309 156610848.97109              00              00
C07  37168671.64509 193547057.75309              00              00              00              00  37168668.48209 157272783.98609              00              00
C08  37990659.53109 197827357.51709              00              00              00              00  37990656.69009 160750948.71709              00              00
C09  39053691.42409 203362738.39009  39053691.38819 157253031.88219              00              00  39053692.94309 165248949.67009              00              00
C10  37308673.68909 194276042.29109  37308671.72309 150226532.15609              00              00  37308668.18509 157865223.15709              00              00
C12  23272346.84909 121185276.05909              00              00              00              00  23272344.38309  98472868.64909              00              00
C19  22540808.34809 117375958.52009              00              00  22540808.75909  88454969.72109  22540803.34409  95377479.85209  22540803.48709 118452733.56009
C20  25152400.55909 130975208.21509              00              00  25152404.91909  98703404.70309  25152397.71809 106427952.83009  25152394.69809 132176839.82509
C22  23199051.49409 120803541.37609              00              00  23199043.09609  91038141.51309  23199038.02109  98162709.13609  23199051.28009 121911866.56109
C30  25017451.58909 130272443.28109              00              00  25017459.63009  98173882.77109  25017453.10809 105857047.47209  25017444.99609 131467574.95209
C36  22432642.79209 116812659.37909              00              00  22432647.67009  88030723.79409  22432644.15009  94919939.87909  22432638.30709 117884407.91809
C39  25927000.61909 135008750.95009              00              00  25926987.86009 101743029.77409              00              00  25926992.89909 136247302.19309
> 2026 06 07 17 19 18.0000000  0 14
C01  38580344.95509 200898088.96109              00              00              00              00  38580341.43509 163246063.15509              00              00
C02  36977129.62109 192549554.30109              00              00              00              00  36977120.65109 156462280.88909              00              00
C03  37012387.47209 192733206.74609              00              00              00              00  37012374.57109 156611477.77909              00              00
C07  37168482.21509 193546074.28109              00              00              00              00  37168478.62409 157271984.86109              00              00
C08  37985931.58409 197802736.99109              00              00              00              00  37985928.54709 160730942.57909              00              00
C09  39059331.51309 203392103.58609  39059332.17409 157275738.87009              00              00  39059332.03109 165272811.33009              00              00
C10  37308466.56909 194274964.61309  37308463.90609 150225698.78909              00              00  37308461.53009 157864347.54809              00              00
C12  23280584.84409 121228175.60309              00              00              00              00  23280584.48709  98507728.04709              00              00
C19  22545531.61309 117400552.03909              00              00  22545532.31009  88473503.48309  22545526.82409  95397464.11509  22545526.18109 118477552.67609
C20  25161974.40609 131025061.24709              00              00  25161979.32009  98740974.17209  25161970.63609 106468462.50209  25161968.31309 132227150.18309
C22  23194838.24709 120781604.72209              00              00  23194829.86609  91021609.96609  23194828.24009  98144883.83909  23194839.28309 121889728.64209
C30  25010473.27109 130236104.45509              00              00  25010480.66909  98146497.77809  25010473.32509 105827519.26309  25010468.26809 131430902.74009
C36  22431104.35809 116804657.91509              00              00  22431110.91609  88024693.78809  22431108.50409  94913437.97009  22431100.10509 117876332.92409
C39  25921461.95409 134979921.68309              00              00  25921453.10909 101721303.58109  25921450.55419 109682139.53319  25921455.86109 136218208.48109
> 2026 06 07 17 19 33.0000000  0 14
C01  38580317.58009 200897946.37209              00              00              00              00  38580313.75609 163245947.33909              00              00
C02  36977327.77009 192550585.92609              00              00              00              00  36977318.55009 156463119.20009              00              00
C03  37012532.58709 192733962.22209              00              00              00              00  37012519.47109 156612091.65809              00              00
C07  37168288.28309 193545059.09609              00              00              00              00  37168282.36809 157271160.11709              00              00
C08  37981203.60209 197778118.04609              00              00              00              00  37981200.77809 160710937.70009              00              00
C09  39064967.26009 203421455.17609  39064968.92209 157298435.44209              00              00  39064966.99209 165296661.95809              00              00
C10  37308252.69409 194273851.27909  37308249.47809 150224837.88009              00              00  37308248.10209 157863442.81909              00              00
C12  23288831.14809 121271117.09209              00              00              00              00  23288829.84409  98542621.52409              00              00
C19  22550273.19409 117425237.15909              00              00  22550273.19409  88492106.28209  22550266.95809  95417522.80509  22550267.65509 118502464.25909
C20  25171549.61209 131074920.53709              00              00  25171553.57909  98778548.33509  25171544.82309 106508977.25709  25171544.53709 132277466.93209
C22  23190643.56509 120759762.57409              00              00  23190635.56009  91005149.73209  23190636.27509  98127135.42709  23190645.51309 121867686.17209
C30  25003493.04109 130199755.44309              00              00  25003497.49109  98119105.14309  25003493.98809 105797982.80609  25003488.57409 131394220.29709
C36  22429571.50009 116796677.69009              00              00  22429579.02309  88018679.85009  22429575.73509  94906953.38109  22429565.88909 117868279.55309
C39              00              00              00              00              00              00  25915917.69709 109658722.08209  25915921.69909 136189125.87009
> 2026 06 07 17 19 48.0000000  0 14
C01  38580292.27709 200897814.83909              00              00              00              00  38580288.63209 163245840.42009              00              00
C02  36977528.04609 192551628.62109              00              00              00              00  36977518.64709 156463966.50109              00              00
C03  37012679.73809 192734728.59209              00              00              00              00  37012666.62209 156612714.42009              00              00
C07  37168094.04709 193544041.49509              00              00              00              00  37168086.73819 157270338.18319              00              00
C08  37976481.67709 197753529.94309              00              00              00              00  37976479.01409 160690957.91709              00              00
C09  39070604.91909 203450822.57009  39070608.58209 157321144.20809              00              00  39070605.09809 165320525.34109              00              00
C10  37308037.51609 194272731.51709  37308034.12109 150223972.04909              00              00  37308033.49509 157862532.96009              00              00
C12  23297091.62209 121314129.50609              00              00              00              00  23297086.53009  98577572.61309              00              00
C19  22555037.34409 117450042.91409              00              00  22555037.21809  88510800.03809  22555030.10709  95437679.52609  22555031.25009 118527497.58109
C20  25181130.82109 131124815.09809              00              00  25181133.03709  98816149.05509  25181126.03209 106549520.65109  25181127.42609 132327819.24409
C22  23186472.95309 120738044.50909              00              00  23186465.57309  90988782.90509  23186468.45009  98109487.76809  23186474.79409 121845768.83609
C30  24996516.38509 130163425.92409              00              00  24996519.01209  98091727.16309  24996517.70709 105768462.12909  24996511.56009 131357557.45709
C36  22428047.77209 116788747.99609              00              00  22428057.22509  88012703.96409  22428052.41809  94900509.83209  22428043.80609 117860277.06609
C39              00              00              00              00              00              00  25910386.82309 109635337.50509  25910395.70409 136160083.92409
> 2026 06 07 17 20  3.0000000  0 14
C01  38580267.67109 200897686.94909              00              00              00              00  38580264.11509 163245736.52109              00              00
C02  36977729.00109 192552675.03809              00              00              00              00  36977719.85209 156464816.79609              00              00
C03  37012827.60409 192735498.56409              00              00              00              00  37012814.45309 156613340.10009              00              00
C07  37167897.25509 193543014.06309              00              00              00              00              00              00              00              00
C08  37971764.73709 197728965.46109              00              00              00              00  37971761.59209 160670997.32009              00              00
C09              00              00  39076249.77909 157343859.29409              00              00  39076245.29409 165344395.48109              00              00
C10  37307819.76409 194271598.05909  37307816.31509 150223095.57409              00              00  37307816.29709 157861611.90709              00              00
C12  23305364.64009 121357205.26409              00              00              00              00  23305355.93809  98612575.12109              00              00
C19  22559822.99009 117474961.83109              00              00  22559822.95409  88529579.01409  22559815.10909  95457928.15409  22559817.34309 118552645.11109
C20  25190717.10509 131174737.17509              00              00  25190717.33709  98853770.58309  25190712.81709 106590086.53209  25190714.05009 132378199.40409
C22  23182324.78509 120716443.28209              00              00  23182318.62009  90972504.14709  23182319.74509  98091935.07609  23182325.51709 121823969.33809
C30  24989541.99809 130127108.73209              00              00  24989543.71309  98064358.46609  24989541.01509 105738951.56809  24989538.08509 131320907.08609
C36  22426533.51609 116780861.26809              00              00  22426542.14609  88006760.55009  22426537.25009  94894101.27309  22426529.29909 117852318.02309
C39              00              00              00              00  25904868.94019 101656253.81719  25904864.24109 109611979.69109  25904876.12409 136131075.18509
> 2026 06 07 17 20 18.0000000  0 14
C01  38580241.61809 200897551.16209              00              00              00              00  38580237.91909 163245626.20409              00              00
C02  36977928.29509 192553713.60109              00              00              00              00  36977918.94909 156465660.70609              00              00
C03  37012973.95209 192736260.51909              00              00              00              00  37012960.74609 156613959.27409              00              00
C07  37167696.76519 193541940.39819              00              00              00              00  37167695.88909 157268668.48309              00              00
C08  37967050.04909 197704413.13009              00              00              00              00  37967046.11809 160651046.57009              00              00
C09  39081889.29619 203509628.28519  39081891.11919 157366576.58419              00              00  39081885.41909 165368262.71009              00              00
C10  37307597.16909 194270439.32609  37307593.84609 150222199.58209              00              00  37307593.73809 157860670.38909              00              00
C12  23313646.21809 121400332.39909              00              00              00              00  23313638.94509  98647619.41809              00              00
C19  22564627.57709 117499982.05709              00              00  22564626.95109  88548434.37209  22564619.64309  95478259.13009  22564622.68109 118577894.91309
C20  25200307.78509 131224675.18609              00              00  25200305.74809  98891404.00109  25200302.56709 106630665.18609  25200301.31609 132428595.49509
C22  23178196.77209 120694947.58009              00              00  23178191.53709  90956304.92909  23178191.80509  98074468.06009  23178196.45109 121802276.41009
C30  24982567.68309 130090792.72309              00              00  24982568.55809  98036990.64009  24982566.45009 105709441.87409  24982565.09209 131284257.82009
C36  22425025.76309 116773005.89409              00              00  22425032.08909  88000840.78309  22425028.28309  94887718.21609  22425020.56309 117844390.60509
C39              00              00              00              00  25899354.61309 101634622.26109  25899348.80609 109588639.07409  25899358.09809 136102087.97009
> 2026 06 07 17 20 33.0000000  0 14
C01  38580215.11909 200897413.18909              00              00              00              00  38580211.43809 163245514.14809              00              00
C02  36978127.17709 192554750.05509              00              00              00              00  36978117.65309 156466502.99109              00              00
C03  37013119.78109 192737020.26509              00              00              00              00  37013106.57609 156614576.63209              00              00
C07  37167494.75509 193540876.11009              00              00              00              00  37167492.62909 157267817.64009              00              00
C08  37962338.59509 197679878.69909              00              00              00              00  37962333.87809 160631110.38109              00              00
C09  39087530.77909 203539002.56209  39087534.56709 157389290.73909              00              00  39087527.22319 165392120.83619              00              00
C10  37307370.98309 194269261.02509  37307367.78509 150221288.48709              00              00  37307367.17709 157859713.01209              00              00
C12  23321937.76609 121443516.41409              00              00              00              00  23321933.81709  98682709.99609              00              00
C19  22569452.85609 117525109.18209              00              00  22569450.35509  88567370.28509  22569444.40409  95498676.96309  22569448.85409 118603252.59709
C20  25209902.11009 131274634.40109              00              00  25209900.21609  98929053.39909  25209896.01709 106671261.11909  25209895.17709 132479013.04609
C22  23174090.04209 120673563.24009              00              00  23174085.45009  90940189.72309  23174084.25209  98057091.51809  23174088.98809 121780695.91609
C30  24975594.20709 130054483.85309              00              00  24975596.45909  98009628.16709  24975595.24309 105679938.00209  24975592.36709 131247615.87609
C36  22423524.33709 116765187.58809              00              00  22423530.84109  87994948.89709  22423527.16009  94881365.20209  22423518.99409 117836500.61809
C39  25893840.10819 134835979.52619              00              00  25893842.93109 101612996.03609  25893836.98109 109565320.58209              00              00
> 2026 06 07 17 20 48.0000000  0 14
C01  38580189.42309 200897279.18409              00              00              00              00  38580185.77809 163245405.21309              00              00
C02  36978326.68409 192555790.46509              00              00              00              00  36978316.99909 156467348.35709              00              00
C03  37013266.39609 192737783.77309              00              00              00              00  37013253.10209 156615197.06209              00              00
C07  37167290.03009 193539802.52309              00              00              00              00              00              00              00              00
C08  37957631.71609 197655368.35109              00              00              00              00  37957626.51609 160611193.76709              00              00
C09  39093173.42409 203568385.19009  39093177.48009 157412011.24909              00              00              00              00              00              00
C10  37307142.36709 194268069.28909  37307139.18609 150220366.99309              00              00  37307137.59609 157858744.57909              00              00
C12  23330243.12709 121486763.14309              00              00              00              00  23330239.35709  98717851.49809              00              00
C19  22574299.79309 117550349.10709              00              00  22574297.00509  88586391.17009  22574291.21609  95519186.41409  22574296.98709 118628724.07909
C20  25219501.65309 131324620.62909              00              00  25219501.56409  98966723.15509  25219494.14809 106711878.99809  25219494.89909 132529457.86009
C22  23170005.66609 120652296.54009              00              00  23170000.16209  90924163.15009  23169999.25109  98039810.51209  23170004.37909 121759234.08809
C30  24968623.96609 130018188.48909              00              00  24968628.05809  97982275.92009  24968623.80509 105650445.08809  24968621.66109 131210987.53709
C36  22422030.61109 116757412.31409              00              00  22422039.43909  87989089.41809  22422033.97109  94875047.14609  22422026.64409 117828653.97309
C39  25888340.46909 134807315.82709              00              00  25888336.94909 101591394.71809  25888334.94809 109542028.79209  25888342.54219 136044123.49919
> 2026 06 07 17 21  3.0000000  0 14
C01  38580166.19309 200897158.29309              00              00              00              00  38580162.49409 163245307.04609              00              00
C02  36978528.78309 192556844.10709              00              00              00              00  36978519.68809 156468204.61509              00              00
C03  37013415.53109 192738560.35709              00              00              00              00  37013402.27209 156615828.09509              00              00
C07  37167086.25209 193538728.71809              00              00              00              00  37167078.78219 157266076.67719              00              00
C08  37952931.03709 197630891.37509              00              00              00              00  37952926.05209 160591304.25209              00              00
C09  39098819.23109 203597784.99709  39098823.41209 157434745.10309              00              00  39098816.22909 165439888.27709              00              00
C10  37306913.12509 194266873.41609  37306909.80209 150219442.29209              00              00  37306906.87109 157857772.86709              00              00
C12  23338562.39009 121530081.58909              00              00              00              00  23338558.38809  98753051.20909              00              00
C19  22579170.28109 117575710.79609              00              00  22579168.40509  88605503.89109  22579164.20609  95539794.89909  22579168.44109 118654318.55509
C20  25229107.34309 131374642.79209              00              00  25229109.55909  99004420.06509  25229099.57009 106752526.06509  25229102.37509 132579938.96509
C22  23165945.41309 120631156.86909              00              00  23165938.90809  90908232.29709  23165939.44409  98022632.76409  23165944.25109 121737900.44209
C30  24961658.29909 129981916.25409              00              00  24961662.92709  97954941.06509  24961656.76209 105620971.02709  24961654.06409 131174382.57809
C36  22420547.50009 116749689.20609              00              00  22420556.29209  87983269.21009  22420550.60909  94868771.44309  22420543.51509 117820859.99909
C39  25882844.69009 134778694.24209              00              00  25882841.26009 101569825.22609              00              00  25882848.15709 136015239.46809
> 2026 06 07 17 21 18.0000000  0 14
C01  38580139.83609 200897021.39309              00              00              00              00  38580136.31609 163245195.73909              00              00
C02  36978727.84409 192557881.76309              00              00              00              00  36978718.17709 156469047.84009              00              00
C03  37013561.50309 192739320.78909              00              00              00              00  37013548.49409 156616446.07909              00              00
C07              00              00              00              00              00              00  37166867.94609 157265180.23209              00              00
C08  37948231.12709 197606418.65609              00              00              00              00  37948226.69509 160571418.17509              00              00
C09  39104462.80409 203627173.05109  39104466.96809 157457469.87809              00              00  39104462.50009 165463778.45109              00              00
C10  37306677.46909 194265644.14909  37306673.91309 150218491.75009              00              00  37306669.44509 157856774.04509              00              00
C12  23346889.01509 121573442.13109              00              00              00              00  23346885.78109  98788285.22209              00              00
C19  22584058.81709 117601165.03609              00              00  22584056.31509  88624686.25009  22584052.33009  95560478.50909  22584055.85109 118680006.19409
C20  25238714.46209 131424671.43009              00              00  25238718.55409  99042121.85209  25238708.19009 106793178.43609  25238709.72709 132630426.64009
C22  23161903.76109 120610115.23909              00              00  23161898.41809  90892375.21009  23161899.33009  98005534.65509  23161902.76109 121716665.72609
C30  24954691.88209 129945638.10209              00              00  24954695.49109  97927601.83209  24954690.18409 105591492.16809  24954687.09309 131137771.62809
C36  22419069.35709 116741988.90609              00              00  22419077.21909  87977466.20609  22419072.19809  94862514.32609  22419064.56809 117813089.06909
C39  25877349.94809 134750085.77909              00              00  25877347.89309 101548265.49909              00              00  25877355.00509 135986368.52509
> 2026 06 07 17 21 33.0000000  0 14
C01  38580110.03109 200896866.69609              00              00              00              00  38580106.70709 163245070.09009              00              00
C02  36978923.59909 192558901.71409              00              00              00              00  36978914.79009 156469876.59609              00              00
C03  37013704.15109 192740063.40209              00              00              00              00  37013691.05309 156617049.50609              00              00
C07              00              00              00              00              00              00  37166651.49819 157264261.67419              00              00
C08  37943531.96709 197581948.48409              00              00              00              00  37943527.85709 160551534.20109              00              00
C09  39110104.28709 203656547.18609  39110107.96809 157480183.77909              00              00  39110103.71509 165487647.39309              00              00
C10  37306435.16509 194264379.87909  37306431.28709 150217514.11809              00              00  37306425.76609 157855746.69809              00              00
C12  23355223.91409 121616842.85809              00              00              00              00  23355220.80509  98823551.86109              00              00
C19  22588964.20309 117626709.72309              00              00  22588962.18409  88643936.82009  22588956.35909  95581235.63309  22588959.80709 118705785.18309
C20  25248323.44009 131474704.57809              00              00  25248327.83609  99079827.02009  25248318.77609 106833834.41809  25248319.27709 132680918.85809
C22  23157880.65809 120589170.01909              00              00  23157875.22609  90876590.84209  23157877.44209  97988514.89809  23157879.56809 121695528.38309
C30  24947724.37409 129909352.69709              00              00  24947726.62609  97900257.08509  24947722.12309 105562007.42009  24947720.39009 131101153.28909
C36  22417595.28709 116734309.58009              00              00  22417602.27409  87971679.03509  22417597.57509  94856274.25409  22417590.48109 117805339.31709
C39  25871857.04609 134721488.59809              00              00  25871855.97409 101526714.30909  25871861.51319 109472320.04919  25871862.94309 135957508.92609
> 2026 06 07 17 21 48.0000000  0 14
C01  38580083.94209 200896731.31609              00              00              00              00  38580080.60109 163244960.07809              00              00
C02  36979123.01709 192559940.97209              00              00              00              00  36979115.03009 156470721.16509              00              00
C03  37013850.55209 192740825.18609              00              00              00              00  37013837.31109 156617668.53709              00              00
C07  37166435.49719 193535383.42519              00              00              00              00  37166435.12209 157263344.99209              00              00
C08  37938840.54409 197557517.99509              00              00              00              00  37938836.41609 160531682.47909              00              00
C09  39115750.70209 203685944.62909  39115753.06009 157502915.80509              00              00  39115750.00509 165511535.26709              00              00
C10  37306193.43309 194263117.50809  37306189.10809 150216538.02209              00              00  37306182.44309 157854720.96309              00              00
C12  23363573.80509 121660320.52509              00              00              00              00  23363570.33809  98858881.00809              00              00
C19  22593894.08809 117652381.75809              00              00  22593893.08709  88663283.35609  22593887.10109  95602096.26209  22593888.76309 118731692.75909
C20  25257940.72709 131524779.08609              00              00  25257944.56909  99117563.36609  25257936.36709 106874524.03609  25257937.56409 132731452.75109
C22  23153883.39309 120568358.54009              00              00  23153877.55009  90860907.20609  23153881.10609  97971603.88509  23153882.07109 121674525.95809
C30  24940761.67409 129873097.56009              00              00  24940763.97909  97872935.08309  24940760.76309 105532547.13509  24940757.52809 131064565.44209
C36  22416132.11809 116726688.26409              00              00  22416138.39009  87965935.55809  22416134.04809  94850081.31809  22416127.56209 117797648.05209
C39  25866375.92009 134692939.57309              00              00  25866374.13309 101505199.44709              00              00  25866379.97609 135928698.00109
> 2026 06 07 17 22  3.0000000  0 14
C01  38580056.44209 200896588.59709              00              00              00              00  38580053.18909 163244844.07609              00              00
C02  36979321.00609 192560972.94509              00              00              00              00  36979312.69709 156471559.72409              00              00
C03  37013995.57709 192741579.54009              00              00              00              00  37013982.01509 156618281.52609              00              00
C07  37166214.06509 193534234.78309              00              00              00              00  37166214.90409 157262411.49109              00              00
C08  37934151.33709 197533100.68609              00              00              00              00  37934147.19109 160511841.43909              00              00
C09  39121397.02709 203715338.46309  39121397.34909 157525644.96309              00              00  39121395.50809 165535420.14409              00              00
C10  37305946.78609 194261830.55709  37305942.14009 150215542.90409              00              00  37305934.81409 157853675.17509              00              00
C12  23371932.66609 121703848.11009              00              00              00              00  23371929.75309  98894250.77209              00              00
C19  22598843.66409 117678154.31209              00              00  22598842.48509  88682705.69109  22598837.28509  95623038.57809  22598837.16009 118757701.79609
C20  25267560.60509 131574867.95009              00              00  25267563.57109  99155310.52009  25267556.20909 106915225.34609  25267556.49509 132782001.08109
C22  23149907.30309 120547654.26109              00              00  23149901.13909  90845304.35709  23149904.48009  97954779.97009  23149905.67709 121653631.74009
C30  24933799.63409 129836846.16209              00              00  24933801.42109  97845615.90209  24933800.26009 105503089.90209  24933796.49009 131027981.37409
C36  22414674.59609 116719098.18309              00              00  22414681.36809  87960215.63909  22414677.49009  94843913.74109  22414670.20009 117789988.30809
C39  25860898.06409 134664412.14109              00              00  25860897.15209 101483700.77009  25860900.74409 109425921.30109  25860901.06609 135899908.80809
> 2026 06 07 17 22 18.0000000  0 14
C01  38580029.24509 200896447.00309              00              00              00              00  38580026.04609 163244729.07109              00              00
C02  36979519.19209 192562006.09109              00              00              00              00  36979510.65009 156472399.25609              00              00
C03  37014140.74509 192742334.93009              00              00              00              00  37014126.93209 156618895.37509              00              00
C07  37165991.07709 193533073.96809              00              00              00              00  37165990.63009 157261468.32609              00              00
C08  37929465.97209 197508705.12809              00              00              00              00  37929462.00509 160492018.07609              00              00
C09  39127043.99609 203744737.31409  39127042.79909 157548378.00509              00              00  39127043.94219 165559324.18319              00              00
C10  37305696.85209 194260527.50609  37305692.08109 150214535.27309              00              00  37305684.52309 157852616.31809              00              00
C12  23380303.33809 121747433.94409              00              00              00              00  23380301.17609  98929667.83909              00              00
C19  22603813.57609 117704035.74409              00              00  22603813.16509  88702210.02309  22603806.39209  95644069.32009  22603807.51809 118783820.57009
C20  25277183.91409 131624979.41909              00              00  25277186.54009  99193074.71609  25277179.91109 106955944.98109  25277180.07209 132832572.24109
C22  23145953.81809 120527065.92309              00              00  23145946.77709  90829788.98509  23145945.13309  97938050.46909  23145951.54809 121632854.52209
C30  24926840.45409 129800607.32509              00              00  24926841.06209  97818306.26809  24926841.18709 105473642.90709  24926833.82509 130991410.20609
C36  22413224.77509 116711547.75309              00              00  22413231.94009  87954525.60509  22413227.86609  94837778.38909  22413219.84309 117782368.59009
C39  25855425.35409 134635914.77209              00              00  25855426.64009 101462224.83409  25855429.53509 109402764.63509  25855429.10609 135871149.98709
> 2026 06 07 17 22 33.0000000  0 14
C01  38580002.60209 200896308.12509              00              00              00              00  38579999.42209 163244616.18609              00              00
C02  36979717.87709 192563041.98509              00              00              00              00  36979708.06709 156473241.05909              00              00
C03  37014286.37809 192743092.90409              00              00              00              00  37014272.42209 156619511.29309              00              00
C07  37165765.89209 193531902.73509              00              00              00              00              00              00              00              00
C08  37924785.25309 197484332.81209              00              00              00              00  37924781.10709 160472213.62709              00              00
C09  39132692.59009 203774142.31109  39132688.78409 157571115.87109              00              00  39132693.21609 165583218.23009              00              00
C10  37305443.91609 194259209.85309  37305439.19909 150213516.38709              00              00  37305431.71209 157851545.75509              00              00
C12  23388686.00009 121791079.29309              00              00              00              00  23388684.53509  98965133.22709              00              00
C19  22608804.51909 117730027.36409              00              00  22608804.68009  88721797.36009  22608797.76409  95665189.55709  22608800.05209 118810050.62509
C20  25286811.11809 131675114.57509              00              00  25286814.22709  99230856.81209  25286807.25809 106996683.94409  25286808.84809 132883167.39309
C22  23142023.15109 120506595.13009              00              00  23142015.02109  90814362.12909  23142011.25009  97921416.33009  23142020.50609 121612195.94709
C30  24919883.93609 129764382.91109              00              00  24919883.63309  97791007.49409  24919884.20409 105444207.65109  24919875.55609 130954853.51109
C36  22411782.83409 116704038.36009              00              00  22411789.71309  87948866.51709  22411784.13809  94831676.41809  22411777.33009 117774790.34209
C39  25849959.25509 134607448.78409              00              00  25849958.00509 101440772.54009  25849969.40509 109379633.61309  25849989.43619 135842604.95519
> 2026 06 07 17 22 48.0000000  0 14
C01  38579982.23209 200896201.77609              00              00              00              00  38579978.92609 163244529.78109              00              00
C02  36979922.96009 192564110.52409              00              00              00              00  36979913.32909 156474109.29709              00              00
C03  37014438.21109 192743883.33909              00              00              00              00  37014424.05909 156620153.60009              00              00
C07  37165544.42309 193530750.94709              00              00              00              00              00              00              00              00
C08  37920114.96909 197460013.78909              00              00              00              00  37920110.41309 160452452.47609              00              00
C09  39138349.22609 203803583.51909              00              00              00              00              00              00              00              00
C10  37305193.92909 194257907.55209  37305189.30109 150212509.33809              00              00  37305182.01009 157850487.40409              00              00
C12  23397084.69109 121834813.68209              00              00              00              00  23397082.95809  99000670.98109              00              00
C19  22613822.64109 117756158.82709              00              00  22613822.28309  88741490.08709  22613816.92309  95686423.46409  22613819.76409 118836421.77909
C20  25296448.82909 131725303.17209              00              00  25296452.38509  99268679.16309  25296443.37909 107037466.29809  25296445.72009 132933816.45709
C22  23138120.77109 120486272.00409              00              00  23138112.51509  90799046.54109  23138111.67509  97904902.24609  23138117.94709 121591686.37109
C30  24912936.08509 129728203.17809              00              00  24912937.24609  97763742.40209  24912935.44209 105414808.66809  24912928.13309 130918341.81509
C36  22410354.36609 116696599.85609              00              00  22410361.81809  87943260.86909  22410355.24209  94825632.02809  22410348.91609 117767283.64109
C39  25844505.30809 134579044.20609              00              00  25844504.02109 101419366.59709              00              00              00              00
> 2026 06 07 17 23  3.0000000  0 14
C01  38579957.98309 200896075.27109              00              00              00              00  38579954.83809 163244427.04809              00              00
C02  36980124.05809 192565158.87509              00              00              00              00  36980113.39009 156474961.18609              00              00
C03  37014586.20209 192744653.53509              00              00              00              00  37014571.88909 156620779.42909              00              00
C07  37165316.77209 193529565.94209              00              00              00              00              00              00              00              00
C08  37915444.93609 197435695.37109              00              00              00              00  37915440.29009 160432691.82309              00              00
C09  39144002.46709 203833007.86809              00              00              00              00              00              00              00              00
C10  37304936.74009 194256567.82509  37304932.20109 150211473.36509              00              00  37304925.26809 157849398.79209              00              00
C12  23405489.74409 121878584.07409              00              00              00              00  23405485.04409  99036237.98509              00              00
C19  22618855.82609 117782376.95909              00              00  22618857.48809  88761248.26509  22618852.21709  95707727.96909  22618854.77209 118862880.59709
C20  25306086.64709 131775492.20309              00              00  25306090.63209  99306501.79209  25306079.50009 107078248.96109  25306084.39609 132984465.93209
C22  23134236.45609 120466044.01009              00              00  23134228.91509  90783802.71609  23134229.05809  97888465.39809  23134233.29309 121571272.77409
C30  24905986.23209 129692015.64909              00              00  24905988.59109  97736471.38109  24905984.73109 105385403.39809  24905978.67409 130881822.28509
C36  22408929.13309 116689179.37709              00              00  22408936.85209  87937668.75609  22408930.15209  94819602.26909  22408924.64809 117759795.05809
C39              00              00              00              00  25839052.86109 101397967.03209  25839037.69119 109333421.67119              00              00
> 2026 06 07 17 23 18.0000000  0 14
C01  38579935.79009 200895959.70109              00              00              00              00  38579932.75209 163244333.11509              00              00
C02  36980327.30009 192566218.18709              00              00              00              00  36980317.68709 156475821.97409              00              00
C03  37014736.17709 192745434.52709              00              00              00              00  37014721.91709 156621414.04409              00              00
C07  37165088.58409 193528378.74309              00              00              00              00  37165075.93319 157257594.66519              00              00
C08  37910781.10309 197411408.65609              00              00              00              00  37910776.45709 160412956.93009              00              00
C09  39149657.22609 203862446.67709              00              00              00              00              00              00              00              00
C10  37304678.31809 194255221.75909  37304673.77909 150210432.50009              00              00  37304667.09609 157848305.12009              00              00
C12  23413907.94809 121922421.34209              00              00              00              00  23413903.73009  99071859.28809              00              00
C19  22623914.31509 117808713.03909              00              00  22623914.42209  88781095.21509  22623909.22209  95729128.16809  22623910.75909 118889458.28709
C20  25315729.86209 131825712.33209              00              00  25315734.52609  99344347.89409  25315724.14409 107119056.92109  25315728.07509 133035146.79409
C22  23130376.01509 120445942.36309              00              00  23130369.31409  90768654.00209  23130368.61709  97872131.13309  23130373.22709 121550986.63309
C30  24899040.68609 129655851.67609              00              00  24899044.92109  97709218.22609  24899038.45209 105356017.30709  24899033.66309 130845326.51709
C36  22407513.47709 116681807.89409              00              00  22407519.64209  87932113.60109  22407513.06709  94813612.36209  22407509.26009 117752355.92909
C39  25833629.39919 134522429.02619              00              00  25833611.47609 101376597.25709  25833594.50009 109310379.56609              00              00
> 2026 06 07 17 23 33.0000000  0 14
C01  38579906.78909 200895808.81109              00              00              00              00  38579903.64409 163244210.52609              00              00
C02  36980524.02009 192567242.20609              00              00              00              00  36980515.40809 156476654.14409              00              00
C03  37014879.43309 192746180.04809              00              00              00              00  37014865.20909 156622019.85309              00              00
C07  37164851.31909 193527143.18709              00              00              00              00  37164842.24209 157256590.74609              00              00
C08  37906114.41109 197387107.56209              00              00              00              00  37906109.58709 160393210.33909              00              00
C09  39155304.71309 203891853.14909              00              00              00              00              00              00              00              00
C10  37304409.67509 194253823.17709  37304405.19009 150209351.04509              00              00  37304399.56109 157847168.59709              00              00
C12  23422329.33209 121966278.85209              00              00              00              00  23422330.08309  99107497.10209              00              00
C19  22628987.20509 117835120.43009              00              00  22628984.86409  88800995.89309  22628979.36109  95750586.31009  22628985.95419 118916123.59319
C20  25325370.46809 131875917.07409              00              00  25325375.16709  99382182.41609  25325367.87709 107159852.42309  25325368.48409 133085812.17009
C22  23126530.88709 120425921.10309              00              00  23126524.99009  90753565.84109  23126522.54209  97855862.12609  23126528.88509 121530781.51209
C30  24892091.22609 129619665.38009              00              00  24892098.74909  97681948.20709  24892089.52909 105326613.04609  24892084.36509 130808808.18409
C36  22406098.34009 116674439.08909              00              00  22406103.61209  87926560.45909  22406098.50109  94807624.61309  22406094.05209 117744919.52309
C39  25828177.09509 134494065.93209              00              00  25828171.16309 101355222.48709  25828150.64909 109287332.08709  25828166.69509 135727980.83109
> 2026 06 07 17 23 48.0000000  0 14
C01  38579875.78609 200895647.39809              00              00              00              00  38579872.51609 163244079.36909              00              00
C02  36980718.77509 192568255.75909              00              00              00              00  36980710.51909 156477477.72009              00              00
C03  37015020.61609 192746914.96109              00              00              00              00  37015006.33909 156622617.04209              00              00
C07  37164609.40809 193525884.10509              00              00              00              00  37164603.99409 157255567.59109              00              00
C08  37901449.41709 197362816.89309              00              00              00              00  37901444.44909 160373472.21109              00              00
C09  39160950.55609 203921252.45909              00              00              00              00              00              00              00              00
C10  37304135.65409 194252396.89409  37304131.24009 150208248.15009              00              00  37304126.66609 157846009.61209              00              00
C12  23430758.77609 122010181.19309              00              00              00              00  23430762.17109  99143171.39709              00              00
C19  22634077.33909 117861623.70109              00              00  22634075.35609  88820968.86509  22634068.61909  95772122.38909  22634082.71809 118942870.26009
C20  25335014.09409 131926131.07109              00              00  25335017.23909  99420023.85909  25335012.30709 107200655.39309  25335008.91209 133136486.80209
C22  23122706.89809 120406004.85609              00              00  23122700.37609  90738556.94909  23122696.58809  97839678.56809  23122705.29009 121510682.77409
C30  24885142.44609 129583481.78809              00              00  24885152.09509  97654680.20809  24885142.33909 105297211.00609  24885134.11909 130772292.73909
C36  22404688.29609 116667097.66909              00              00  22404693.46009  87921027.90809  22404690.04709  94801659.09709  22404683.79309 117737510.73009
C39  25822728.90109 134465720.83809              00              00  25822738.71209 101333861.29909  25822712.30109 109264299.22909  25822722.52209 135699375.68909
> 2026 06 07 17 24  3.0000000  0 14
C01  38579846.58809 200895495.24609              00              00              00              00  38579843.26409 163243955.72109              00              00
C02  36980915.20909 192569278.60009              00              00              00              00  36980906.84609 156478308.89709              00              00
C03  37015163.58609 192747659.06509              00              00              00              00  37015149.25509 156623221.71609              00              00
C07  37164366.87209 193524621.24809              00              00              00              00  37164362.94109 157254541.44909              00              00
C08  37896789.87309 197338556.56909              00              00              00              00  37896785.40509 160353758.73209              00              00
C09  39166598.56109 203950663.90609  39166595.72019 157707555.23319              00              00  39166592.71819 165726673.36319              00              00
C10  37303860.06009 194250962.67409  37303855.80709 150207139.09809              00              00  37303852.07209 157844844.25209              00              00
C12  23439201.76409 122054147.88609              00              00              00              00  23439204.26609  99178897.97309              00              00
C19  22639189.68509 117888242.51509              00              00  22639188.25509  88841028.92209  22639180.73209  95793752.35609  22639194.56309 118969733.38909
C20  25344663.45509 131976373.81709              00              00  25344665.26009  99457886.93309  25344660.54309 107241481.71609  25344658.61309 133187190.46109
C22  23118907.30009 120386213.89909              00              00  23118899.90309  90723642.39709  23118896.31109  97823596.76209  23118912.23219 121490707.37619
C30  24878198.09709 129547321.14509              00              00  24878206.87009  97627429.45009  24878199.24009 105267827.57709  24878191.59209 130735800.37209
C36  22403287.29309 116659803.31809              00              00  22403292.35009  87915530.84709  22403289.75909  94795731.82909  22403282.28909 117730149.45209
C39  25817288.58809 134437413.60609              00              00  25817296.64709 101312528.50809  25817279.43909 109241297.04309  25817285.51509 135670808.72309
> 2026 06 07 17 24 18.0000000  0 14
C01  38579817.92609 200895345.97809              00              00              00              00  38579814.37009 163243834.45009              00              00
C02  36981112.07209 192570304.33109              00              00              00              00  36981103.20909 156479142.40709              00              00
C03  37015307.05609 192748405.88009              00              00              00              00  37015292.67209 156623828.59509              00              00
C07  37164122.42409 193523348.38509              00              00              00              00  37164118.95709 157253507.11809              00              00
C08  37892135.17109 197314320.15909              00              00              00              00  37892131.31109 160334064.71309              00              00
C09  39172247.44209 203980081.37409  39172245.38709 157730302.71509              00              00  39172241.58109 165750579.97709              00              00
C10  37303581.73209 194249514.13509  37303577.72909 150206019.04309              00              00  37303574.70909 157843667.17909              00              00
C12  23447656.59909 122098172.20609              00              00              00              00  23447657.27809  99214671.32909              00              00
C19  22644321.86509 117914970.07109              00              00  22644322.25809  88861171.04109  22644313.55509  95815470.77909  22644326.40309 118996706.35209
C20  25354316.62309 132026638.51709              00              00  25354318.30309  99495766.61709  25354311.83409 107282325.87109  25354311.67409 133237916.31109
C22  23115130.57509 120366541.79209              00              00  23115122.26609  90708817.46009  23115118.90709  97807611.62509  23115133.16609 121470854.74609
C30  24871256.89309 129511177.27909              00              00  24871264.18309  97600191.35709  24871257.91109 105238457.77509  24871252.64009 130699324.86209
C36  22401894.34909 116652549.50909              00              00  22401900.60309  87910064.31609  22401896.95809  94789837.50409  22401889.32809 117722829.12709
C39  25811856.38709 134409137.74509              00              00  25811851.86609 101291219.40309  25811853.52809 109218320.40609  25811855.58309 135642273.43009
> 2026 06 07 17 24 33.0000000  0 14
C01  38579796.69809 200895235.21209              00              00              00              00  38579793.08809 163243744.43009              00              00
C02  36981316.33309 192571368.60409              00              00              00              00  36981307.84509 156480007.30809              00              00
C03  37015457.88909 192749191.15609              00              00              00              00  37015443.45109 156624466.69809              00              00
C07  37163883.03309 193522101.13709              00              00              00              00  37163879.62009 157252493.64609              00              00
C08  37887492.45909 197290143.44309              00              00              00              00  37887488.74209 160314419.17409              00              00
C09  39177904.16709 204009540.29109  39177902.43409 157753082.23809              00              00  39177898.21709 165774517.72709              00              00
C10  37303307.67509 194248087.01009  37303303.72609 150204915.47909              00              00  37303300.83109 157842507.49409              00              00
C12  23456129.50009 122142289.56809              00              00              00              00  23456128.83909  99250520.29009              00              00
C19  22649483.33209 117941842.08009              00              00  22649482.15209  88881421.94709  22649473.12909  95837306.48709  22649484.76109 119023824.79009
C20  25363980.56609 132076960.64809              00              00  25363982.83609  99533689.56909  25363974.27609 107323216.72209  25363975.08009 133288700.10109
C22  23111383.24409 120347024.46609              00              00  23111374.72109  90694109.20909  23111370.27209  97791752.23309  23111385.29909 121451158.39409
C30  24864326.01709 129475086.11609              00              00  24864333.39709  97572993.00309  24864325.65909 105209130.82009  24864322.19309 130662902.49909
C36  22400516.02209 116645371.82309              00              00  22400522.83009  87904655.15109  22400518.38009  94784005.04409  22400511.05409 117715585.58509
C39              00              00              00              00  25806432.22709 101269960.82809  25806439.57209 109195398.13009  25806439.10709 135613805.71509
> 2026 06 07 17 24 48.0000000  0 14
C01  38579772.28809 200895107.82609              00              00              00              00  38579768.44709 163243640.93709              00              00
C02  36981517.37709 192572416.27409              00              00              00              00  36981509.28309 156480858.59509              00              00
C03  37015605.50509 192749959.66209              00              00              00              00  37015590.99509 156625091.16809              00              00
C07  37163638.28109 193520824.31209              00              00              00              00  37163634.51009 157251456.16009              00              00
C08  37882850.87309 197265971.26509              00              00              00              00  37882846.87109 160294777.33609              00              00
C09  39183557.89009 204038985.18609  39183556.83609 157775850.94609              00              00  39183550.33209 165798444.26509              00              00
C10  37303027.14909 194246626.05509  37303023.23609 150203785.81009              00              00  37303019.62609 157841320.37309              00              00
C12  23464609.40609 122186444.40009              00              00              00              00  23464608.22709  99286399.69809              00              00
C19  22654662.09609 117968803.16209              00              00  22654657.25409  88901739.87309  22654650.96409  95859214.48809  22654661.43509 119051033.10109
C20  25373644.38409 132127284.66309              00              00  25373648.15409  99571613.98409  25373637.80809 107364109.11209  25373639.64909 133339485.86909
C22  23107654.49809 120327606.89909              00              00  23107646.31409  90679476.07109  23107640.54209  97775973.90809  23107656.17709 121431562.59409
C30  24857394.42609 129438992.82209              00              00  24857402.09209  97545792.98909  24857394.98009 105179802.08609  24857391.51409 130626478.04209
C36  22399141.84009 116638214.95709              00              00  22399147.46909  87899261.71109  22399143.71609  94778189.48909  22399136.40809 117708363.08609
C39              00              00              00              00              00              00  25801023.63209 109172485.37709  25801026.91909 135585349.95809
> 2026 06 07 17 25  3.0000000  0 14
C01  38579743.64409 200894958.56409              00              00              00              00  38579739.89209 163243519.69909              00              00
C02  36981714.34709 192573442.16209              00              00              00              00  36981706.18109 156481692.20109              00              00
C03  37015748.93909 192750706.25909              00              00              00              00  37015734.44809 156625697.82709              00              00
C07  37163386.72009 193519512.77909              00              00              00              00  37163382.23509 157250390.53909              00              00
C08  37878209.09109 197241798.57309              00              00              00              00  37878204.76609 160275135.08609              00              00
C09  39189207.82509 204068410.98809  39189207.78909 157798604.83409              00              00  39189197.40719 165822330.11819              00              00
C10  37302739.17209 194245126.13909  37302735.25809 150202626.01809              00              00  37302729.82609 157840101.52109              00              00
C12  23473095.87009 122230631.39509              00              00              00              00  23473092.60009  99322305.20609              00              00
C19              00              00              00              00  22659850.17109  88922120.76609  22659846.88309  95881190.41909  22659852.58309 119078325.67809
C20  25383308.13009 132177605.14309              00              00  25383312.40109  99609535.72209  25383301.46509 107404998.64209  25383302.84109 133390268.03709
C22  23103943.28009 120308284.07009              00              00  23103935.91809  90664914.34809  23103929.78909  97760272.58109  23103944.04909 121412062.45309
C30  24850461.28109 129402892.53509              00              00  24850467.62509  97518587.69609  24850464.14009 105150467.67909  24850460.06609 130590046.50109
C36  22397770.71409 116631073.71409              00              00  22397773.39509  87893880.05609  22397771.53609  94772386.64709  22397764.96109 117701156.30409
C39              00              00              00              00              00              00  25795609.60309 109149577.99309              00              00
> 2026 06 07 17 25 18.0000000  0 14
C01  38579717.30509 200894821.71909              00              00              00              00  38579713.44609 163243408.49909              00              00
C02  36981913.67609 192574480.35609              00              00              00              00  36981904.25909 156482535.86109              00              00
C03  37015894.71509 192751465.01909              00              00              00              00  37015880.11609 156626314.45209              00              00
C07  37163134.74909 193518200.82109              00              00              00              00  37163129.92509 157249324.40709              00              00
C08  37873573.52709 197217659.58209              00              00              00              00  37873568.91609 160255520.21109              00              00
C09  39194860.42209 204097851.79809  39194862.22709 157821370.31509              00              00  39194851.48809 165846253.11609              00              00
C10  37302450.31909 194243621.47509  37302446.47709 150201462.53409              00              00  37302439.31209 157838878.83409              00              00
C12  23481594.41309 122274884.29409              00              00              00              00  23481588.85609  99358264.26909              00              00
C19  22665070.99919 118022990.65819              00              00  22665066.60309  88942590.20009  22665063.44009  95903261.86109  22665066.97809 119105736.90709
C20  25392978.20209 132227956.04909              00              00  25392981.40109  99647480.35009  25392971.48309 107445912.87109  25392971.85909 133441080.86609
C22  23100256.36509 120289090.26509              00              00  23100249.73509  90650449.84909  23100243.71309  97744676.10409  23100256.09709 121392692.60209
C30  24843533.96109 129366819.67209              00              00  24843538.69709  97491403.12009  24843537.94609 105121155.56209  24843531.54909 130553642.68209
C36  22396408.98809 116623982.12709              00              00  22396410.13109  87888535.90509  22396408.07609  94766624.19709  22396403.32309 117693999.65309
C39              00              00              00              00              00              00  25790206.51109 109126703.57109  25790193.55619 135528391.68019
> 2026 06 07 17 25 33.0000000  0 14
C01  38579689.78709 200894678.91209              00              00              00              00  38579686.14209 163243292.46109              00              00
C02  36982111.86209 192575512.70209              00              00              00              00  36982101.76609 156483374.69909              00              00
C03  37016039.36509 192752217.82609              00              00              00              00  37016024.56909 156626926.14609              00              00
C07  37162878.82909 193516870.17309              00              00              00              00  37162873.82609 157248243.11709              00              00
C08  37868940.78609 197193536.13909              00              00              00              00  37868935.96109 160235917.97309              00              00
C09  39200512.26909 204127289.19709  39200516.86209 157844133.14809              00              00  39200504.53209 165870173.44709              00              00
C10  37302157.10609 194242093.85409  37302153.24609 150200281.26009              00              00  37302145.81309 157837637.43709              00              00
C12  23490101.71209 122319184.62209              00              00              00              00  23490095.92209  99394261.87409              00              00
C19  22670303.76309 118050251.75909              00              00  22670302.10209  88963134.31709  22670296.92009  95925413.76909  22670303.04909 119133248.19409
C20  25402650.50809 132278318.75209              00              00  25402651.79409  99685433.87709  25402643.71809 107486836.66409  25402643.39609 133491905.63909
C22  23096591.41009 120270007.46409              00              00  23096584.62009  90636068.97909  23096578.04409  97729169.76709  23096590.51719 121373401.67619
C30  24836608.58909 129330756.33909              00              00  24836614.30709  97464225.73609  24836611.98409 105091851.21009  24836604.05009 130517248.58409
C36  22395052.90709 116616921.85409              00              00  22395056.64209  87883215.26709  22395052.97909  94760887.18209  22395046.92109 117686874.61609
C39  25784800.48919 134268233.11419              00              00  25784792.66219 101185069.58019              00              00  25784792.41209 135500006.22409
> 2026 06 07 17 25 48.0000000  0 14
C01  38579662.69809 200894538.16709              00              00              00              00  38579658.96309 163243178.06109              00              00
C02  36982310.51209 192576547.10109              00              00              00              00  36982300.66609 156484215.27809              00              00
C03  37016184.35409 192752972.53809              00              00              00              00  37016169.50509 156627539.41909              00              00
C07  37162620.65809 193515528.70709              00              00              00              00  37162616.10109 157247153.14009              00              00
C08  37864312.65509 197169436.22509              00              00              00              00  37864307.63409 160216334.88009              00              00
C09  39206164.88509 204156730.91109  39206175.66009 157866899.41609              00              00  39206158.13009 165894097.27309              00              00
C10  37301860.87309 194240551.08309  37301857.04909 150199088.31909              00              00  37301850.95609 157836383.88309              00              00
C12  23498619.64309 122363539.92109              00              00              00              00  23498614.46109  99430304.23109              00              00
C19  22675560.54409 118077619.71109              00              00  22675559.50809  88983758.92109  22675552.46709  95947652.44109  22675557.54209 119160867.19109
C20  25412326.33409 132328700.94909              00              00  25412326.10109  99723402.10509  25412318.86409 107527776.25309  25412319.70409 133542750.05809
C22  23092949.59609 120251043.75409              00              00  23092942.62709  90621777.83009  23092935.81909  97713760.20209  23092942.25209 121354264.06609
C30  24829687.13009 129294710.78509              00              00  24829693.17009  97437061.76009  24829689.50709 105062561.33709  24829680.30409 130480872.42509
C36  22393704.04609 116609900.76909              00              00  22393709.92509  87877924.12609  22393705.56509  94755181.92109  22393698.56109 117679789.07309
C39  25779404.77609 134240135.78809              00              00  25779392.87509 101163895.31309              00              00  25779398.21809 135471651.22109
> 2026 06 07 17 26  3.0000000  0 14
C01  38579635.87609 200894399.02509              00              00              00              00  38579632.30309 163243064.99909              00              00
C02  36982509.41209 192577583.10809              00              00              00              00  36982499.87009 156485057.18709              00              00
C03  37016329.59309 192753728.68709              00              00              00              00  37016314.79809 156628153.89909              00              00
C07  37162360.53809 193514176.08109              00              00              00              00  37162355.96409 157246054.08709              00              00
C08  37859688.95609 197145359.48909              00              00              00              00  37859683.84609 160196770.60109              00              00
C09  39211818.44709 204186176.58209  39211835.53009 157889668.71309              00              00  39211811.69209 165918024.31909              00              00
C10  37301561.44209 194238992.86409  37301557.72509 150197883.45209              00              00  37301554.24109 157835117.69209              00              00
C12  23507149.11709 122407949.63409              00              00              00              00  23507142.00509  99466390.67509              00              00
C19  22680837.87409 118105093.82309              00              00  22680837.67809  89004463.48309  22680827.72409  95969977.33009  22680832.22709 119188593.31809
C20  25422005.91209 132379101.89909              00              00  25422005.50109  99761384.42809  25421997.15609 107568731.15309  25422000.62309 133593613.40209
C22  23089330.42209 120232198.82409              00              00  23089323.90009  90607576.19809  23089316.62709  97698447.13309  23089321.86309 121335246.27309
C30  24822769.01309 129258682.86109              00              00  24822773.62309  97409911.06609  24822769.31709 105033285.82009  24822760.27509 130444514.00809
C36  22392363.36909 116602918.23209              00              00  22392370.39209  87872662.04809  22392364.31609  94749508.03109  22392358.33009 117672742.47109
C39  25774014.58509 134212068.27809              00              00  25774001.73809 101142743.45909  25774008.97519 109058273.36019  25774007.81309 135443326.26409
> 2026 06 07 17 26 18.0000000  0 14
C01  38579609.69809 200894263.06309              00              00              00              00  38579606.07109 163242954.56909              00              00
C02  36982708.77609 192578622.39809              00              00              00              00  36982698.82309 156485901.68609              00              00
C03  37016475.44009 192754487.99309              00              00              00              00  37016460.64509 156628770.90009              00              00
C07  37162098.72109 193512814.05809              00              00              00              00  37162093.87909 157244947.32409              00              00
C08  37855069.65309 197121307.63809              00              00              00              00  37855065.00709 160177226.52709              00              00
C09  39217473.27809 204215627.75509              00              00              00              00  39217466.75609 165941955.81909              00              00
C10  37301259.20609 194237420.86109  37301255.48909 150196667.88709              00              00  37301253.86309 157833840.31609              00              00
C12  23515689.08009 122452415.01609              00              00              00              00  23515681.50409  99502522.41009              00              00
C19  22686134.94909 118132675.42409              00              00  22686132.44809  89025249.11509  22686124.87109  95992389.63309  22686129.87509 119216427.96409
C20  25431688.84909 132429522.95209              00              00  25431689.61809  99799381.87509  25431680.61209 107609702.30609  25431682.20209 133644496.92209
C22  23085733.97709 120213474.49309              00              00  23085727.99109  90593465.45709  23085720.86209  97683232.05909  23085726.77609 121316350.17109
C30  24815853.41509 129222674.61409              00              00  24815857.13209  97382775.15309  24815852.82509 105004026.19809  24815845.58809 130408175.32409
C36  22391030.44709 116595975.79409              00              00  22391037.91709  87867430.19509  22391031.52009  94743866.74509  22391025.83709 117665736.40209
C39  25768630.72009 134184032.07009              00              00  25768625.05609 101121615.27309  25768625.05609 109035491.64709  25768624.48409 135415032.89909
> 2026 06 07 17 26 33.0000000  0 14
C01  38579582.84109 200894123.36209              00              00              00              00  38579578.94609 163242841.02709              00              00
C02  36982907.21209 192579657.88809              00              00              00              00  36982897.49109 156486743.03909              00              00
C03  37016620.44709 192755243.40309              00              00              00              00  37016605.75909 156629384.71309              00              00
C07  37161833.61609 193511435.58809              00              00              00              00  37161829.75709 157243827.12209              00              00
C08  37850453.63809 197097273.64109              00              00              00              00  37850449.92109 160157696.99009              00              00
C09  39223127.78709 204245077.13709              00              00              00              00  39223122.12309 165965885.88709              00              00
C10  37300952.68009 194235828.00209  37300949.17809 150195436.22509              00              00  37300948.85609 157832545.97709              00              00
C12  23524238.17509 122496928.71609              00              00              00              00  23524231.26009  99538693.38109              00              00
C19  22691450.91209 118160357.34309              00              00  22691444.76509  89046110.32309  22691441.72809  96014883.45709  22691446.96309 119244363.92109
C20  25441373.64509 132479956.75009              00              00  25441375.82509  99837388.99909  25441367.57009 107650683.92209  25441367.44509 133695393.36909
C22  23082158.99309 120194863.87909              00              00  23082153.61509  90579440.40309  23082147.27109  97668109.36609  23082152.91809 121297568.74509
C30  24808940.53309 129186679.22809              00              00  24808943.83909  97355648.96409  24808941.32009 104974777.04809  24808933.17109 130371849.67609
C36  22389703.27909 116589066.43409              00              00  22389710.55209  87862223.24609  22389705.29909  94738252.30109  22389698.45509 117658763.56009
C39  25763252.69809 134156020.17809              00              00  25763248.39209 101100505.32009  25763242.71019 109012706.70919  25763246.73009 135386763.99909
> 2026 06 07 17 26 48.0000000  0 14
C01  38579553.53609 200893971.00309              00              00              00              00  38579549.69409 163242717.21609              00              00
C02  36983103.41409 192580680.77809              00              00              00              00  36983093.15719 156487571.25119              00              00
C03  37016763.02409 192755986.00709              00              00              00              00  37016748.31809 156629988.14709              00              00
C07  37161563.74109 193510031.72809              00              00              00              00  37161561.68609 157242686.46509              00              00
C08  37845839.65909 197073248.78009              00              00              00              00  37845836.83609 160138174.87009              00              00
C09  39228780.70609 204274515.95209  39228834.01019 157958188.12919              00              00  39228776.32809 165989807.26709              00              00
C10  37300640.65109 194234205.45909  37300637.20309 150194181.60109              00              00  37300637.64909 157831227.57609              00              00
C12  23532793.48809 122541481.66009              00              00              00              00  23532788.03809  99574896.30609              00              00
C19  22696783.70809 118188130.48109              00              00  22696780.11609  89067040.27009  22696775.18409  96037451.44709  22696780.68809 119272391.90909
C20  25451059.35309 132530394.27109              00              00  25451061.87209  99875398.88409  25451054.36709 107691668.51809  25451054.51009 133746293.61609
C22  23078604.70209 120176358.24809              00              00  23078599.43109  90565494.48409  23078593.98009  97653072.01609  23078599.27009 121278893.31309
C30  24802028.52709 129150688.17709              00              00  24802032.01209  97328526.04109  24802030.83209 104945531.43509  24802021.45109 130335528.42309
C36  22388380.52509 116582181.16809              00              00  22388387.35109  87857034.48309  22388382.47309  94732657.44909  22388376.57609 117651815.06809
C39              00              00              00              00  25757868.72609 101079407.03509  25757870.63809 108989957.21509  25757869.38709 135358510.74809
> 2026 06 07 17 27  3.0000000  0 14
C01  38579529.48409 200893845.84709              00              00              00              00  38579525.46409 163242615.57009              00              00
C02  36983304.72609 192581730.87609              00              00              00              00  36983296.95309 156488424.68409              00              00
C03  37016910.83709 192756755.72409              00              00              00              00  37016896.07709 156630613.65209              00              00
C07  37161291.86319 193508591.70319              00              00              00              00  37161296.50909 157241557.65509              00              00
C08  37841235.34809 197049272.97909              00              00              00              00  37841233.06109 160118692.60509              00              00
C09  39234439.77209 204303983.93209  39234492.18209 157980974.62509              00              00              00              00              00              00
C10  37300330.69509 194232593.16109  37300327.28209 150192934.89309              00              00  37300327.96109 157829917.43309              00              00
C12  23541362.79209 122586113.36009              00              00              00              00  23541359.70109  99611163.27809              00              00
C19  22702142.96709 118216034.60609              00              00  22702139.37609  89088068.85909  22702134.33609  96060125.82009  22702137.58909 119300551.97709
C20  25460753.65509 132580875.02109              00              00  25460754.53109  99913441.38709  25460748.11609 107732688.24109  25460748.79509 133797237.46009
C22  23075078.85809 120157997.62709              00              00  23075073.74709  90551657.85609  23075068.56509  97638152.50209  23075074.10509 121260364.19409
C30  24795125.22309 129114741.65009              00              00  24795129.42309  97301436.70109  24795126.70709 104916322.02909  24795117.80809 130299252.15009
C36  22387070.40409 116575359.74009              00              00  22387076.78309  87851893.86809  22387072.28009  94727114.50709  22387065.43609 117644931.01009
C39              00              00              00              00  25752502.89109 101058350.38809  25752508.05509 108967252.58409              00              00
> 2026 06 07 17 27 18.0000000  0 14
C01  38579504.89609 200893717.74809              00              00              00              00  38579501.25109 163242511.46509              00              00
C02  36983505.57409 192582778.00809              00              00              00              00  36983493.47709 156489275.46509              00              00
C03  37017058.06009 192757522.33409              00              00              00              00  37017043.10309 156631236.59309              00              00
C07  37161024.57909 193507186.93509              00              00              00              00  37161027.34809 157240416.17809              00              00
C08  37836635.04009 197025316.07209              00              00              00              00  37836632.55609 160099225.70409              00              00
C09  39240098.76709 204333450.69909  39240096.98019 158003596.23319              00              00              00              00              00              00
C10  37300017.02309 194230960.85709  37300013.59209 150191672.71409              00              00  37300014.19909 157828591.16809              00              00
C12  23549942.90709 122630793.50409              00              00              00              00  23549939.97709  99647469.53109              00              00
C19  22707521.31109 118244039.21509              00              00  22707518.05909  89109173.21309  22707511.71509  96082881.79109  22707514.05609 119328813.44409
C20  25470449.88709 132631368.54209              00              00  25470449.49409  99951493.54509  25470444.11609 107773718.40509  25470443.75809 133848194.24409
C22  23071574.70709 120139751.93309              00              00  23071570.40009  90537907.87109  23071565.32509  97623326.40009  23071570.93609 121241951.16109
C30  24788224.42109 129078809.75209              00              00  24788229.97809  97274358.32509  24788224.52809 104887124.52509  24788216.34409 130262990.60709
C36  22385767.03709 116568571.84909              00              00  22385773.29209  87846778.51409  22385769.71809  94721598.81909  22385760.40809 117638080.91309
C39              00              00              00              00  25747144.31009 101037312.53209              00              00  25747157.15819 135302213.94519
> 2026 06 07 17 27 33.0000000  0 14
C01  38579476.91409 200893572.12709              00              00              00              00  38579473.19709 163242393.19309              00              00
C02  36983703.17009 192583807.60309              00              00              00              00  36983690.59009 156490112.14509              00              00
C03  37017201.85209 192758271.30409              00              00              00              00  37017186.82409 156631845.21809              00              00
C07  37160749.57409 193505752.09309              00              00              00              00  37160751.48609 157239250.27609              00              00
C08  37832035.89309 197001363.56809              00              00              00              00  37832032.62309 160079762.38909              00              00
C09  39245755.04509 204362901.77609  39245752.40009 158026369.65809              00              00              00              00              00              00
C10  37299696.88109 194229294.07009  37299693.14709 150190383.85509              00              00  37299694.23709 157827236.72009              00              00
C12  23558530.77809 122675507.14309              00              00              00              00  23558525.97109  99683802.94509              00              00
C19  22712915.50409 118272129.53909              00              00  22712913.68209  89130342.12409  22712905.39009  96105707.42609  22712908.51709 119357161.15509
C20  25480145.22609 132681859.98409              00              00  25480145.51209  99989544.14209  25480140.18709 107814746.86409  25480139.77609 133899148.96309
C22  23068089.64009 120121606.76909              00              00  23068086.44109  90524233.67609  23068081.24109  97608581.99009  23068086.26209 121223639.56009
C30  24781323.27909 129042878.27809              00              00  24781330.37309  97247280.26209  24781323.94109 104857927.27109  24781316.23909 130226729.39309
C36  22384467.40509 116561802.83309              00              00  22384473.87409  87841677.42009  22384470.37209  94716098.50509  22384462.02709 117631249.81609
C39              00              00              00              00  25741784.21109 101016282.53409              00              00  25741794.23509 135274052.05809
> 2026 06 07 17 27 48.0000000  0 14
C01  38579450.71809 200893435.55509              00              00              00              00  38579447.01909 163242282.17909              00              00
C02  36983902.48109 192584846.32309              00              00              00              00  36983890.36609 156490956.17609              00              00
C03  37017347.34109 192759029.21409              00              00              00              00  37017332.36709 156632461.05909              00              00
C07  37160473.89109 193504313.72609              00              00              00              00  37160473.67709 157238081.62209              00              00
C08  37827442.69609 196977442.15409              00              00              00              00  37827438.55009 160060324.32509              00              00
C09  39251413.20009 204392363.58809  39251409.09019 158049155.34019              00              00              00              00              00              00
C10  37299375.27409 194227619.35409  37299371.04009 150189088.83409              00              00  37299373.23709 157825875.91609              00              00
C12  23567129.72709 122720280.49609              00              00              00              00  23567124.59809  99720184.88909              00              00
C19  22718331.06909 118300331.91709              00              00  22718329.85409  89151595.53509  22718321.56309  96128624.09909  22718328.13909 119385622.25309
C20  25489845.72909 132732375.55109              00              00  25489847.76609 100027612.99609  25489841.11909 107855795.00909  25489841.29709 133950128.13509
C22  23064629.21409 120103588.90209              00              00  23064626.74809  90510655.35309  23064621.26209  97593940.99209  23064626.10509 121205456.37309
C30  24774427.83809 129006974.01309              00              00  24774435.21809  97220222.73509  24774427.98109 104828752.16709  24774420.45809 130190495.69609
C36  22383176.19009 116555079.17809              00              00  22383183.24809  87836610.50509  22383178.69209  94710635.03209  22383171.91909 117624464.50609
C39              00              00              00              00  25736428.75709 100995280.34609              00              00  25736443.76709 135245927.39509
> 2026 06 07 17 28  3.0000000  0 14
C01  38579425.71909 200893305.12109              00              00              00              00  38579421.87709 163242176.22809              00              00
C02  36984102.93609 192585891.13509              00              00              00              00  36984090.62409 156491805.19309              00              00
C03  37017494.01009 192759793.11209              00              00              00              00  37017479.00009 156633081.80909              00              00
C07  37160196.81409 193502869.17709              00              00              00              00  37160194.74109 157236907.74209              00              00
C08  37822854.50309 196953549.00609              00              00              00              00  37822849.92809 160040909.21409              00              00
C09  39257072.87309 204421833.05109              00              00              00              00              00              00              00              00
C10  37299051.68409 194225933.70709  37299046.87809 150187785.47909              00              00  37299050.00509 157824506.29309              00              00
C12  23575738.25409 122765110.35809              00              00              00              00  23575735.03709  99756612.80509              00              00
C19  22723767.55809 118328643.35409              00              00  22723767.43309  89172931.05009  22723759.60709  96151629.31209  22723767.00509 119414193.19909
C20  25499552.03909 132782912.35209              00              00  25499555.09509 100065697.67209  25499546.58909 107896860.24709  25499547.55409 134001128.55809
C22  23061192.76909 120085695.58909              00              00  23061190.37409  90497170.88809  23061184.56709  97579401.19809  23061189.64109 121187398.87209
C30  24767537.31009 128971094.46609              00              00  24767544.86909  97193183.80509  24767536.68509 104799597.14809  24767529.75209 130154286.97009
C36  22381893.24809 116548397.93309              00              00  22381899.96609  87831575.53709  22381895.53509  94705206.03409  22381888.74509 117617722.01809
C39  25731096.15919 133988566.42519              00              00  25731083.22109 100974303.68509  25731097.24919 108876674.10119  25731114.74219 135217854.99119
> 2026 06 07 17 28 18.0000000  0 14
C01  38579399.48709 200893168.31909              00              00              00              00  38579395.78809 163242065.06309              00              00
C02  36984302.12209 192586929.59909              00              00              00              00  36984289.68509 156492649.00209              00              00
C03  37017639.42809 192760550.51109              00              00              00              00  37017624.38309 156633697.28409              00              00
C07  37159916.36009 193501405.66909              00              00              00              00  37159913.51909 157235718.55009              00              00
C08  37818268.99009 196929671.61309              00              00              00              00  37818264.21909 160021506.90709              00              00
C09  39262731.49209 204451297.63209  39262720.30619 158094689.95219              00              00              00              00              00              00
C10  37298725.12809 194224224.81809  37298718.01609 150186464.11409              00              00  37298721.73309 157823117.67009              00              00
C12  23584354.23209 122809983.99409              00              00              00              00  23584353.23109  99793076.22209              00              00
C19              00              00              00              00  22729222.48909  89194339.04609  22729215.62709  96174712.67909  22729221.77409 119442861.23409
C20  25509259.54709 132833457.39309              00              00  25509263.67509 100103788.61209  25509254.11509 107937932.17909  25509254.70409 134052137.27709
C22  23057777.33709 120067914.43209              00              00  23057775.53209  90483770.95309  23057769.33209  97564952.54409  23057775.30009 121169454.56209
C30  24760649.46309 128935227.32709              00              00  24760657.18309  97166154.25909  24760649.62409 104770452.20709  24760639.97509 130118090.84209
C36  22380615.57709 116541746.49309              00              00  22380621.88509  87826562.99209  22380618.13209  94699801.17809  22380611.21709 117611009.49909
C39  25725755.87609 133960752.77609              00              00  25725743.06409 100953343.18609  25725764.43509 108854073.00309              00              00
> 2026 06 07 17 28 33.0000000  0 14
C01  38579371.79009 200893024.07909              00              00              00              00  38579367.94809 163241947.89909              00              00
C02  36984499.69909 192587960.64809              00              00              00              00  36984486.85109 156493486.87009              00              00
C03  37017783.31009 192761300.42509              00              00              00              00  37017768.37109 156634306.64609              00              00
C07  37159631.67009 193499922.28109              00              00              00              00  37159628.61509 157234513.27809              00              00
C08  37813686.01409 196905809.04909              00              00              00              00  37813681.40409 160002116.63809              00              00
C09  39268389.27209 204480756.26309  39268392.82809 158117469.21809              00              00              00              00              00              00
C10  37298394.80109 194222491.55109  37298384.41909 150185123.89809              00              00  37298388.58309 157821709.39409              00              00
C12  23592984.47009 122854900.27509              00              00              00              00  23592977.32209  99829574.14409              00              00
C19  22734694.96619 118385474.75019              00              00  22734695.32409  89215818.58209  22734690.23109  96197873.21809  22734695.05609 119471625.22009
C20  25518967.39409 132884009.35409              00              00  25518971.05709 100141884.78209  25518963.32009 107979009.77909  25518961.96209 134103153.04109
C22  23054383.29509 120050244.57009              00              00  23054382.24109  90470454.85409  23054375.64709  97550594.34309  23054381.99009 121151622.59709
C30  24753764.26109 128899371.96509              00              00  24753771.33709  97139133.60409  24753765.13609 104741316.87309  24753755.41509 130081906.57009
C36  22379343.08809 116535123.70609              00              00  22379349.46709  87821572.02809  22379345.85809  94694419.61109  22379338.51309 117604325.91209
C39  25720417.34509 133932959.50709              00              00  25720404.40709 100932398.02109              00              00              00              00
> 2026 06 07 17 28 48.0000000  0 14
C01  38579345.63009 200892887.57409              00              00              00              00  38579341.69909 163241836.96809              00              00
C02  36984698.76009 192588999.39209              00              00              00              00  36984686.64509 156494330.98909              00              00
C03  37017928.65609 192762057.87409              00              00              00              00  37017913.80709 156634922.16309              00              00
C07  37159349.16119 193498469.23819              00              00              00              00  37159344.01509 157233304.15809              00              00
C08  37809108.68509 196881976.45909              00              00              00              00  37809104.59309 159982750.75109              00              00
C09  39274048.82009 204510223.74309  39274053.64509 158140255.34109              00              00              00              00              00              00
C10  37298062.40209 194220749.19109              00              00              00              00  37298053.02009 157820293.53909              00              00
C12  23601627.43009 122899873.73809              00              00              00              00  23601612.68809  99866118.55409              00              00
C19  22740191.26309 118414087.04009              00              00  22740185.15209  89237380.74809  22740186.01009  96221123.00009  22740187.40409 119500499.99009
C20  25528678.95809 132934583.10309              00              00  25528680.17309 100179997.33209  25528676.00909 108020105.08809  25528673.38309 134154190.75809
C22  23051014.44809 120032701.20209              00              00  23051013.10809  90457234.12409  23051006.03209  97536338.94009  23051012.10709 121133918.30609
C30  24746884.63309 128863543.70609              00              00  24746890.38709  97112133.35709  24746883.77509 104712203.56009  24746876.41309 130045749.62609
C36  22378078.67609 116528544.59309              00              00  22378086.23409  87816613.94809  22378082.01709  94689073.50809  22378074.58409 117597686.37909
C39  25715086.21109 133905201.44509              00              00  25715074.02409 100911479.45109              00              00              00              00
> 2026 06 07 17 29  3.0000000  0 14
C01  38579319.68409 200892752.54209              00              00              00              00  38579315.61009 163241727.23709              00              00
C02  36984898.14309 192590039.60009              00              00              00              00  36984885.00909 156495176.23609              00              00
C03  37018074.25309 192762816.69709              00              00              00              00  37018059.54709 156635538.78109              00              00
C07  37159061.57709 193496970.27009              00              00              00              00  37159058.05709 157232086.24909              00              00
C08  37804536.11009 196858167.72609              00              00              00              00  37804532.50009 159963404.22209              00              00
C09  39279708.27909 204539693.92709  39279717.12509 158163043.56709              00              00              00              00              00              00
C10              00              00  37297709.56019 150182385.34519              00              00  37297714.68809 157818865.21309              00              00
C12  23610274.78709 122944897.82809              00              00              00              00  23610260.25909  99902704.18009              00              00
C19  22745703.82109 118442802.57609              00              00  22745702.62409  89259020.80909  22745701.06909  96244456.77709  22745701.35509 119529479.24709
C20  25538393.09509 132985172.10109              00              00  25538391.68309 100218121.36709  25538390.48609 108061212.79309  25538389.00309 134205243.87209
C22  23047669.20609 120015278.30209              00              00  23047666.54409  90444104.14509  23047659.50309  97522181.43109  23047665.43609 121116335.59609
C30  24740008.84709 128827736.70809              00              00  24740013.33309  97085149.12309  24740006.73909 104683107.49109  24740001.86109 130009614.11509
C36  22376822.23309 116522002.72109              00              00  22376830.52509  87811684.02209  22376827.11209  94683757.75509  22376818.42709 117591084.52109
C39              00              00              00              00  25709750.27009 100890582.86409              00              00  25709810.82909 135105951.05909
> 2026 06 07 17 29 18.0000000  0 14
C01  38579292.39809 200892610.85309              00              00              00              00  38579288.36009 163241612.15409              00              00
C02  36985096.25709 192591073.20309              00              00              00              00  36985082.92609 156496016.13909              00              00
C03  37018218.54609 192763568.75209              00              00              00              00  37018203.96509 156636149.88709              00              00
C07  37158770.63409 193495452.39609              00              00              00              00  37158769.06109 157230852.87609              00              00
C08  37799967.00009 196834374.69609              00              00              00              00  37799963.40909 159944070.48809              00              00
C09  39285366.20209 204569158.47209  39285379.88909 158185827.44609              00              00              00              00              00              00
C10              00              00  37297369.81609 150181048.10109              00              00  37297372.13909 157817417.72709              00              00
C12  23618929.41609 122989964.13309              00              00              00              00  23618915.81709  99939324.26509              00              00
C19  22751235.94609 118471613.10509              00              00  22751236.33909  89280732.55409  22751232.55109  96267867.72309  22751245.73809 119558554.65409
C20  25548108.78609 133035767.92009              00              00  25548107.91109 100256250.58409  25548105.33809 108102326.07109  25548107.42809 134256303.92009
C22  23044345.40709 119997967.84109              00              00  23044341.86909  90431058.91709  23044334.79309  97508115.31309  23044341.45809 121098866.32909
C30  24733135.51009 128791943.12409              00              00  24733138.51209  97058175.01809  24733133.66909 104654022.32409  24733128.30909 129973492.14309
C36  22375572.06309 116515489.97809              00              00  22375580.31809  87806776.04509  22375576.22609  94678465.64709  22375568.59609 117584512.07009
C39              00              00              00              00  25704430.19809 100869701.98009              00              00  25704473.92309 135077988.93209
> 2026 06 07 17 29 33.0000000  0 14
C01  38579264.43309 200892465.27209              00              00              00              00  38579260.52009 163241493.86309              00              00
C02  36985293.74509 192592102.83909              00              00              00              00  36985280.07509 156496852.83109              00              00
C03  37018362.08709 192764316.73809              00              00              00              00  37018347.47109 156636757.71809              00              00
C07  37158476.59909 193493918.33209              00              00              00              00  37158476.81309 157229606.38909              00              00
C08  37795401.68009 196810600.25509              00              00              00              00  37795397.82009 159924751.85709              00              00
C09  39291023.15909 204598620.14809  39291043.10109 158208609.13209              00              00              00              00              00              00
C10  37297048.01319 194215517.42019  37297024.35409 150179654.63709              00              00  37297025.94509 157815953.46509              00              00
C12  23627595.91009 123035075.41209              00              00              00              00  23627578.32609  99975980.67009              00              00
C19  22756788.28009 118500521.20509              00              00  22756785.70709  89302517.84509  22756779.72109  96291357.85609  22756795.71309 119587728.12709
C20  25557826.96209 133086373.07409              00              00  25557829.08809 100294386.81409  25557820.85009 108143446.90309  25557827.06909 134307373.35009
C22  23041043.76509 119980772.70409              00              00  23041039.76309  90418100.63909  23041032.57909  97494142.91509  23041039.83409 121081513.49409
C30  24726265.38909 128756166.04209              00              00  24726266.94309  97031213.37709  24726263.69109 104624950.58709  24726256.47209 129937386.85709
C36  22374327.82509 116509008.96009              00              00  22374335.61609  87801891.99409  22374329.41509  94673199.36409  22374324.16209 117577971.63909
C39  25699119.22019 133822073.52319              00              00  25699114.61009 100848838.91009              00              00              00              00
> 2026 06 07 17 29 48.0000000  0 14
C01  38579235.82509 200892316.56309              00              00              00              00  38579231.78609 163241373.02409              00              00
C02  36985490.51909 192593129.40409              00              00              00              00  36985476.88509 156497687.01909              00              00
C03  37018505.07509 192765061.40109              00              00              00              00  37018490.51209 156637362.81809              00              00
C07  37158179.52609 193492368.85609              00              00              00              00  37158181.27809 157228347.36709              00              00
C08  37790839.70009 196786845.27609              00              00              00              00  37790835.62609 159905448.99509              00              00
C09  39296679.65209 204628079.60209              00              00              00              00              00              00              00              00
C10  37296693.70609 194213695.34409  37296676.46209 150178245.71009              00              00  37296675.94409 157814472.81309              00              00
C12              00              00              00              00              00              00  23636248.96609 100012673.83009              00              00
C19  22762359.44809 118529527.43709              00              00  22762357.26809  89324377.03909  22762349.42409  96314927.68609  22762364.75509 119617000.58209
C20  25567547.26309 133136988.00009              00              00  25567552.12409 100332530.45009  25567538.88309 108184575.68909  25567545.70909 134358452.63309
C22  23037764.37109 119963693.88109              00              00  23037759.72509  90405229.96009  23037753.39909  97480264.99609  23037760.42209 121064277.90009
C30  24719397.64409 128720406.64709              00              00  24719399.55609  97004265.00209  24719396.17909 104595893.18109  24719388.71009 129901299.30709
C36  22373089.80509 116502560.36809              00              00  22373096.47109  87797032.37709  22373090.39509  94667959.42609  22373085.69609 117571463.90409
C39  25693805.58009 133794413.42109              00              00  25693804.72309 100827994.12109              00              00              00              00
> 2026 06 07 17 30  3.0000000  0 14
C01  38579209.66409 200892180.66509              00              00              00              00  38579205.82309 163241262.61309              00              00
C02  36985689.84809 192594168.75809              00              00              00              00  36985677.19609 156498531.64309              00              00
C03  37018650.44009 192765818.80009              00              00              00              00  37018635.94809 156637978.31809              00              00
C07  37157882.29309 193490819.96109              00              00              00              00  37157886.40309 157227088.82509              00              00
C08  37786284.02809 196763125.69309              00              00              00              00  37786279.84709 159886174.93109              00              00
C09  39302338.71809 204657552.70009              00              00              00              00              00              00              00              00
C10  37296342.95509 194211869.27809  37296327.55209 150176833.73409              00              00  37296325.30009 157812989.02909              00              00
C12  23644939.99419 123125340.70019              00              00              00              00  23644930.38109 100049416.50709              00              00
C19  22767950.12909 118558647.34809              00              00  22767951.95209  89346322.03809  22767944.39309  96338590.01309  22767955.75809 119646387.76809
C20  25577272.80109 133187628.44509              00              00  25577277.87609 100370693.27109  25577264.70609 108225725.13909  25577269.24509 134409557.59009
C22  23034509.77809 119946747.40309              00              00  23034505.00709  90392459.05109  23034499.14609  97466494.61109  23034506.38309 121047175.90509
C30  24712535.61809 128684681.08209              00              00  24712539.37009  96977342.14809  24712535.63609 104566863.27309  24712526.96909 129865245.94309
C36  22371861.25609 116496160.06909              00              00  22371865.34809  87792209.17709  22371861.50709  94662758.70609  22371856.43209 117565004.87809
C39  25688501.44709 133766793.60109              00              00  25688500.92909 100807179.66509  25688488.90319 108696401.09319  25688502.80519 134994043.44519
> 2026 06 07 17 30 18.0000000  0 14
C01  38579178.51909 200892018.53409              00              00              00              00  38579174.83809 163241130.89109              00              00
C02  36985884.35209 192595181.85509              00              00              00              00  36985871.25409 156499354.84109              00              00
C03  37018790.76509 192766549.89209              00              00              00              00  37018776.23809 156638572.36509              00              00
C07  37157577.34009 193489232.62909              00              00              00              00  37157590.06309 157225799.17909              00              00
C08  37781727.83909 196739402.53709              00              00              00              00  37781723.40709 159866897.97109              00              00
C09  39307992.74509 204687000.18309              00              00              00              00              00              00              00              00
C10  37295983.85909 194210000.21209  37295969.81409 150175388.40109              00              00  37295966.15109 157811470.27009              00              00
C12  23653628.12809 123170579.50009              00              00              00              00  23653616.06609 100086176.64009              00              00
C19  22773557.19709 118587841.86609              00              00  22773560.30609  89368323.17809  22773552.87209  96362312.93009  22773559.93019 119675812.86819
C20  25586995.71109 133238254.99109              00              00  25586998.85609 100408845.61309  25586990.70809 108266863.28209  25586992.12009 134460648.49409
C22  23031272.64409 119929894.37409              00              00  23031268.12309  90379758.53109  23031263.15609  97452800.13509  23031269.82109 121030168.20609
C30  24705673.02009 128648950.57609              00              00  24705678.23709  96950415.54109  24705675.46809 104537829.33609  24705664.62109 129829187.62909
C36  22370633.97609 116489768.88309              00              00  22370637.42509  87787392.82209  22370635.31609  94657565.38109  22370629.06209 117558555.05109
C39  25683196.97409 133739174.93509              00              00  25683194.95509 100786366.08709  25683189.21909 108673977.18909  25683197.13509 134966171.26109
> 2026 06 07 17 30 33.0000000  0 14
C01  38579150.75009 200891873.98509              00              00              00              00  38579146.87309 163241013.43409              00              00
C02  36986082.35909 192596212.55809              00              00              00              00  36986069.54709 156500192.38409              00              00
C03  37018934.37909 192767298.35009              00              00              00              00  37018919.99409 156639180.57409              00              00
C07  37157273.22709 193487650.72309              00              00              00              00              00              00              00              00
C08  37777179.70809 196715719.67309              00              00              00              00  37777175.16909 159847653.75409              00              00
C09  39313650.47109 204716465.81309              00              00              00              00              00              00              00              00
C10  37295625.21009 194208131.91609  37295611.46909 150173943.71509              00              00  37295607.68019 157809923.12819              00              00
C12  23662328.68009 123215883.35509              00              00              00              00  23662316.56509 100122989.65109              00              00
C19  22779187.61809 118617154.55909              00              00  22779186.68909  89390413.25209  22779182.38309  96386131.82609  22779186.77909 119705394.28509
C20  25596724.00109 133288911.14309              00              00  25596725.34109 100447020.28409  25596720.08709 108308025.58109  25596721.07009 134511769.38509
C22  23028062.24209 119913178.65709              00              00  23028058.04309  90367161.56909  23028053.68309  97439217.30209  23028059.34709 121013299.12409
C30  24698819.08809 128613259.23209              00              00  24698824.37709  96923518.48009  24698821.89309 104508827.26609  24698811.33309 129793168.88209
C36  22369416.16709 116483430.52309              00              00  22369421.56309  87782616.28609  22369419.93709  94652414.99209  22369412.09209 117552158.58209
C39  25677901.38209 133711601.01609              00              00  25677899.39809 100765586.41309  25677888.71209 108651560.77209  25677899.38009 134938344.48309
> 2026 06 07 17 30 48.0000000  0 14
C01  38579125.18009 200891740.74009              00              00              00              00  38579121.42709 163240905.21309              00              00
C02  36986282.67009 192597254.54709              00              00              00              00  36986269.78709 156501039.17909              00              00
C03  37019080.19009 192768058.07209              00              00              00              00  37019065.91309 156639797.91509              00              00
C07  37156969.00709 193486067.99409              00              00              00              00              00              00              00              00
C08  37772638.27809 196692070.97009              00              00              00              00  37772633.88209 159828437.29309              00              00
C09  39319311.28809 204745943.42409              00              00              00              00              00              00              00              00
C10  37295265.31009 194206258.22109  37295251.37209 150172494.78009              00              00  37295248.04809 157808400.58309              00              00
C12  23671039.18509 123261245.77009              00              00              00              00  23671030.01909 100159850.22509              00              00
C19  22784837.94609 118646578.60309              00              00  22784834.01509  89412587.45709  22784830.94209  96410041.42509  22784838.91109 119735088.50309
C20  25606456.56109 133339590.35809              00              00  25606457.61509 100485212.38609  25606450.18109 108349206.58009  25606451.91509 134562913.56709
C22  23024877.48209 119896594.22809              00              00  23024873.78309  90354663.51309  23024869.28009  97425741.14709  23024874.26509 120996562.58609
C30  24691972.19609 128577601.16809              00              00  24691976.53809  96896646.55109  24691972.35709 104479852.26709  24691965.04909 129757183.71509
C36  22368207.09509 116477138.74709              00              00  22368214.01009  87777874.76309  22368212.70609  94647302.39509  22368204.20009 117545809.05209
C39  25672613.45509 133684065.70109              00              00  25672616.36809 100744835.76609  25672602.71609 108629186.20309  25672610.93609 134910556.65909
> 2026 06 07 17 31  3.0000000  0 14
C01  38579095.78509 200891587.57009              00              00              00              00  38579091.80009 163240780.75209              00              00
C02  36986479.06909 192598276.61709              00              00              00              00  36986465.86409 156501869.62409              00              00
C03  37019222.17709 192768797.63509              00              00              00              00  37019208.02509 156640398.89409              00              00
C07  37156658.85509 193484453.20309              00              00              00              00  37156653.63719 157221962.83119              00              00
C08  37768097.11609 196668425.16609              00              00              00              00  37768093.30909 159809223.16109              00              00
C09  39324968.78109 204775401.45309              00              00              00              00              00              00              00              00
C10  37294897.90509 194204347.80309  37294883.89609 150171017.49009              00              00              00              00              00              00
C12  23679753.37209 123306634.93109              00              00              00              00  23679747.85009 100196732.69009              00              00
C19  22790503.17709 118676082.78409              00              00  22790501.42609  89434821.97009  22790494.68909  96434016.07409  22790514.25619 119764812.32319
C20  25616187.56609 133390261.23209              00              00  25616189.29909 100523398.09309  25616179.52509 108390380.69809  25616184.47509 134614049.26209
C22  23021711.96609 119880109.88409              00              00  23021708.87509  90342240.89709  23021704.03309  97412346.30509  23021708.62509 120979927.09809
C30  24685125.53709 128541945.37709              00              00  24685128.87909  96869776.30809  24685123.84009 104450879.10909  24685119.31909 129721200.82809
C36  22367001.84709 116470862.05509              00              00  22367008.28009  87773144.64009  22367007.26109  94642202.08709  22366998.93509 117539474.81609
C39  25667326.24409 133656537.79509              00              00  25667326.02909 100724090.68209  25667319.13209 108606817.48909  25667323.04509 134882776.04209
> 2026 06 07 17 31 18.0000000  0 14
C01  38579067.89209 200891442.17609              00              00              00              00  38579063.80009 163240662.62409              00              00
C02  36986676.89709 192599306.44809              00              00              00              00  36986662.45909 156502706.51209              00              00
C03  37019365.68309 192769544.87709              00              00              00              00  37019351.54909 156641006.14609              00              00
C07  37156348.11209 193482834.14209              00              00              00              00  37156338.80309 157220629.17309              00              00
C08  37763561.56409 196644810.09209              00              00              00              00  37763558.52709 159790034.00909              00              00
C09  39330627.36509 204804867.64209  39330640.21319 158368144.80219              00              00              00              00              00              00
C10  37294528.57009 194202428.48509  37294514.72209 150169533.31109              00              00  37294513.23819 157805290.60719              00              00
C12  23688479.79909 123352078.63009              00              00              00              00  23688475.04509 100233659.41509              00              00
C19  22796191.28009 118705694.70509              00              00  22796188.22509  89457137.64109  22796182.39909  96458078.15709  22796196.44509 119794695.98309
C20  25625920.48309 133440951.06909              00              00  25625923.96809 100561598.16809  25625915.46209 108431570.34709  25625920.03609 134665204.20409
C22  23018571.37809 119863753.54109              00              00  23018568.57309  90329914.74609  23018562.80109  97399055.47009  23018568.16209 120963420.75509
C30  24678284.50709 128506320.00809              00              00  24678286.90109  96842928.98909  24678282.34509 104421930.67009  24678278.57409 129685248.59609
C36  22365805.08709 116464628.19109              00              00  22365810.50209  87768446.75009  22365810.66209  94637136.55509  22365802.24609 117533183.72809
C39  25662044.57109 133629044.62009              00              00  25662045.94709 100703371.95909  25662039.78309 108584477.14809  25662045.73309 134855030.70009
> 2026 06 07 17 31 33.0000000  0 14
C01  38579040.76609 200891300.90709              00              00              00              00  38579036.40609 163240547.78009              00              00
C02  36986875.45709 192600340.31709              00              00              00              00  36986860.39409 156503546.53309              00              00
C03  37019509.94009 192770296.10009              00              00              00              00  37019495.80609 156641616.57409              00              00
C07  37156035.92309 193481207.11509              00              00              00              00  37156024.55809 157219306.17109              00              00
C08  37759031.17709 196621222.10009              00              00              00              00  37759028.92609 159770866.86209              00              00
C09              00              00  39336301.01209 158390933.23109              00              00              00              00              00              00
C10  37294156.43009 194200496.55009  37294143.31409 150168039.32009              00              00  37294143.79609 157803728.28209              00              00
C12  23697216.78609 123397572.71109              00              00              00              00  23697211.37209 100270627.05009              00              00
C19  22801898.62809 118735410.31609              00              00  22801894.19709  89479531.39809  22801891.67709  96482224.49709  22801899.55809 119824684.23809
C20  25635655.68809 133491656.02509              00              00  25635661.15609 100599809.62109  25635654.47309 108472772.26809  25635658.79709 134716374.37309
C22  23015454.91409 119847521.67909              00              00  23015451.96509  90317682.34909  23015445.51409  97385865.76209  23015451.37509 120947039.99809
C30  24671447.28309 128470721.63409              00              00  24671450.12409  96816101.95809  24671446.31809 104393004.12309  24671441.90409 129649323.55609
C36  22364615.36809 116458433.32009              00              00  22364619.87109  87763778.25909  22364620.88909  94632102.70009  22364613.02709 117526931.94709
C39              00              00              00              00  25656771.38709 100682676.68809  25656767.08109 108562162.16409  25656774.81809 134827316.67509
> 2026 06 07 17 31 48.0000000  0 14
C01  38579012.39009 200891153.37609              00              00              00              00  38579008.13809 163240427.95109              00              00
C02  36987072.98209 192601367.96509              00              00              00              00              00              00              00              00
C03  37019653.01709 192771040.87009              00              00              00              00  37019638.72209 156642221.76309              00              00
C07  37155719.83809 193479561.82009              00              00              00              00  37155707.18609 157217969.25009              00              00
C08  37754503.77509 196597650.92409              00              00              00              00  37754502.64909 159751713.37509              00              00
C09              00              00  39341960.93609 158413716.96609              00              00              00              00              00              00
C10  37293776.94519 194198475.64319  37293767.86809 150166527.58809              00              00  37293769.85119 157802144.16019              00              00
C12  23705961.36709 123443106.61809              00              00              00              00  23705955.48909 100307627.01509              00              00
C19  22807622.89809 118765218.86309              00              00  22807620.07509  89501995.34309  22807616.18009  96506446.50109  22807623.82809 119854766.34909
C20              00              00              00              00  25645398.00409 100638024.54909  25645393.32209 108513977.82309  25645404.75909 134767549.17909
C22  23012360.17709 119831404.02909              00              00  23012356.47909  90305536.01309  23012349.99209  97372768.83409  23012356.01409 120930774.46209
C30  24664613.27509 128435140.15809              00              00  24664616.75909  96789287.70709  24664614.50809 104364091.33209  24664608.87909 129613415.65809
C36  22363430.49109 116452266.97209              00              00  22363434.19009  87759131.27009  22363434.70809  94627092.04709  22363429.07909 117520708.98309
C39              00              00              00              00  25651500.56109 100661997.05209  25651497.79209 108539864.06009  25651506.29709 134799623.69809
> 2026 06 07 17 32  3.0000000  0 14
C01  38578982.60309 200890998.53709              00              00              00              00  38578978.42109 163240302.16209              00              00
C02  36987269.11209 192602388.32209              00              00              00              00  36987253.28019 156505173.83319              00              00
C03  37019794.61109 192771778.23409              00              00              00              00  37019780.24509 156642820.99609              00              00
C07  37155399.66009 193477897.19309              00              00              00              00  37155386.68709 157216616.67609              00              00
C08  37749979.83809 196574095.58409              00              00              00              00  37749979.19509 159732572.76909              00              00
C09              00              00  39347618.26809 158436495.06509              00              00              00              00              00              00
C10              00              00  37293388.11509 150164997.37609              00              00  37293391.86809 157800536.15009              00              00
C12  23714712.81109 123488678.90709              00              00              00              00  23714707.66509 100344658.22609              00              00
C19  22813366.28809 118795119.51309              00              00  22813363.62609  89524528.50809  22813355.72809  96530743.14809  22813364.09009 119884941.23809
C20              00              00              00              00  25655136.47909 100676241.74909  25655131.99409 108555185.93509  25655155.90209 134818727.20909
C22  23009287.00909 119815399.70709              00              00  23009282.20309  90293475.11109  23009276.27009  97359764.03009  23009282.07709 120914623.28409
C30  24657782.69809 128399574.92709              00              00  24657786.55709  96762485.70509  24657785.95009 104335191.72109  24657775.35409 129577524.24109
C36  22362250.11709 116446128.04409              00              00  22362255.60209  87754505.01209  22362250.83109  94622103.73809  22362250.17009 117514513.75209
C39              00              00              00              00  25646235.45409 100641332.17409  25646232.14809 108517581.99309  25646241.94009 134771950.75809
> 2026 06 07 17 32 18.0000000  0 14
C01  38578952.24309 200890840.93009              00              00              00              00  38578948.27609 163240174.09109              00              00
C02  36987464.61709 192603405.81809              00              00              00              00  36987449.01709 156506000.67009              00              00
C03  37019935.65209 192772512.64709              00              00              00              00  37019921.23109 156643417.77409              00              00
C07  37155076.83909 193476217.87109              00              00              00              00  37155064.38409 157215252.12409              00              00
C08  37745460.35109 196550560.61209              00              00              00              00  37745459.29709 159713448.71009              00              00
C09  39353260.93019 204922767.36819  39353273.72509 158459271.01609              00              00              00              00              00              00
C10              00              00  37293004.62809 150163452.04309              00              00  37293009.52409 157798912.38209              00              00
C12  23723472.17009 123534293.75109              00              00              00              00  23723468.25709 100381724.06909              00              00
C19  22819125.74209 118825116.08009              00              00  22819124.04509  89547134.08809  22819114.93209  96555117.72309  22819123.83009 119915213.06709
C20  25664932.04519 133644015.20119              00              00  25664874.95309 100714464.48109  25664872.25519 108596477.07119  25664903.49009 134869912.62909
C22  23006236.23109 119799513.29109              00              00  23006230.69209  90281503.03309  23006225.38509  97346855.01609  23006230.26309 120898591.09309
C30  24650955.94509 128364030.75709              00              00  24650960.46609  96735699.53109  24650960.09009 104306309.19209  24650950.08409 129541653.91009
C36  22361076.15809 116440020.90309              00              00  22361086.27109  87749902.72409  22361075.92509  94617141.25909  22361076.92609 117508350.56209
C39              00              00              00              00  25640976.18909 100620685.54609  25640971.32909 108495319.58609              00              00
> 2026 06 07 17 32 33.0000000  0 14
C01  38578926.28009 200890705.91309              00              00              00              00  38578922.43809 163240064.39309              00              00
C02  36987664.50009 192604445.95109              00              00              00              00  36987648.81109 156506845.80709              00              00
C03  37020080.99809 192773269.57209              00              00              00              00  37020066.59609 156644032.83009              00              00
C07  37154756.26809 193474549.27209              00              00              00              00  37154744.93909 157213896.31309              00              00
C08  37740949.99609 196527071.50809              00              00              00              00  37740947.85109 159694361.94109              00              00
C09  39358920.28209 204952244.07709  39358932.75509 158482064.37809              00              00              00              00              00              00
C10              00              00  37292622.24909 150161911.39809              00              00  37292626.85909 157797293.38809              00              00
C12  23732245.89609 123579976.45409              00              00              00              00  23732241.80409 100418844.95209              00              00
C19  22824909.17709 118855233.95509              00              00  22824908.73009  89569831.05209  22824900.20709  96579590.98509  22824907.60409 119945607.31209
C20              00              00              00              00              00              00  25674618.41309 108637717.72409              00              00
C22  23003212.84609 119783770.36609              00              00  23003207.37809  90269639.12609  23003202.26709  97334062.64009  23003206.07409 120882703.74509
C30  24644138.98409 128328533.29709              00              00  24644143.88009  96708948.62809  24644142.18309 104277464.68909  24644135.07109 129505830.78309
C36  22359915.51109 116433970.81909              00              00  22359927.28709  87745343.46309  22359912.31209  94612225.08009  22359915.17109 117502245.04609
C39  25635732.47119 133492015.95819              00              00  25635724.25109 100600076.20709  25635717.71109 108473097.34309  25635728.91519 134716681.70419
> 2026 06 07 17 32 48.0000000  0 14
C01  38578900.33409 200890570.89709              00              00              00              00  38578896.47409 163239954.64109              00              00
C02  36987864.36509 192605486.00009              00              00              00              00  36987848.49719 156507693.99419              00              00
C03  37020226.25509 192774026.23309              00              00              00              00  37020211.83509 156644647.71909              00              00
C07  37154432.96409 193472868.75209              00              00              00              00  37154423.61909 157212530.85409              00              00
C08  37736444.10709 196503605.67209              00              00              00              00  37736440.76509 159675294.06509              00              00
C09  39364580.11709 204981720.55009  39364591.66009 158504857.55109              00              00              00              00              00              00
C10              00              00  37292236.77909 150160357.86009              00              00  37292239.88809 157795660.76209              00              00
C12  23741027.02009 123625703.97809              00              00              00              00  23741024.42909 100456002.23309              00              00
C19  22830712.08809 118885450.19209              00              00  22830712.91009  89592602.10609  22830705.19109  96604144.11509  22830708.81809 119976100.71809
C20              00              00              00              00  25684369.68219 100790981.25319  25684366.55519 108678961.18519              00              00
C22  23000212.79809 119768148.37409              00              00  23000207.36609  90257866.35409  23000202.50509  97321368.50409  23000205.97209 120866938.39509
C30  24637327.54509 128293060.21109              00              00  24637332.42309  96682216.13209  24637329.18909 104248640.03009  24637323.93509 129470032.28709
C36  22358759.22409 116427955.41909              00              00  22358772.48309  87740810.06309  22358756.68709  94607336.81209  22358758.61709 117496174.18309
C39  25630483.83809 133464695.11209              00              00  25630473.47409 100579487.15509  25630471.06209 108450896.91009  25630486.14409 134689110.04909
