     3.04           OBSERVATION DATA    M: Mixed            RINEX VERSION / TYPE
CONVBIN EX 2.5.0                        20260617 034616 UTC PGM / RUN BY / DATE 
format: RTCM 3                                              COMMENT             
log: C:\Users\admin\Desktop\540423494727\2026-06-08\1.rtcm3 COMMENT             
0000                                                        MARKER NAME         
                                                            MARKER NUMBER       
                                                            MARKER TYPE         
                                                            OBSERVER / AGENCY   
                    NONE                                    REC # / TYPE / VERS 
NONE                NONE                                    ANT # / TYPE        
  -492860.3329  5551481.2314  3092889.6323                  APPROX POSITION XYZ 
        0.0000        0.0000        0.0000                  ANTENNA: DELTA H/E/N
C   15 C2I L2I S2I C7I L7I S7I C5P L5P S5P C6I L6I S6I C1P  SYS / # / OBS TYPES 
       L1P S1P                                              SYS / # / OBS TYPES 
  1970    01    01    00    00   00.0000000     GPS         TIME OF FIRST OBS   
  1970    01    01    00    00   00.0000000     GPS         TIME OF LAST OBS    
C L2I                                                       SYS / PHASE SHIFT   
C L7I                                                       SYS / PHASE SHIFT   
C L5P  0.00000                                              SYS / PHASE SHIFT   
C L6I                                                       SYS / PHASE SHIFT   
C L1P  0.00000                                              SYS / PHASE SHIFT   
  0                                                         GLONASS SLOT / FRQ #
 C1C    0.000 C1P    0.000 C2C    0.000 C2P    0.000        GLONASS COD/PHS/BIS 
                                                            END OF HEADER       
> 2026 06 07 17 00 18.0000000  0 13                     
C01  38582162.038   200907540.102          40.000                                                                                                    38582157.285   163253741.866          36.000                                                  
C02  36961861.077   192470049.907          41.000                                                                                                    36961844.566   156397675.422          38.000                                                  
C03  37001066.892   192674235.163          42.000                                                                                                    37001048.309   156563557.155          41.000                                                  
C07  37175104.261   193580527.609          33.000                                                                                                    37175093.968   157299992.521          29.000                                                  
C08  38355126.523   199725211.635          45.000                                                                                                    38355122.628   162293106.720          47.000                                                  
C09  38634669.126   201180806.800          33.000    38634677.613   155565788.528          38.000                                                                                                                                                  
C10                                                  37314548.809   150250203.694          38.000                                                    37314544.592   157890082.622          33.000                                                  
C12  22691289.912   118159482.595          40.000                                                                                                    22691285.302    96014238.405          44.000                                                  
C19  22249106.018   115856981.636          50.000                                                    22249105.304    87310262.607          48.000    22249097.745    94143186.733          50.000    22249100.640   116919821.082          46.000  
C20  24451758.438   127326786.261          48.000                                                    24451761.154    95953940.683          43.000    24451753.131   103463312.621          45.000    24451753.256   128494946.068          44.000  
C22  23574002.064   122756002.764          30.000                                                                                                    23573995.649    99749284.740          28.000    23574002.510   123882211.391          30.000  
C36  22570957.356   117532851.185          39.000                                                    22570962.503    88573487.177          41.000    22570982.159    95505137.055          30.000    22570953.407   118611070.361          39.000  
C39  26358757.259   137256812.472          39.000                                                    26358767.104   103437434.452          31.000    26358765.389   111532563.461          31.000    26358757.688   138516269.455          34.000  
> 2026 06 07 17 00 33.0000000  0 13                     
C01  38582143.365   200907443.180          40.000                                                                                                    38582138.683   163253663.123          35.000                                                  
C02  36962066.231   192471118.371          41.000                                                                                                    36962049.827   156398543.667          38.000                                                  
C03  37001221.138   192675039.673          42.000                                                                                                    37001202.876   156564210.881          42.000                                                  
C07  37175127.455   193580652.579          32.000                                                                                                                                                                                                  
C08  38350156.844   199699334.625          46.000                                                                                                    38350153.128   162272079.603          47.000                                                  
C09  38640199.392   201209577.223          33.000    38640201.518   155588035.552          37.000                                                                                                                                                  
C10  37314599.557   194306910.883          29.000    37314601.540   150250418.126          38.000                                                    37314597.859   157890307.944          33.000                                                  
C12  22698517.682   118197114.978          44.000                                                                                                    22698512.500    96044817.749          44.000                                                  
C19  22252162.390   115872896.664          51.000                                                    22252162.729    87322256.241          48.000    22252153.973    94156118.978          49.000    22252156.815   116935882.119          46.000  
C20  24460829.540   127374023.863          46.000                                                    24460832.203    95989539.127          43.000    24460824.412   103501697.065          45.000    24460825.734   128542617.072          43.000  
C22                                                                                                                                                                                                  23568279.795   123852139.921          28.000  
C36  22568800.869   117521624.054          39.000                                                    22568805.086    88565026.424          41.000    22568800.154    95495978.4821         34.000    22568796.545   118599740.264          37.000  
C39  26352785.592   137225715.495          40.000                                                    26352792.347   103413999.532          29.000    26352787.933   111507294.598          34.000    26352784.359   138484887.149          33.000  
> 2026 06 07 17 00 48.0000000  0 13                     
C01  38582125.978   200907352.833          40.000                                                                                                    38582121.332   163253589.754          35.000                                                  
C02  36962272.690   192472193.630          40.000                                                                                                    36962256.429   156399417.396          38.000                                                  
C03  37001376.688   192675850.828          41.000                                                                                                    37001358.694   156564870.011          42.000                                                  
C07  37175149.487   193580769.085          32.000                                                                                                                                                                                                  
C08  38345191.722   199673478.658          46.000                                                                                                    38345188.130   162251069.581          47.000                                                  
C09  38645734.536   201238365.921          31.000    38645728.979   155610296.685          37.000                                                                                                                                                  
C10  37314652.682   194307176.898          31.000    37314652.056   150250623.841          38.000                                                    37314648.429   157890524.161          33.000                                                  
C12  22705762.141   118234834.295          43.000                                                                                                    22705756.137    96075467.699          44.000                                                  
C19  22255243.224   115888939.442          51.000                                                    22255243.653    87334346.144          47.000    22255234.718    94169155.030          49.000    22255236.987   116952072.049          45.000  
C20  24469911.221   127421313.685          48.000                                                    24469913.151    96025176.918          42.000    24469904.681   103540123.918          44.000    24469905.718   128590340.716          43.000  
C22                                                                                                                                                                                                  23562567.640   123822145.1131         26.000  
C36  22566655.443   117510450.544          36.000                                                    22566659.052    88556606.081          42.000    22566657.444    95486899.134          40.000    22566650.886   118588464.312          36.000  
C39  26346821.234   137194656.725          37.000                                                    26346812.496   103390593.866          27.000    26346818.410   111482056.766          36.000    26346818.929   138453543.557          33.000  
> 2026 06 07 17 01 03.0000000  0 12                     
C01  38582106.179   200907249.898          40.000                                                                                                    38582101.462   163253506.136          35.000                                                  
C02  36962476.754   192473256.482          41.000                                                                                                    36962460.922   156400281.050          38.000                                                  
C03  37001529.736   192676649.334          42.000                                                                                                    37001512.010   156565518.903          41.000                                                  
C07  37175166.606   193580857.696          31.000                                                                                                                                                                                                  
C08  38340226.975   199647624.626          46.000                                                                                                    38340223.776   162230061.109          47.000                                                  
C09  38651269.126   201267153.610          31.000    38651256.082   155632557.029          37.000                                                                                                                                                  
C10  37314698.426   194307412.489          32.000    37314696.818   150250805.941          37.000                                                    37314692.994   157890715.562          32.000                                                  
C12  22713016.982   118272621.031          37.000                                                                                                    22713012.622    96106172.463          43.000                                                  
C19  22258344.982   115905090.662          51.000                                                    22258344.536    87346517.760          45.000    22258336.816    94182279.191          49.000    22258337.853   116968371.449          47.000  
C20  24478999.192   127468636.238          47.000                                                    24478998.513    96060839.317          41.000    24478990.883   103578577.318          44.000    24478994.117   128638097.412          45.000  
C36                                                                                                  22564519.380    88548211.650          42.000    22564518.736    95477847.681          43.000    22564511.785   118577223.094          36.000  
C39  26340859.181   137163617.031          35.000                                                    26340851.140   103367202.244          31.000    26340855.035   111456834.420          37.000    26340856.232   138422218.919          34.000  
> 2026 06 07 17 01 18.0000000  0 12                     
C01  38582082.807   200907128.408          39.000                                                                                                    38582078.125   163253407.378          36.000                                                  
C02  36962677.280   192474300.927          41.000                                                                                                    36962661.752   156401129.793          38.000                                                  
C03  37001679.228   192677429.312          41.000                                                                                                    37001661.734   156566152.703          41.000                                                  
C07  37175177.131   193580912.601          30.000                                                                                                    37175174.826   157300320.3271         29.000                                                  
C08  38335261.334   199621766.589          46.000                                                                                                    38335258.707   162209049.386          48.000                                                  
C09  38656802.269   201295934.170          31.000    38656782.041   155654811.963          38.000                                                                                                                                                  
C10  37314737.041   194307611.665          32.000    37314734.736   150250959.954          37.000                                                    37314730.555   157890877.344          32.000                                                  
C12  22720284.600   118310468.883          42.000                                                                                                    22720281.562    96136927.009          44.000                                                  
C19  22261466.325   115921344.230          50.000                                                    22261464.753    87358766.513          45.000    22261458.284    94195486.525          48.000    22261459.767   116984774.164          47.000  
C20  24488091.719   127515985.227          46.000                                                    24488089.503    96096521.713          41.000    24488084.589   103617052.225          44.000    24488086.358   128685880.802          45.000  
C36  22562382.870   117488191.7901         38.000                                                    22562384.764    88539838.536          43.000    22562384.425    95468819.190          45.000    22562379.832   118566010.347          38.000  
C39  26334900.004   137132590.276          36.000                                                    26334898.611   103343820.369          34.000    26334895.627   111431622.635          37.000    26334896.198   138390907.415          33.000  
> 2026 06 07 17 01 33.0000000  0 12                     
C01  38582064.205   200907031.862          40.000                                                                                                    38582059.845   163253328.959          36.000                                                  
C02  36962882.577   192475370.490          41.000                                                                                                    36962867.424   156401998.938          38.000                                                  
C03  37001833.491   192678234.195          41.000                                                                                                    37001816.355   156566806.758          41.000                                                  
C07                                                                                                                                                  37175186.959   157300382.0981         29.000                                                  
C08  38330303.216   199595948.136          46.000                                                                                                    38330300.893   162188069.818          48.000                                                  
C09  38662300.800   201324741.9921         30.000    38662315.024   155677095.061          38.000                                                                                                                                                  
C10  37314776.889   194307817.916          31.000    37314774.137   150251119.481          37.000                                                    37314769.867   157891044.992          31.000                                                  
C12  22727574.357   118348421.427          46.000                                                                                                    22727571.480    96167766.484          45.000                                                  
C19  22264615.580   115937743.539          50.000                                                    22264614.115    87371125.101          45.000    22264609.522    94208812.309          49.000    22264609.504   117001323.952          46.000  
C20  24497197.720   127563403.882          46.000                                                    24497196.790    96132256.568          41.000    24497193.502   103655583.745          44.000    24497192.949   128733734.557          46.000  
C36  22560263.854   117477152.616          37.000                                                    22560265.641    88531519.418          45.000    22560264.086    95459848.962          46.000    22560260.459   118554869.907          38.000  
C39  26328952.121   137101620.025          32.000                                                    26328952.854   103320481.056          36.000    26328944.831   111406456.762          36.000    26328948.816   138359652.913          32.000  
> 2026 06 07 17 01 48.0000000  0 12                     
C01  38582040.725   200906909.593          40.000                                                                                                    38582036.133   163253229.646          36.000                                                  
C02  36963082.996   192476414.528          40.000                                                                                                    36963068.326   156402847.316          39.000                                                  
C03  37001982.841   192679013.411          41.000                                                                                                    37001965.990   156567439.948          41.000                                                  
C08  38325342.918   199570118.724          46.000                                                                                                    38325340.399   162167081.371          48.000                                                  
C09  38667835.212   201353544.662          30.000    38667845.558   155699367.092          38.000                                                                                                                                                  
C10  37314807.588   194307980.609          30.000    37314805.301   150251245.216          38.000                                                    37314801.012   157891177.195          31.000                                                  
C12  22734873.621   118386427.589          46.000                                                                                                    22734869.761    96198649.536          45.000                                                  
C19  22267783.043   115954237.885          50.000                                                    22267781.721    87383555.270          46.000    22267776.002    94222215.291          48.000    22267777.629   117017969.602          45.000  
C20  24506307.723   127610841.332          48.000                                                    24506309.867    96168005.598          42.000    24506304.435   103694130.570          44.000    24506302.737   128781607.237          46.000  
C22                                                                                                                                                  23539926.927    99605135.2681         28.000                                                  
C36  22558146.661   117466134.517          32.000                                                    22558150.663    88523216.101          45.000    22558146.875    95450895.797          46.000    22558143.605   118543750.660          36.000  
C39  26323005.114   137070655.581          34.000                                                    26323004.471   103297146.160          37.000    26322996.680   111381295.641          34.000    26323004.274   138328404.368          31.000  
> 2026 06 07 17 02 03.0000000  0 12                     
C01  38582013.171   200906766.170          40.000                                                                                                    38582008.632   163253113.044          36.000                                                  
C02  36963279.430   192477437.543          41.000                                                                                                    36963265.099   156403678.640          38.000                                                  
C03  37002128.152   192679771.415          41.000                                                                                                    37002111.623   156568055.919          41.000                                                  
C08  38320381.548   199544282.929          46.000                                                                                                    38320378.529   162146087.728          48.000                                                  
C09  38673365.495   201382337.231          34.000    38673374.216   155721631.371          38.000                                                                                                                                                  
C10  37314830.568   194308104.253          29.000    37314828.977   150251340.880          38.000                                                    37314824.993   157891277.633          31.000                                                  
C12  22742183.588   118424491.593          45.000                                                                                                    22742178.370    96229579.626          45.000                                                  
C19  22270969.644   115970831.601          50.000                                                    22270969.268    87396060.377          47.000    22270961.638    94235699.051          48.000    22270963.425   117034715.545          42.000  
C20  24515422.568   127658301.826          50.000                                                    24515426.106    96203771.984          43.000    24515418.369   103732696.091          45.000    24515417.190   128829503.160          46.000  
C22  23534315.821   122549440.6261         30.000                                                                                                    23534308.835    99581365.0221         30.000                                                  
C36  22556033.720   117455141.785          35.000                                                    22556040.010    88514931.900          46.000    22556035.060    95441963.238          46.000    22556030.933   118532657.036          33.000  
C39  26317060.251   137039701.448          30.000                                                    26317059.125   103273819.112          38.000    26317053.318   111356142.761          31.000    26317059.572   138297166.317          29.000  
> 2026 06 07 17 02 18.0000000  0 12                     
C01  38581987.422   200906631.970          39.000                                                                                                    38581982.651   163253004.093          35.000                                                  
C02  36963477.562   192478469.968          40.000                                                                                                    36963463.660   156404517.593          38.000                                                  
C03  37002275.232   192680538.653          40.000                                                                                                    37002258.881   156568679.380          41.000                                                  
C08  38315424.664   199518471.233          46.000                                                                                                    38315421.304   162125113.658          48.000                                                  
C09  38678900.193   201411150.346          36.000    38678906.787   155743911.515          38.000                                                                                                                                                  
C10  37314851.135   194308220.2331         29.000    37314851.063   150251429.834          39.000                                                    37314847.972   157891371.065          32.000                                                  
C12  22749510.817   118462643.668          46.000                                                                                                    22749505.009    96260581.262          45.000                                                  
C19  22274181.493   115987555.042          50.000                                                    22274182.458    87408663.223          46.000    22274175.346    94249288.207          49.000    22274174.649   117051592.318          42.000  
C20  24524547.564   127705815.472          50.000                                                    24524550.369    96239578.440          43.000    24524542.435   103771304.768          44.000    24524542.203   128877452.696          46.000  
C22  23528717.206   122520289.541          30.000                                                                                                    23528712.668    99557677.446          31.000                                                  
C36  22553931.751   117444204.690          39.000                                                    22553940.364    88506689.651          46.000    22553934.378    95433075.943          45.000    22553929.750   118521619.663          38.000  
C39  26311123.518   137008858.9931         33.000                                                    26311121.356   103250522.683          39.000    26311131.452   111331022.748          30.000    26311124.376   138265969.315          31.000  
> 2026 06 07 17 02 33.0000000  0 12                     
C01  38581963.191   200906505.747          39.000                                                                                                    38581958.510   163252901.495          35.000                                                  
C02  36963677.284   192479510.546          41.000                                                                                                    36963663.811   156405363.141          38.000                                                  
C03  37002423.741   192681313.848          40.000                                                                                                    37002407.873   156569309.306          41.000                                                  
C08  38310471.889   199492682.483          46.000                                                                                                    38310468.958   162104158.226          48.000                                                  
C09  38684438.071   201439982.457          36.000    38684442.932   155766206.327          37.000                                                    38684439.394   163686533.087          29.000                                                  
C10  37314873.257   194308325.386          32.000    37314871.345   150251511.141          39.000                                                    37314868.950   157891456.535          32.000                                                  
C12  22756854.360   118500882.295          44.000                                                                                                    22756848.945    96291653.194          45.000                                                  
C19  22277418.109   116004406.811          49.000                                                    22277418.252    87421362.776          45.000    22277411.569    94262981.677          48.000    22277411.391   117068598.664          46.000  
C20  24533682.083   127753380.712          50.000                                                    24533683.852    96275423.762          44.000    24533676.043   103809955.387          45.000    24533676.472   128925454.321          45.000  
C22  23523138.926   122491244.979          28.000                                                                                                    23523135.031    99534076.356          31.000                                                  
C36  22551841.933   117433321.925          41.000                                                    22551851.154    88498488.357          45.000    22551844.524    95424232.821          44.000    22551841.576   118510637.015          40.000  
C39  26305196.667   136977984.952          33.000                                                    26305192.057   103227255.987          40.000    26305202.135   111305935.041          35.000    26305196.453   138234812.117          28.000  
> 2026 06 07 17 02 48.0000000  0 12                     
C01  38581941.713   200906394.074          39.000                                                                                                    38581936.924   163252810.745          36.000                                                  
C02  36963879.830   192480565.785          40.000                                                                                                    36963867.089   156406220.661          37.000                                                  
C03  37002575.127   192682103.616          40.000                                                                                                    37002559.581   156569951.055          41.000                                                  
C08  38305524.725   199466923.281          46.000                                                                                                    38305522.598   162083226.815          48.000                                                  
C09  38689980.792   201468840.136          36.000    38689983.758   155788520.900          36.000                                                                                                                                                  
C10  37314893.234   194308427.243          35.000    37314891.072   150251589.923          40.000                                                    37314889.553   157891539.292          32.000                                                  
C12  22764214.217   118539213.669          39.000                                                                                                    22764211.733    96322800.545          45.000                                                  
C19  22280680.171   116021393.327          47.000                                                    22280678.724    87434163.859          44.000    22280670.826    94276784.633          45.000    22280674.775   117085741.058          46.000  
C20  24542827.324   127801003.891          49.000                                                    24542829.200    96311312.721          44.000    24542821.213   103848653.066          44.000    24542822.017   128973514.348          43.000  
C22  23517582.714   122462229.8761         28.000                                                                                                    23517576.693    99510567.474          31.000                                                  
C36  22549764.427   117422499.923          42.000                                                    22549772.986    88490332.902          44.000    22549766.411    95415439.089          43.000    22549763.837   118499715.743          38.000  
C39  26299276.624   136947156.981          34.000                                                    26299272.943   103204023.985          40.000    26299278.786   111280884.766          37.000                                                  
> 2026 06 07 17 03 03.0000000  0 13                     
C01  38581920.109   200906281.482          39.000                                                                                                    38581915.320   163252719.297          35.000                                                  
C02  36964082.286   192481620.283          40.000                                                                                                    36964069.491   156407077.543          37.000                                                  
C03  37002726.281   192682892.416          40.000                                                                                                    37002711.128   156570592.052          41.000                                                  
C08  38300580.473   199441178.255          46.000                                                                                                    38300579.044   162062306.922          48.000                                                  
C09  38695525.371   201497707.734          36.000    38695526.604   155810843.137          36.000                                                    38695522.298   163733418.701          29.000                                                  
C10  37314909.906   194308510.309          37.000    37314907.190   150251654.180          40.000                                                    37314906.350   157891606.861          33.000                                                  
C12  22771589.263   118577622.166          40.000                                                                                                    22771588.030    96354010.618          45.000                                                  
C19  22283964.408   116038498.997          47.000                                                    22283963.675    87447054.777          44.000    22283951.650    94290684.391          42.000    22283960.405   117103003.740          44.000  
C20  24551980.499   127848669.165          47.000                                                    24551983.215    96347233.460          44.000    24551975.728   103887384.982          45.000    24551975.227   129021616.900          43.000  
C22  23512046.873   122433398.1141         28.000                                                                                                    23512039.064    99487138.443          32.000                                                  
C27  25387805.638   132200982.306          28.000                                                                                                                                                                                                  
C36  22547695.802   117411723.172          43.000                                                    22547702.735    88482211.556          43.000    22547697.178    95406682.113          42.000    22547693.300   118488840.181          38.000  
C39  26293362.388   136916359.434          32.000                                                    26293358.064   103180814.888          39.000    26293361.727   111255859.315          37.000                                                  
> 2026 06 07 17 03 18.0000000  0 13                     
C01  38581899.685   200906175.081          39.000                                                                                                    38581894.789   163252632.826          35.000                                                  
C02  36964285.903   192482681.113          40.000                                                                                                    36964273.377   156407939.583          38.000                                                  
C03  37002878.615   192683687.357          39.000                                                                                                    37002863.784   156571238.062          41.000                                                  
C08  38295640.600   199415454.584          47.000                                                                                                    38295639.224   162041404.403          48.000                                                  
C09  38701073.417   201526592.354          36.000    38701073.042   155833178.589          38.000                                                    38701068.503   163756890.811          28.000                                                  
C10  37314924.541   194308581.730          37.000    37314921.110   150251709.389          41.000                                                    37314919.859   157891664.833          34.000                                                  
C12  22778980.624   118616114.644          37.000                                                                                                    22778978.408    96385288.898          44.000                                                  
C19  22287273.698   116055730.958          48.000                                                    22287273.840    87460040.844          44.000    22287262.958    94304686.690          42.000    22287269.659   117120393.742          42.000  
C20  24561143.734   127896383.429          48.000                                                    24561146.539    96383191.125          45.000    24561139.266   103926156.739          45.000    24561139.338   129069768.960          42.000  
C22                                                                                                                                                  23506523.415    99463795.233          32.000    23506535.584   123527681.098          28.000  
C27  25384261.961   132182483.171          31.000                                                                                                                                                    25384259.352   133395164.962          29.000  
C36  22545636.594   117400998.691          42.000                                                    22545644.474    88474129.614          45.000    22545639.381    95397967.593          42.000    22545633.627   118478017.263          38.000  
C39  26287454.425   136885599.598          32.000                                                    26287449.314   103157634.142          38.000    26287449.475   111230864.372          36.000                                                  
> 2026 06 07 17 03 33.0000000  0 14                     
C01  38581878.617   200906065.516          39.000                                                                                                    38581873.829   163252543.842          35.000                                                  
C02  36964488.985   192483738.952          40.000                                                                                                    36964476.834   156408799.178          38.000                                                  
C03  37003030.359   192684479.132          40.000                                                                                                    37003015.813   156571881.467          41.000                                                  
C07                                                                                                                                                  37175137.068   157300171.350          29.000                                                  
C08  38290703.353   199389742.980          48.000                                                                                                    38290701.351   162020511.682          48.000                                                  
C09  38706622.624   201555484.560          34.000    38706620.944   155855519.912          38.000                                                                                                                                                  
C10  37314935.030   194308632.133          37.000    37314931.009   150251748.352          41.000                                                    37314929.312   157891705.801          34.000                                                  
C12  22786385.565   118654681.513          37.000                                                                                                    22786383.528    96416627.600          43.000                                                  
C19  22290605.341   116073079.590          46.000                                                    22290604.251    87473114.844          43.000    22290600.052    94318783.875          45.000    22290601.088   117137901.509          39.000  
C20  24570315.081   127944137.134          49.000                                                    24570317.083    96419178.441          45.000    24570309.363   103964960.494          45.000    24570310.114   129117960.740          40.000  
C22                                                                                                                                                  23501027.208    99440530.332          33.000    23501035.052   123498787.645          30.000  
C27  25380728.808   132164068.559          30.000                                                                                                                                                                                                  
C36  22543585.176   117390316.904          42.000                                                    22543594.772    88466079.880          46.000    22543587.267    95389287.852          41.000    22543582.835   118467237.494          40.000  
C39  26281553.091   136854867.852          33.000                                                    26281545.925   103134474.718          36.000    26281544.317   111205892.371          34.000                                                  
> 2026 06 07 17 03 48.0000000  0 13                     
C01  38581862.642   200905982.473          39.000                                                                                                    38581857.818   163252476.375          36.000                                                  
C02  36964697.194   192484823.446          40.000                                                                                                    36964685.258   156409680.449          38.000                                                  
C03  37003187.141   192685297.408          40.000                                                                                                    37003172.989   156572546.388          41.000                                                  
C07                                                                                                                                                  37175127.080   157300127.9401         32.000                                                  
C08  38285774.308   199364073.166          48.000                                                                                                    38285771.252   161999652.922          47.000                                                  
C09  38712178.211   201584413.881          32.000    38712175.798   155877889.817          37.000                                                                                                                                                  
C10  37314946.824   194308691.225          36.000    37314942.642   150251794.050          41.000                                                    37314940.105   157891753.844          34.000                                                  
C12  22793810.841   118693352.119          37.000                                                                                                    22793809.447    96448050.633          42.000                                                  
C19  22293965.039   116090574.477          44.000                                                    22293963.074    87486299.058          43.000    22293961.108    94332999.951          47.000    22293960.572   117155556.865          41.000  
C20  24579498.955   127991959.596          47.000                                                    24579500.903    96455217.623          45.000    24579492.272   104003820.133          45.000    24579491.772   129166221.850          41.000  
C22                                                                                                                                                  23495555.373    99417368.173          32.000    23495561.199   123470021.702          30.000  
C36  22541548.090   117379707.466          42.000                                                    22541556.595    88458084.688          46.000    22541546.642    95380666.942          39.000    22541545.874   118456530.777          42.000  
C39  26275663.193   136824193.876          34.000                                                    26275655.366   103111358.855          35.000    26275651.560   111180967.405          33.000                                                  
> 2026 06 07 17 04 03.0000000  0 13                     
C01  38581839.895   200905864.025          39.000                                                                                                    38581835.053   163252380.181          36.000                                                  
C02  36964898.596   192485872.701          41.000                                                                                                    36964886.856   156410533.078          38.000                                                  
C03  37003337.223   192686080.264          39.000                                                                                                    37003323.393   156573182.535          41.000                                                  
C07                                                                                                                                                  37175107.513   157300040.611          34.000                                                  
C08  38280841.332   199338383.370          47.000                                                                                                    38280837.365   161978777.922          46.000                                                  
C09  38717729.223   201613318.169          32.000    38717725.988   155900240.448          34.000                                                                                                                                                  
C10  37314947.914   194308697.090          34.000    37314944.125   150251798.570          42.000                                                    37314940.712   157891758.605          35.000                                                  
C12  22801245.980   118732064.405          40.000                                                                                                    22801244.783    96479507.493          43.000                                                  
C19  22297340.801   116108153.585          44.000                                                    22297339.068    87499546.791          44.000    22297335.601    94347284.487          46.000    22297337.656   117173297.299          43.000  
C20  24588683.525   128039788.636          45.000                                                    24588685.813    96491261.746          45.000    24588676.485   104042685.129          44.000    24588677.325   129214489.679          42.000  
C22                                                                                                                                                  23490095.100    99394258.465          31.000    23490099.603   123441321.080          29.000  
C36  22539513.147   117369108.560          39.000                                                    22539518.919    88450097.370          44.000    22539511.611    95372054.420          38.000    22539510.610   118445834.584          43.000  
C39  26269772.151   136793515.918          31.000                                                    26269765.343   103088239.888          36.000    26269762.073   111156039.105          33.000    26269793.880   138048629.8801         32.000  
> 2026 06 07 17 04 18.0000000  0 13                     
C01  38581814.664   200905732.663          40.000                                                                                                    38581809.911   163252273.467          36.000                                                  
C02  36965097.550   192486909.127          40.000                                                                                                    36965085.828   156411375.316          38.000                                                  
C03  37003484.696   192686850.140          40.000                                                                                                    37003471.312   156573808.155          41.000                                                  
C07  37175095.809   193580504.6201         30.000                                                                                                    37175082.282   157299930.531          35.000                                                  
C08  38275908.391   199312696.122          46.000                                                                                                    38275904.121   161957904.940          46.000                                                  
C09  38723280.842   201642220.008          34.000    38723275.714   155922589.157          32.000                                                                                                                                                  
C10  37314942.624   194308672.167          32.000    37314939.640   150251779.303          42.000                                                    37314935.352   157891738.332          35.000                                                  
C12  22808694.843   118770840.563          41.000                                                                                                    22808695.344    96511016.232          44.000                                                  
C19  22300736.916   116125839.271          43.000                                                    22300735.237    87512874.802          45.000    22300728.982    94361655.572          45.000    22300734.361   117191145.230          42.000  
C20  24597873.028   128087646.294          43.000                                                    24597875.798    96527327.513          45.000    24597866.399   104081573.444          44.000    24597867.506   129262786.469          42.000  
C22  23484660.648   122290781.916          33.000                                                                                                    23484652.124    99371219.790          30.000    23484653.554   123412708.429          29.000  
C36  22537483.048   117358542.425          40.000                                                    22537489.338    88442134.677          43.000    22537482.923    95363468.451          35.000    22537481.976   118435171.417          43.000  
C39                                                                                                  26263877.911   103065134.787          37.000    26263874.033   111131125.686          33.000    26263905.197   138017688.918          30.000  
> 2026 06 07 17 04 33.0000000  0 14                     
C01  38581793.382   200905622.008          40.000                                                                                                    38581788.700   163252183.496          36.000                                                  
C02  36965300.506   192487966.488          40.000                                                                                                    36965289.249   156412234.511          38.000                                                  
C03  37003636.226   192687640.737          39.000                                                                                                    37003623.163   156574450.578          41.000                                                  
C07  37175070.917   193580375.047          29.000                                                                                                    37175058.034   157299825.197          36.000                                                  
C08  38270981.866   199287045.176          46.000                                                                                                    38270977.685   161937061.479          45.000                                                  
C09  38728839.484   201671152.990          36.000    38728831.765   155944961.890          32.000                                                                                                                                                  
C10  37314937.514   194308650.155          29.000    37314935.691   150251762.250          43.000                                                    37314930.813   157891720.436          35.000                                                  
C12                                                                                                                                                  22816161.700    96542604.004          44.000                                                  
C19  22304159.871   116143665.071          44.000                                                    22304160.121    87526308.446          47.000    22304153.188    94376140.500          45.000    22304157.673   117209134.596          43.000  
C20  24607075.557   128135566.225          46.000                                                    24607078.094    96563440.161          45.000    24607069.053   104120512.311          44.000    24607069.589   129311146.017          45.000  
C22  23479238.829   122262550.771          34.000                                                    23479223.015    92137512.609          29.000                                                    23479231.931   123384218.365          29.000  
C27  25366726.553   132091198.2901         30.000                                                                                                                                                                                                  
C36  22535466.385   117348042.520          44.000                                                    22535472.461    88434221.937          41.000    22535466.743    95354936.326          30.000    22535464.599   118424575.203          40.000  
C39  26258027.110   136732462.9051         33.000                                                    26258001.969   103042068.784          39.000    26257993.713   111106254.476          33.000    26258022.822   137986842.4341         27.000  
> 2026 06 07 17 04 48.0000000  0 14                     
C01  38581772.047   200905511.004          40.000                                                                                                    38581767.222   163252093.398          36.000                                                  
C02  36965503.463   192489023.629          40.000                                                                                                    36965492.152   156413093.520          38.000                                                  
C03  37003787.684   192688430.971          39.000                                                                                                    37003775.050   156575092.745          41.000                                                  
C07                                                                                                                                                  37175030.426   157299707.508          37.000                                                  
C08  38266058.146   199261409.471          46.000                                                                                                    38266053.983   161916230.406          45.000                                                  
C09  38734400.056   201700095.803          37.000    38734390.853   155967342.240          35.000                                                                                                                                                  
C10                                                  37314928.204   150251731.143          43.000                                                    37314922.647   157891687.775          36.000                                                  
C12  22823649.018   118848752.7181         41.000                                                                                                    22823638.082    96574253.412          43.000                                                  
C19  22307605.912   116161609.822          45.000                                                    22307606.912    87539831.708          48.000    22307601.498    94390722.087          46.000    22307603.910   117227243.937          44.000  
C20  24616285.912   128183526.934          45.000                                                    24616289.200    96599583.564          45.000    24616280.570   104159484.335          45.000    24616281.606   129359546.795          46.000  
C22  23473835.844   122234420.006          34.000                                                    23473820.923    92116313.161          30.000                                                    23473830.501   123355829.455          29.000  
C27  25363259.265   132073145.244          31.000                                                                                                                                                                                                  
C36  22533458.747   117337587.726          46.000                                                    22533463.518    88426343.270          40.000    22533468.861    95346476.7161         30.000    22533455.781   118414024.570          41.000  
C39  26252151.079   136701886.058          33.000                                                    26252130.511   103019026.034          37.000    26252121.845   111081408.370          34.000    26252143.002   137955985.215          30.000  
> 2026 06 07 17 05 03.0000000  0 14                     
C01  38581742.455   200905357.032          39.000                                                                                                    38581737.506   163251968.280          35.000                                                  
C02  36965698.235   192490037.892          40.000                                                                                                    36965686.781   156413917.753          38.000                                                  
C03  37003930.939   192689178.242          39.000                                                                                                    37003918.681   156575699.954          41.000                                                  
C07                                                                                                                                                  37174991.418   157299542.783          36.000                                                  
C08  38261129.530   199235746.418          46.000                                                                                                    38261124.741   161895377.145          44.000                                                  
C09  38739953.623   201729005.845          37.000    38739944.367   155989697.316          37.000                                                                                                                                                  
C10                                                  37314908.977   150251653.037          42.000                                                    37314903.062   157891605.644          36.000                                                  
C12  22831134.065   118887735.020          46.000                                                                                                    22831120.235    96605929.590          42.000                                                  
C19  22311066.534   116179630.661          45.000                                                    22311067.213    87553412.349          48.000    22311062.549    94405365.578          45.000    22311064.818   117245430.178          44.000  
C20  24625496.500   128231485.501          47.000                                                    24625499.985    96635725.321          45.000    24625491.694   104198454.591          45.000    24625491.158   129407945.354          46.000  
C22  23468443.527   122206347.224          33.000                                                    23468430.607    92095157.454          31.000    23468436.004    99302644.4821         31.000    23468440.382   123327499.060          28.000  
C27  25359800.662   132055122.454          29.000                                                                                                                                                                                                  
C36  22531451.663   117327135.313          46.000                                                    22531456.148    88418466.365          40.000    22531463.170    95337983.147          37.000    22531448.321   118403476.281          42.000  
C39  26246272.152   136671297.729          29.000                                                    26246254.319   102995974.508          36.000    26246246.814   111056552.795          34.000    26246269.240   137925116.223          27.000  
> 2026 06 07 17 05 18.0000000  0 13                     
C01  38581716.313   200905220.919          39.000                                                                                                    38581711.614   163251857.722          36.000                                                  
C02  36965896.528   192491070.206          40.000                                                                                                    36965885.020   156414756.635          38.000                                                  
C03  37004077.644   192689943.373          38.000                                                                                                    37004065.547   156576321.695          41.000                                                  
C07                                                                                                                                                  37174953.750   157299380.520          36.000                                                  
C08  38256207.561   199210116.999          46.000                                                                                                    38256201.915   161874551.201          44.000                                                  
C09  38745511.640   201757943.811          36.000    38745503.938   156012073.989          38.000                                                                                                                                                  
C10                                                  37314889.571   150251574.948          41.000                                                    37314883.764   157891523.598          36.000                                                  
C12  22838637.304   118926810.833          47.000                                                                                                    22838626.064    96637681.823          43.000                                                  
C19  22314553.709   116197788.445          46.000                                                    22314554.299    87567096.155          47.000    22314546.455    94420120.295          43.000    22314551.351   117263754.503          45.000  
C20  24634718.274   128279502.595          48.000                                                    24634720.865    96671911.158          44.000    24634712.574   104237472.357          45.000    24634714.021   129456402.972          47.000  
C22  23463074.064   122178393.533          32.000                                                    23463062.699    92074091.484          31.000    23463066.505    99279929.837          35.000    23463073.117   123299288.899          28.000  
C36  22529456.461   117316746.101          45.000                                                    22529463.377    88410637.011          42.000    22529469.488    95329540.964          40.000    22529453.334   118392991.723          42.000  
C39  26240393.136   136640553.0771         32.000                                                    26240386.847   102972959.971          36.000    26240382.165   111031737.054          36.000    26240403.608   137894296.697          33.000  
> 2026 06 07 17 05 33.0000000  0 13                     
C01  38581697.015   200905120.644          39.000                                                                                                    38581692.583   163251776.218          35.000                                                  
C02  36966101.628   192492138.530          40.000                                                                                                    36966090.406   156415624.724          38.000                                                  
C03  37004231.282   192690744.240          38.000                                                                                                    37004219.328   156576972.543          41.000                                                  
C07                                                                                                                                                  37174921.568   157299235.347          36.000                                                  
C08  38251295.599   199184539.251          46.000                                                                                                    38251289.238   161853767.257          44.000                                                  
C09  38751076.661   201786927.528          35.000    38751072.426   156034486.064          36.000                                                                                                                                                  
C10                                                  37314873.453   150251510.824          41.000                                                    37314868.003   157891456.225          36.000                                                  
C12  22846161.646   118965997.990          47.000                                                                                                    22846155.284    96669524.522          44.000                                                  
C19  22318070.530   116216100.901          47.000                                                    22318070.387    87580896.508          47.000    22318059.594    94435000.666          41.000    22318068.082   117282235.005          46.000  
C20  24643953.807   128327595.835          47.000                                                    24643955.040    96708154.346          44.000    24643946.606   104276552.028          44.000    24643951.091   129504937.431          47.000  
C22  23457730.797   122150577.258          29.000                                                    23457720.147    92053128.963          30.000    23457723.560    99257326.735          37.000    23457731.333   123271217.173          28.000  
C36  22527477.395   117306437.865          45.000                                                    22527485.151    88402868.716          43.000    22527490.851    95321164.611          38.000    22527473.589   118382588.942          40.000  
C39  26234543.247   136610080.544          29.000                                                    26234535.099   102949995.921          37.000    26234531.704   111006975.764          37.000    26234551.949   137863544.664          32.000  
> 2026 06 07 17 05 48.0000000  0 13                     
C01  38581674.911   200905005.941          39.000                                                                                                    38581670.390   163251683.031          35.000                                                  
C02  36966303.995   192493192.562          40.000                                                                                                    36966293.113   156416481.205          38.000                                                  
C03  37004382.025   192691530.705          38.000                                                                                                    37004370.339   156577611.637          41.000                                                  
C07                                                                                                                                                  37174884.597   157299066.385          36.000                                                  
C08  38246383.994   199158962.969          46.000                                                                                                    38246377.419   161832984.454          44.000                                                  
C09  38756639.788   201815906.819          34.000    38756637.787   156056894.632          33.000                                                    38756632.784   163991995.0901         29.000                                                  
C10                                                  37314851.135   150251421.730          41.000                                                    37314846.114   157891362.628          37.000                                                  
C12  22853697.727   119005245.890          48.000                                                                                                    22853692.295    96701416.635          45.000                                                  
C19  22321607.774   116234517.712          47.000                                                    22321606.506    87594775.483          46.000    22321597.500    94449965.821          41.000    22321604.415   117300820.794          45.000  
C20  24653193.772   128375714.611          47.000                                                    24653194.076    96744416.840          43.000    24653186.749   104315652.442          43.000    24653191.056   129553497.702          45.000  
C22  23452404.345   122122848.050          30.000                                                    23452393.106    92032232.164          28.000    23452397.430    99234794.511          38.000    23452405.542   123243233.663          29.000  
C36  22525503.726   117296160.282          40.000                                                    22525510.927    88395123.432          41.000    22525516.181    95312813.070          32.000    22525499.098   118372217.093          38.000  
C39  26228693.269   136579697.1601         27.000                                                    26228688.801   102927044.465          40.000    26228684.620   110982228.048          39.000    26228706.170   137832689.8071         26.000  
> 2026 06 07 17 06 03.0000000  0 13                     
C01  38581650.823   200904880.587          39.000                                                                                                    38581646.374   163251581.225          35.000                                                  
C02  36966504.342   192494235.984          40.000                                                                                                    36966493.228   156417329.148          39.000                                                  
C03  37004530.803   192692306.507          38.000                                                                                                    37004519.509   156578242.037          41.000                                                  
C07                                                                                                                                                  37174841.693   157298876.735          36.000                                                  
C08  38241473.462   199133391.956          46.000                                                                                                    38241467.404   161812205.984          45.000                                                  
C09  38762202.540   201844885.197          32.000    38762200.879   156079302.554          32.000                                                    38762198.252   164015542.393          31.000                                                  
C10                                                  37314823.206   150251310.622          40.000                                                    37314818.989   157891245.834          37.000                                                  
C12  22861246.693   119044558.096          49.000                                                                                                    22861239.634    96733360.959          45.000                                                  
C19  22325165.300   116253042.445          46.000                                                    22325164.246    87608735.773          46.000    22325156.241    94465018.670          41.000    22325160.887   117319515.461          42.000  
C20  24662439.955   128423862.470          48.000                                                    24662440.723    96780701.247          44.000    24662434.648   104354776.495          43.000    24662435.666   129602087.267          44.000  
C22  23447096.834   122095210.108          34.000                                                    23447082.682    92011403.970          26.000    23447088.847    99212336.360          39.000    23447098.139   123215342.065          27.000  
C36  22523535.578   117285917.075          37.000                                                    22523543.584    88387404.051          40.000    22523544.531    95304489.226          33.000    22523533.416   118361879.800          38.000  
C39  26222849.455   136549272.933          32.000                                                    26222844.523   102904108.349          41.000    26222840.109   110957496.909          39.000    26222872.702   137801975.294          33.000  
> 2026 06 07 17 06 18.0000000  0 13                     
C01  38581625.985   200904751.119          39.000                                                                                                    38581621.554   163251476.021          35.000                                                  
C02  36966703.939   192495275.553          40.000                                                                                                    36966692.789   156418173.902          39.000                                                  
C03  37004678.847   192693078.151          37.000                                                                                                    37004667.769   156578869.096          41.000                                                  
C07  37174794.430   193578901.4961         29.000                                                                                                    37174793.304   157298671.828          35.000                                                  
C08  38236565.324   199107832.937          46.000                                                                                                    38236560.374   161791437.230          46.000                                                  
C09  38767766.543   201873869.149          33.000    38767765.846   156101714.749          34.000                                                    38767764.863   164039094.283          33.000                                                  
C10                                                  37314791.024   150251182.582          39.000                                                    37314787.343   157891111.318          37.000                                                  
C12  22868808.238   119083940.827          46.000                                                                                                    22868802.055    96765362.653          45.000                                                  
C19  22328744.734   116271681.578          46.000                                                    22328743.429    87622782.286          46.000    22328736.371    94480164.485          42.000    22328738.730   117338325.537          43.000  
C20  24671693.482   128472045.749          50.000                                                    24671696.055    96817012.320          44.000    24671688.997   104393929.335          43.000    24671688.014   129650712.595          45.000  
C22  23441808.604   122067670.158          35.000                                                                                                    23441799.026    99189957.909          39.000                                                  
C36  22521575.543   117275714.725          39.000                                                    22521585.264    88379715.416          39.000    22521583.030    95296198.887          32.000    22521575.954   118351583.663          30.000  
C39                                                                                                  26217004.229   102881192.644          42.000    26217000.602   110932787.771          39.000    26217029.550   137771288.070          34.000  
> 2026 06 07 17 06 33.0000000  0 13                     
C01  38581602.720   200904630.115          39.000                                                                                                    38581598.217   163251377.677          36.000                                                  
C02  36966905.162   192496323.654          40.000                                                                                                    36966894.084   156419025.572          39.000                                                  
C03  37004828.536   192693858.236          38.000                                                                                                    37004817.690   156579502.989          41.000                                                  
C07  37174748.185   193578642.908          34.000                                                                                                    37174741.949   157298461.687          33.000                                                  
C08  38231661.921   199082298.497          46.000                                                                                                    38231658.365   161770688.418          46.000                                                  
C09  38773334.834   201902871.126          32.000    38773334.888   156124140.888          35.000                                                    38773334.781   164062660.791          33.000                                                  
C10  37314764.685   194307761.4911         29.000    37314756.947   150251047.285          38.000                                                    37314753.999   157890969.124          37.000                                                  
C12  22876386.348   119123406.452          46.000                                                                                                    22876382.095    96797431.695          45.000                                                  
C19  22332348.505   116290447.469          45.000                                                    22332347.665    87636924.323          47.000    22332341.071    94495413.312          43.000    22332343.698   117357263.622          44.000  
C20  24680956.194   128520276.669          50.000                                                    24680959.768    96853359.302          45.000    24680951.530   104433120.899          43.000    24680950.118   129699385.980          46.000  
C22  23436541.585   122040240.916          36.000                                                                                                    23436530.291    99167669.412          38.000                                                  
C36  22519627.498   117265565.398          43.000                                                    22519637.469    88372066.935          37.000                                                    22519626.301   118341341.528          31.000  
C39                                                                                                  26211170.815   102858306.673          41.000    26211167.813   110908110.727          38.000    26211193.491   137740640.670          35.000  
> 2026 06 07 17 06 48.0000000  0 13                     
C01  38581580.544   200904514.799          40.000                                                                                                    38581576.041   163251284.027          36.000                                                  
C02  36967107.547   192497377.605          40.000                                                                                                    36967096.647   156419882.022          38.000                                                  
C03  37004979.315   192694643.942          38.000                                                                                                    37004968.629   156580141.468          42.000                                                  
C07  37174697.008   193578375.369          36.000                                                                                                    37174687.323   157298244.267          31.000                                                  
C08  38226762.824   199056785.927          47.000                                                                                                    38226760.430   161749957.422          47.000                                                  
C09  38778906.825   201931888.274          33.000    38778907.575   156146578.893          38.000                                                    38778907.593   164086239.645          34.000                                                  
C10  37314725.998   194307551.483          29.000    37314720.620   150250902.702          37.000                                                    37314718.243   157890817.180          37.000                                                  
C12  22883980.611   119162951.925          47.000                                                                                                    22883977.162    96829565.605          45.000                                                  
C19  22335975.612   116309337.211          43.000                                                    22335976.256    87651159.734          48.000    22335969.251    94510762.819          44.000    22335970.824   117376326.740          41.000  
C20  24690226.965   128568552.148          48.000                                                    24690230.199    96889739.872          45.000    24690222.265   104472348.661          43.000    24690219.406   129748104.344          45.000  
C22  23431295.222   122012919.971          36.000                                                                                                    23431282.749    99145468.911          38.000                                                  
C36  22517688.888   117255466.443          44.000                                                    22517697.107    88364456.408          37.000    22517696.303    95279790.9141         35.000    22517686.851   118331150.004          35.000  
C39                                                                                                  26205344.888   102835448.414          41.000    26205341.422   110883463.538          38.000    26205365.027   137710030.356          34.000  
> 2026 06 07 17 07 03.0000000  0 13                     
C01  38581558.351   200904399.468          40.000                                                                                                    38581553.830   163251190.325          35.000                                                  
C02  36967309.914   192498431.648          39.000                                                                                                    36967299.139   156420738.531          38.000                                                  
C03  37005130.147   192695429.619          38.000                                                                                                    37005119.587   156580779.921          41.000                                                  
C07  37174642.811   193578093.083          36.000                                                                                                    37174627.783   157298014.995          28.000                                                  
C08  38221866.855   199031289.591          46.000                                                                                                    38221864.872   161729239.629          46.000                                                  
C09  38784482.067   201960914.772          36.000    38784482.407   156169024.021          38.000                                                    38784481.013   164109826.084          33.000                                                  
C10  37314690.528   194307346.724          30.000    37314680.843   150250744.272          37.000                                                    37314678.931   157890650.659          37.000                                                  
C12  22891589.223   119202571.267          46.000                                                                                                    22891585.453    96861759.550          44.000                                                  
C19  22339625.896   116328345.006          45.000                                                    22339625.593    87665484.132          48.000    22339619.160    94526208.200          44.000    22339620.589   117395508.925          41.000  
C20  24699505.115   128616866.224          49.000                                                    24699507.277    96926149.567          45.000    24699500.469   104511607.831          42.000    24699496.699   129796861.689          46.000  
C22  23426068.443   121985701.783          35.000                                                    23426051.753    91928861.9771         25.000    23426055.738    99123351.855          38.000                                                  
C36  22515758.586   117245412.075          44.000                                                    22515769.183    88356879.456          41.000    22515762.017    95271620.860          40.000    22515756.728   118321003.336          41.000  
C39  26199532.792   136427857.0621         29.000                                                    26199526.020   102812613.516          40.000    26199521.785   110858841.521          38.000    26199542.495   137679451.267          29.000  
> 2026 06 07 17 07 18.0000000  0 13                     
C01  38581532.477   200904264.498          40.000                                                                                                    38581527.759   163251080.663          36.000                                                  
C02  36967508.492   192499466.207          39.000                                                                                                    36967497.914   156421579.249          38.000                                                  
C03  37005277.174   192696195.649          38.000                                                                                                    37005266.774   156581402.392          42.000                                                  
C07  37174581.860   193577776.499          35.000                                                                                                                                                                                                  
C08  38216969.760   199005790.048          44.000                                                                                                    38216967.705   161708519.164          46.000                                                  
C09  38790056.327   201989931.097          36.000    38790055.397   156191461.279          39.000                                                    38790050.090   164133404.163          32.000                                                  
C10  37314644.998   194307104.413          30.000    37314633.919   150250556.902          36.000                                                    37314632.883   157890453.806          37.000                                                  
C12  22899207.752   119242244.639          44.000                                                                                                    22899201.552    96893997.359          43.000                                                  
C19  22343295.676   116347451.200          46.000                                                    22343293.513    87679882.569          48.000    22343288.206    94541733.503          45.000    22343289.779   117414790.305          41.000  
C20  24708787.179   128665199.030          49.000                                                    24708788.341    96962573.363          45.000    24708781.157   104550882.157          41.000    24708779.085   129845637.920          47.000  
C22  23420857.550   121958566.886          34.000                                                    23420841.271    91908413.250          26.000    23420844.935    99101302.544          39.000    23420856.764   123077442.3801         28.000  
C36  22513832.949   117235382.592          42.000                                                    22513845.011    88349321.169          42.000    22513834.432    95263471.039          41.000    22513830.626   118310881.745          42.000  
C39  26193717.765   136397567.332          29.000                                                    26193710.457   102789787.157          40.000    26193706.240   110834228.790          40.000    26193722.161   137648883.802          28.000  
> 2026 06 07 17 07 33.0000000  0 14                     
C01  38581508.532   200904139.548          39.000                                                                                                    38581503.600   163250979.183          35.000                                                  
C02  36967709.018   192500510.845          40.000                                                                                                    36967698.493   156422428.145          38.000                                                  
C03  37005426.023   192696971.570          38.000                                                                                                    37005415.820   156582032.939          42.000                                                  
C07  37174520.194   193577455.275          33.000                                                                                                                                                                                                  
C08  38212076.989   198980316.864          44.000                                                                                                    38212074.738   161687820.150          45.000                                                  
C09  38795633.177   202018966.630          35.000    38795632.016   156213913.379          39.000                                                    38795621.973   164156997.907          32.000                                                  
C10  37314597.824   194306854.464          30.000    37314585.780   150250363.491          37.000                                                    37314585.226   157890250.613          36.000                                                  
C12  22906842.435   119282001.306          44.000                                                                                                    22906833.751    96926302.865          43.000                                                  
C19  22346989.488   116366685.132          44.000                                                    22346988.345    87694377.319          49.000    22346982.305    94557362.629          46.000    22346982.412   117434200.666          42.000  
C20  24718078.517   128713579.883          49.000                                                    24718079.375    96999033.342          45.000    24718070.369   104590195.502          40.000    24718071.030   129894462.655          46.000  
C22  23415667.510   121931545.281          32.000                                                    23415656.020    91888049.601          26.000    23415655.520    99079345.230          39.000    23415666.742   123050172.815          29.000  
C27  25326046.256   131879332.2551         29.000                                                                                                                                                                                                  
C36  22511917.229   117225407.481          40.000                                                    22511926.985    88341803.910          41.000    22511918.319    95255365.364          39.000    22511915.067   118300815.091          39.000  
C39                                                                                                  26187900.898   102766991.696          39.000    26187899.415   110809649.303          41.000    26187911.387   137618357.736          28.000  
> 2026 06 07 17 07 48.0000000  0 13                     
C01  38581484.320   200904013.720          39.000                                                                                                    38581479.513   163250876.914          35.000                                                  
C02  36967909.473   192501554.805          39.000                                                                                                    36967898.930   156423276.410          38.000                                                  
C03  37005574.711   192697746.645          37.000                                                                                                    37005564.686   156582662.756          41.000                                                  
C07  37174455.723   193577118.555          29.000                                                                                                                                                                                                  
C08  38207187.220   198954859.282          44.000                                                                                                    38207184.040   161667133.821          44.000                                                  
C09  38801208.598   202048010.363          32.000    38801210.081   156236371.867          38.000                                                    38801197.126   164180598.270          30.000                                                  
C10  37314546.790   194306585.672          30.000    37314534.121   150250155.691          37.000                                                    37314533.656   157890032.186          36.000                                                  
C12  22914491.163   119321830.240          41.000                                                                                                    22914484.981    96958667.024          44.000                                                  
C19  22350704.601   116386035.771          42.000                                                    22350705.316    87708960.090          49.000    22350697.257    94573086.641          45.000    22350698.347   117453728.907          40.000  
C20  24727376.913   128761997.662          49.000                                                    24727377.360    97035521.140          45.000    24727367.193   104629538.866          39.000    24727369.033   129943324.587          46.000  
C22  23410496.429   121904626.149          30.000                                                    23410490.836    91867763.337          26.000    23410485.637    99057471.235          38.000    23410496.501   123023006.751          31.000  
C36  22510008.317   117215475.813          38.000                                                    22510015.643    88334319.363          40.000    22510005.529    95247295.138          33.000    22510008.281   118290792.306          39.000  
C39                                                                                                  26182096.164   102744218.869          38.000    26182096.825   110785094.262          40.000                                                  
> 2026 06 07 17 08 03.0000000  0 12                     
C01  38581463.770   200903907.135          39.000                                                                                                    38581459.088   163250790.357          36.000                                                  
C02  36968113.644   192502618.118          39.000                                                                                                    36968103.120   156424140.468          37.000                                                  
C03  37005727.080   192698540.955          37.000                                                                                                    37005717.127   156583308.228          42.000                                                  
C08  38202304.653   198929437.522          43.000                                                                                                    38202299.739   161646476.622          44.000                                                  
C09  38806788.987   202077082.432          32.000    38806793.401   156258852.276          37.000                                                    38806779.445   164204221.759          31.000                                                  
C10  37314495.881   194306318.469          28.000    37314482.926   150249949.059          37.000                                                    37314482.354   157889815.068          37.000                                                  
C12  22922157.207   119361751.295          40.000                                                                                                    22922154.062    96991106.142          46.000                                                  
C19  22354446.625   116405523.258          42.000                                                    22354446.714    87723645.940          48.000    22354439.352    94588921.804          45.000    22354440.800   117473395.093          40.000  
C20  24736685.477   128810472.239          47.000                                                    24736686.103    97072051.743          44.000    24736676.436   104668928.322          40.000    24736678.598   129992243.876          47.000  
C22  23405348.989   121877829.926          27.000                                                                                                    23405339.537    99035697.175          38.000    23405349.829   122995964.679          30.000  
C36  22508112.485   117205607.557          42.000                                                    22508119.919    88326882.644          40.000    22508113.736    95239276.455          35.000    22508113.629   118280833.472          39.000  
C39                                                                                                  26176303.527   102721483.847          38.000    26176301.204   110760580.001          40.000                                                  
> 2026 06 07 17 08 18.0000000  0 13                     
C01  38581442.041   200903794.317          39.000                                                                                                    38581437.324   163250698.713          35.000                                                  
C02  36968316.637   192503675.326          40.000                                                                                                    36968305.915   156424999.574          38.000                                                  
C03  37005878.306   192699328.947          36.000                                                                                                    37005868.495   156583948.546          42.000                                                  
C07  37174332.355   193576516.6491         29.000                                                                                                                                                                                                  
C08  38197424.301   198904026.145          43.000                                                                                                    38197418.404   161625827.848          43.000                                                  
C09  38812370.787   202106157.203          34.000    38812377.041   156281334.760          35.000                                                    38812364.283   164227847.352          31.000                                                  
C10                                                  37314426.924   150249723.852          36.000                                                    37314426.067   157889578.322          36.000                                                  
C12  22929835.329   119401738.567          41.000                                                                                                    22929833.685    97023599.101          47.000                                                  
C19  22358210.574   116425121.825          41.000                                                    22358210.038    87738415.478          47.000    22358203.926    94604847.241          46.000    22358206.303   117493173.437          41.000  
C20  24745999.598   128858977.693          45.000                                                    24746001.528    97108605.634          44.000    24745993.684   104708342.970          41.000    24745994.631   130041194.390          46.000  
C22                                                                                                                                                  23400212.664    99014002.398          37.000    23400222.385   122969021.225          29.000  
C36  22506225.338   117195776.989          44.000                                                    22506231.735    88319474.321          41.000    22506227.732    95231288.412          37.000    22506226.428   118270912.788          39.000  
C39  26170534.316   136276827.1511         31.000                                                    26170517.609   102698767.303          38.000    26170511.551   110736085.691          41.000                                                  
> 2026 06 07 17 08 33.0000000  0 13                     
C01  38581415.381   200903656.064          39.000                                                                                                    38581410.878   163250586.376          36.000                                                  
C02  36968514.804   192504707.224          39.000                                                                                                    36968504.029   156425838.132          38.000                                                  
C03  37006024.617   192700091.498          37.000                                                                                                    37006015.057   156584568.219          42.000                                                  
C07  37174257.734   193576123.704          30.000                                                                                                    37174233.843   157296345.9351         29.000                                                  
C08  38192542.252   198878606.095          43.000                                                                                                    38192536.909   161605171.999          43.000                                                  
C09  38817949.943   202135215.472          35.000    38817957.662   156303804.407          35.000                                                    38817947.459   164251459.448          31.000                                                  
C10                                                  37314362.292   150249465.207          35.000                                                    37314361.506   157889306.571          37.000                                                  
C12  22937523.351   119441772.746          42.000                                                                                                    22937521.600    97056130.210          47.000                                                  
C19  22361991.999   116444812.123          41.000                                                    22361992.302    87753254.224          47.000    22361986.084    94620847.318          47.000    22361987.674   117513044.444          41.000  
C20  24755316.525   128907494.709          46.000                                                    24755320.098    97145168.230          44.000    24755313.505   104747767.019          43.000    24755312.522   130090156.557          45.000  
C22                                                                                                  23395115.882    91807457.9051         28.000    23395101.158    98992371.500          37.000                                                  
C36  22504341.496   117185965.022          43.000                                                    22504347.500    88312080.032          43.000    22504339.137    95223315.496          37.000    22504342.890   118261010.800          41.000  
C39  26164747.594   136246688.875          29.000                                                    26164731.083   102676054.847          36.000    26164725.150   110711595.813          43.000                                                  
> 2026 06 07 17 08 48.0000000  0 13                     
C01  38581389.471   200903521.693          39.000                                                                                                    38581385.093   163250477.196          36.000                                                  
C02  36968713.776   192505743.138          39.000                                                                                                    36968703.072   156426679.893          38.000                                                  
C03  37006171.643   192700857.874          37.000                                                                                                    37006162.191   156585190.990          41.000                                                  
C07  37174176.680   193575691.0051         29.000                                                                                                    37174156.917   157296017.947          30.000                                                  
C08  38187664.491   198853206.651          44.000                                                                                                    38187660.399   161584532.956          43.000                                                  
C09  38823531.457   202164286.366          35.000    38823541.214   156326283.901          35.000                                                    38823533.441   164275081.957          31.000                                                  
C10                                                  37314294.354   150249195.861          32.000                                                    37314294.265   157889023.460          37.000                                                  
C12  22945227.438   119481882.952          46.000                                                                                                    22945224.918    97088722.976          48.000                                                  
C19  22365797.368   116464623.466          43.000                                                    22365797.046    87768184.128          48.000    22365790.345    94636945.664          47.000    22365792.740   117533037.569          44.000  
C20  24764641.582   128956052.337          47.000                                                    24764645.584    97181761.399          44.000    24764639.241   104787223.987          44.000    24764636.614   130139159.598          44.000  
C22  23390023.800   121797976.2191         31.000                                                    23390024.194    91787478.552          31.000    23390010.202    98970828.609          35.000                                                  
C36  22502466.374   117176200.847          43.000                                                    22502472.468    88304721.722          44.000    22502462.372    95215381.378          37.000    22502467.143   118251157.025          42.000  
C39  26158963.624   136216585.186          31.000                                                    26158953.992   102653368.553          33.000    26158945.183   110687134.034          43.000                                                  
> 2026 06 07 17 09 03.0000000  0 13                     
C01  38581365.437   200903397.098          39.000                                                                                                    38581361.202   163250376.007          36.000                                                  
C02  36968914.605   192506788.956          39.000                                                                                                    36968903.723   156427529.750          38.000                                                  
C03  37006320.618   192701634.013          37.000                                                                                                    37006311.343   156585821.660          42.000                                                  
C07                                                                                                                                                  37174078.400   157295686.112          31.000                                                  
C08  38182792.269   198827833.858          45.000                                                                                                    38182789.035   161563915.542          44.000                                                  
C09  38829116.581   202193375.702          35.000    38829129.197   156348777.679          35.000                                                    38829122.424   164298719.461          32.000                                                  
C10                                                  37314224.004   150248920.364          28.000                                                    37314225.505   157888733.948          37.000                                                  
C12  22952946.391   119522074.700          42.000                                                                                                    22952943.157    97121382.015          48.000                                                  
C19  22369626.342   116484561.538          45.000                                                    22369626.342    87783209.539          47.000    22369618.801    94653146.967          48.000    22369622.250   117553158.615          45.000  
C20  24773974.894   129004656.086          45.000                                                    24773978.754    97218389.335          44.000    24773972.035   104826718.498          45.000    24773971.695   130188209.267          43.000  
C22  23384954.555   121771578.785          36.000                                                    23384954.126    91767585.289          33.000    23384940.778    98949378.489          33.000                                                  
C36  22500601.206   117166490.225          42.000                                                    22500607.013    88297403.754          45.000    22500598.847    95207490.787          38.000    22500600.777   118241357.341          41.000  
C39  26153186.390   136186522.021          32.000                                                    26153195.396   102630712.638          30.000    26153172.148   110662705.264          42.000                                                  
> 2026 06 07 17 09 18.0000000  0 13                     
C01  38581343.458   200903282.982          39.000                                                                                                    38581339.187   163250283.285          36.000                                                  
C02  36969117.490   192507845.385          39.000                                                                                                    36969106.715   156428388.192          38.000                                                  
C03  37006471.664   192702420.594          36.000                                                                                                    37006462.462   156586460.819          41.000                                                  
C07                                                                                                                                                  37173997.704   157295350.984          31.000                                                  
C08  38177925.427   198802488.491          45.000                                                                                                    38177922.139   161543320.451          44.000                                                  
C09  38834705.386   202222484.142          35.000    38834721.361   156371286.243          35.000                                                    38834714.035   164322372.443          32.000                                                  
C10                                                                                                                                                  37314155.369   157888438.480          37.000                                                  
C12  22960678.371   119562348.253          41.000                                                                                                    22960676.101    97154107.689          48.000                                                  
C19  22373479.171   116504626.858          45.000                                                    22373479.100    87798330.872          47.000    22373472.435    94669451.711          48.000    22373475.991   117573408.023          43.000  
C20  24783317.337   129053306.405          45.000                                                    24783321.126    97255052.416          44.000    24783313.388   104866250.837          45.000    24783313.299   130237305.902          42.000  
C22  23379907.271   121745296.545          38.000                                                    23379905.395    91747778.912          34.000    23379893.708    98928022.090          31.000    23379895.138   122862136.5321         28.000  
C36  22498745.865   117156833.826          40.000                                                    22498752.083    88290126.639          47.000    22498746.437    95199644.207          41.000    22498744.489   118231612.328          41.000  
C39  26147417.519   136156500.014          30.000                                                    26147401.079   102608010.3651         30.000    26147405.278   110638310.012          38.000                                                  
> 2026 06 07 17 09 33.0000000  0 13                     
C01  38581321.211   200903167.421          39.000                                                                                                    38581316.976   163250189.357          36.000                                                  
C02  36969320.036   192508900.475          39.000                                                                                                    36969309.600   156429245.523          38.000                                                  
C03  37006622.282   192703205.620          36.000                                                                                                    37006613.241   156587098.769          42.000                                                  
C07                                                                                                                                                  37173913.809   157295002.889          32.000                                                  
C08  38173061.550   198777158.654          46.000                                                                                                    38173057.065   161522737.969          43.000                                                  
C09  38840296.103   202251599.572          34.000    38840315.259   156393800.126          35.000                                                    38840305.860   164346031.103          32.000                                                  
C10                                                  37314077.210   150248327.9391         28.000                                                    37314081.391   157888127.448          37.000                                                  
C12  22968426.022   119602691.735          45.000                                                                                                    22968423.842    97186890.058          48.000                                                  
C19  22377354.677   116524807.365          46.000                                                    22377353.801    87813538.974          46.000    22377346.278    94685849.998          47.000    22377350.924   117593773.682          43.000  
C20  24792666.428   129101991.103          43.000                                                    24792671.181    97291741.371          44.000    24792662.568   104905811.135          45.000    24792662.961   130286437.229          43.000  
C22  23374879.786   121719117.755          38.000                                                    23374875.962    91728050.457          35.000    23374869.046    98906749.575          29.000    23374869.404   122835717.552          31.000  
C36  22496898.994   117147219.561          43.000                                                    22496905.802    88282881.269          47.000    22496901.031    95191831.867          45.000    22496896.725   118221909.809          39.000  
C39  26141655.920   136126507.385          33.000                                                    26141641.661   102585407.965          31.000    26141640.338   110613938.605          35.000                                                  
> 2026 06 07 17 09 48.0000000  0 13                     
C01  38581299.089   200903052.410          39.000                                                                                                    38581294.872   163250095.974          35.000                                                  
C02  36969522.778   192509956.217          39.000                                                                                                    36969512.342   156430103.459          38.000                                                  
C03  37006773.061   192703991.210          36.000                                                                                                    37006764.127   156587737.144          42.000                                                  
C07                                                                                                                                                  37173828.484   157294643.547          33.000                                                  
C08  38168200.801   198751846.473          45.000                                                                                                    38168194.886   161502169.796          43.000                                                  
C09  38845889.715   202280723.920          37.000    38845910.657   156416321.100          34.000                                                    38845897.327   164369697.182          31.000                                                  
C10                                                  37314005.144   150248018.668          33.000                                                    37314004.501   157887802.449          37.000                                                  
C12  22976187.253   119643106.710          45.000                                                                                                    22976185.824    97219730.534          48.000                                                  
C19  22381252.590   116545104.931          45.000                                                    22381251.571    87828835.283          46.000    22381242.458    94702343.386          47.000    22381249.391   117614257.456          45.000  
C20  24802022.702   129150711.887          44.000                                                    24802028.670    97328457.580          44.000    24802018.878   104945400.767          45.000    24802020.611   130335605.053          43.000  
C22  23369872.474   121693044.631          36.000                                                    23369867.114    91708401.737          36.000                                                    23369863.183   122809405.292          31.000  
C36  22495062.452   117137649.274          41.000                                                    22495068.331    88275669.073          48.000    22495063.041    95184055.244          47.000    22495057.252   118212251.770          31.000  
C39  26135901.166   136096545.980          34.000                                                    26135890.462   102562828.922          30.000    26135884.333   110589592.592          35.000    26135895.716   137345059.4341         25.000  
> 2026 06 07 17 10 03.0000000  0 13                     
C01  38581275.824   200902931.418          39.000                                                                                                    38581271.607   163249997.639          36.000                                                  
C02  36969724.340   192511006.092          39.000                                                                                                    36969713.762   156430956.582          38.000                                                  
C03  37006922.732   192704770.760          35.000                                                                                                    37006913.833   156588370.604          42.000                                                  
C07                                                                                                                                                  37173740.515   157294267.587          34.000                                                  
C08  38163341.749   198726545.452          45.000                                                                                                    38163335.584   161481610.719          44.000                                                  
C09  38851484.578   202309850.652          39.000    38851505.770   156438843.881          32.000                                                    38851486.561   164393365.019          29.000                                                  
C10                                                  37313924.430   150247691.115          35.000                                                    37313923.125   157887458.205          37.000                                                  
C12  22983960.671   119683586.401          45.000                                                                                                    22983958.634    97252623.631          47.000                                                  
C19  22385171.713   116565512.830          46.000                                                    22385169.551    87844214.765          45.000    22385165.745    94718926.458          49.000    22385169.640   117634852.618          44.000  
C20  24811385.248   129199462.007          45.000                                                    24811391.341    97365195.853          43.000    24811380.888   104985014.202          46.000    24811381.746   130384802.381          41.000  
C22  23364884.176   121667070.970          35.000                                                    23364877.725    91688827.888          36.000                                                    23364876.921   122783193.238          33.000  
C36  22493232.807   117128116.485          38.000                                                    22493238.185    88268485.092          47.000    22493232.753    95176309.039          49.000    22493242.063   118202751.7251         33.000  
C39  26130151.611   136066609.273          36.000                                                    26130148.573   102540268.634          32.000    26130139.138   110565266.674          38.000    26130155.631   137314856.219          32.000  
> 2026 06 07 17 10 18.0000000  0 13                     
C01  38581251.593   200902805.439          39.000                                                                                                    38581247.341   163249895.318          35.000                                                  
C02  36969925.027   192512051.090          39.000                                                                                                    36969914.574   156431805.757          38.000                                                  
C03  37007071.402   192705545.225          36.000                                                                                                    37007062.575   156588999.918          42.000                                                  
C07                                                                                                                                                  37173649.919   157293875.764          35.000                                                  
C08  38158485.127   198701256.562          47.000                                                                                                    38158479.409   161461061.505          44.000                                                  
C09  38857080.226   202338980.609          39.000    38857100.275   156461369.075          31.000                                                                                                                                                  
C10                                                  37313839.444   150247345.889          37.000                                                    37313837.515   157887095.406          37.000                                                  
C12  22991747.384   119724131.455          47.000                                                                                                    22991742.952    97285569.812          45.000                                                  
C19  22389112.404   116586031.913          46.000                                                    22389109.081    87859677.991          46.000    22389107.312    94735599.896          49.000    22389109.956   117655559.887          43.000  
C20  24820752.529   129248242.045          43.000                                                    24820759.266    97401956.725          41.000    24820749.527   105024651.960          46.000    24820747.598   130434029.919          42.000  
C22  23359914.979   121641197.804          34.000                                                    23359908.654    91669329.832          36.000                                                    23359909.315   122757082.750          33.000  
C36                                                                                                  22491414.241    88261329.943          46.000    22491409.863    95168593.902          49.000    22491416.045   118193170.021          35.000  
C39  26124408.078   136036698.219          37.000                                                    26124404.647   102517727.558          35.000    26124397.124   110540961.490          40.000    26124410.312   137284670.654          35.000  
> 2026 06 07 17 10 33.0000000  0 13                     
C01  38581223.914   200902661.385          39.000                                                                                                    38581219.554   163249778.255          35.000                                                  
C02  36970122.248   192513078.129          39.000                                                                                                    36970111.598   156432640.313          38.000                                                  
C03  37007216.695   192706301.597          36.000                                                                                                    37007207.868   156589614.556          42.000                                                  
C07                                                                                                                                                  37173553.355   157293457.600          36.000                                                  
C08  38153628.809   198675966.899          47.000                                                                                                    38153623.466   161440511.679          44.000                                                  
C09  38862673.731   202368100.555          39.000    38862691.082   156483886.549          33.000                                                                                                                                                  
C10                                                  37313747.544   150246973.098          38.000                                                    37313745.114   157886703.649          37.000                                                  
C12  22999544.336   119764728.713          47.000                                                                                                    22999538.135    97318558.366          43.000                                                  
C19  22393071.715   116606648.959          45.000                                                    22393068.642    87875215.063          46.000    22393063.799    94752352.916          47.000    22393069.142   117676366.092          44.000  
C20  24830123.134   129297038.733          43.000                                                    24830130.193    97438730.140          38.000    24830121.633   105064303.275          46.000    24830118.203   130483274.324          44.000  
C22  23354962.955   121615412.371          34.000                                                    23354956.861    91649897.905          35.000    23354944.871    98822410.1481         31.000    23354957.773   122731060.772          32.000  
C36  22489611.989   117109355.7781         35.000                                                    22489594.370    88254193.751          45.000    22489591.350    95160899.201          49.000    22489596.264   118183613.693          34.000  
C39  26118666.511   136006799.740          34.000                                                    26118660.382   102495195.898          36.000    26118655.825   110516666.492          41.000    26118668.333   137254497.746          35.000  
> 2026 06 07 17 10 48.0000000  0 14                     
C01  38581196.968   200902521.117          39.000                                                                                                    38581192.643   163249664.307          35.000                                                  
C02  36970320.272   192514109.091          38.000                                                                                                    36970309.783   156433478.082          38.000                                                  
C03  37007362.739   192707061.712          36.000                                                                                                    37007353.983   156590232.221          42.000                                                  
C07  37173465.332   193571993.5991         30.000                                                                                                    37173453.896   157293030.724          37.000                                                  
C08  38148776.369   198650698.389          45.000                                                                                                    38148771.222   161419979.021          45.000                                                  
C09  38868269.326   202397232.429          38.000    38868282.817   156506413.164          36.000                                                                                                                                                  
C10                                                  37313652.767   150246589.439          39.000                                                    37313649.926   157886300.448          37.000                                                  
C12  23007355.028   119805399.607          47.000                                                                                                    23007349.221    97351606.740          43.000                                                  
C19  22397053.934   116627385.656          46.000                                                    22397051.844    87890842.334          47.000    22397046.286    94769203.158          48.000    22397051.826   117697293.079          43.000  
C20  24839501.995   129345873.591          46.000                                                    24839508.660    97475532.278          32.000    24839500.154   105103985.603          47.000    24839497.313   130532557.276          45.000  
C22  23350032.766   121589736.728          31.000                                                    23350025.422    91630548.668          33.000    23350016.756    98801546.688          34.000    23350027.924   122705149.607          28.000  
C30  25248277.820   131474393.737          37.000                                                    25248280.662    99079674.807          33.000    25248276.999   106833728.687          34.000    25248267.867   132680552.568          31.000  
C36  22487796.532   117099933.042          36.000                                                    22487784.595    88247092.889          45.000    22487781.593    95153242.556          48.000    22487783.291   118174104.783          28.000  
C39  26112930.662   135976935.489          33.000                                                    26112923.728   102472690.132          37.000    26112922.299   110492399.415          42.000    26112932.931   137224359.608          35.000  
> 2026 06 07 17 11 03.0000000  0 14                     
C01  38581170.915   200902385.516          38.000                                                                                                    38581166.590   163249554.084          35.000                                                  
C02  36970519.208   192515144.804          39.000                                                                                                    36970508.844   156434319.698          37.000                                                  
C03  37007509.622   192707826.444          36.000                                                                                                    37007500.813   156590853.676          42.000                                                  
C07  37173356.563   193571458.633          30.000                                                                                                    37173351.756   157292596.136          37.000                                                  
C08  38143927.502   198625452.037          45.000                                                                                                    38143922.910   161399464.311          45.000                                                  
C09  38873866.387   202426376.864          34.000    38873876.893   156528949.494          36.000                                                                                                                                                  
C10                                                  37313555.452   150246195.718          40.000                                                    37313551.986   157885886.705          37.000                                                  
C12  23015179.623   119846144.838          47.000                                                                                                    23015174.727    97384715.495          42.000                                                  
C19  22401059.794   116648242.762          48.000                                                    22401058.061    87906560.339          48.000    22401052.503    94786151.272          48.000    22401056.238   117718341.481          43.000  
C20  24848888.432   129394747.320          47.000                                                    24848882.589    97512363.588          29.000    24848885.001   105143699.473          47.000    24848883.196   130581879.380          45.000  
C22                                                                                                  23345114.461    91611283.138          29.000    23345109.314    98780773.291          35.000    23345121.412   122679350.157          25.000  
C30  25241277.935   131437945.367          38.000                                                    25241280.061    99052207.248          35.000    25241276.487   106804111.457          36.000    25241268.589   132643769.915          31.000  
C36  22485992.297   117090558.165          31.000                                                    22485984.523    88240027.898          45.000    22485981.450    95145624.639          47.000    22485984.631   118164643.810          29.000  
C39                                                                                                  26107194.652   102450210.934          38.000    26107196.635   110468160.942          42.000    26107205.194   137194257.038          35.000  
> 2026 06 07 17 11 18.0000000  0 14                     
C01  38581145.845   200902254.977          39.000                                                                                                    38581141.502   163249448.035          35.000                                                  
C02  36970719.180   192516185.723          39.000                                                                                                    36970708.780   156435165.551          38.000                                                  
C03  37007657.506   192708596.195          36.000                                                                                                    37007648.554   156591479.152          42.000                                                  
C07  37173252.583   193570914.493          31.000                                                                                                    37173247.258   157292153.938          37.000                                                  
C08  38139082.870   198600228.215          47.000                                                                                                    38139079.100   161378967.951          45.000                                                  
C09  38879464.108   202455534.119          32.000    38879473.847   156551495.846          37.000                                                    38879475.294   164511776.3951         31.000                                                  
C10                                                  37313455.582   150245792.261          41.000                                                    37313451.490   157885462.752          37.000                                                  
C12  23023017.727   119886964.435          44.000                                                                                                    23023012.599    97417884.708          42.000                                                  
C19  22405089.259   116669220.569          49.000                                                    22405087.168    87922369.267          48.000    22405080.521    94803197.411          48.000    22405084.452   117739511.742          44.000  
C20  24858281.641   129443659.988          47.000                                                    24858281.105    97549224.085          33.000    24858276.977   105183444.984          46.000    24858276.906   130631240.761          45.000  
C22                                                                                                  23340224.192    91592101.457          26.000    23340222.262    98760090.503          36.000                                                  
C30  25234278.745   131401500.340          41.000                                                    25234280.514    99024742.200          36.000    25234277.816   106774496.947          39.000    25234269.668   132606990.498          33.000  
C36  22484199.640   117081231.249          36.000                                                    22484195.084    88232999.023          46.000    22484190.134    95138045.664          46.000                                                  
C39                                                                                                  26101473.294   102427758.573          39.000    26101474.527   110443951.418          40.000    26101481.532   137164190.413          33.000  
> 2026 06 07 17 11 33.0000000  0 15                     
C01  38581122.275   200902132.636          39.000                                                                                                    38581118.112   163249348.620          36.000                                                  
C02  36970920.743   192517234.911          39.000                                                                                                    36970910.432   156436018.149          38.000                                                  
C03  37007806.909   192709374.056          35.000                                                                                                    37007798.046   156592111.261          42.000                                                  
C07  37173147.674   193570364.229          31.000                                                                                                    37173141.134   157291706.829          37.000                                                  
C08  38134243.671   198575030.109          47.000                                                                                                    38134240.615   161358492.501          46.000                                                  
C09  38885065.189   202484707.422          33.000    38885074.552   156574054.529          38.000                                                    38885079.806   164535482.063          34.000                                                  
C10  37313350.137   194300418.9461         29.000    37313353.729   150245381.433          40.000                                                    37313349.154   157885030.993          37.000                                                  
C12  23030870.359   119927861.240          43.000                                                                                                    23030864.426    97451116.692          43.000                                                  
C19  22409141.614   116690321.928          46.000                                                    22409139.273    87938271.346          48.000    22409132.840    94820343.979          49.000    22409136.235   117760806.688          44.000  
C20  24867682.463   129492614.353          47.000                                                    24867688.484    97586116.247          38.000    24867677.263   105223224.390          46.000    24867679.193   130680644.260          42.000  
C22  23335362.638   121513389.8781         33.000                                                                                                    23335356.455    98739500.930          37.000                                                  
C27  25275052.211   131613826.2511         29.000                                                                                                                                                                                                  
C30  25227280.664   131365062.062          42.000                                                    25227282.165    98997282.233          37.000    25227281.593   106744887.916          41.000    25227271.962   132570217.971          37.000  
C36  22482417.688   117071955.228          36.000                                                    22482415.043    88226008.531          46.000    22482408.378    95130508.097          46.000    22482409.129   118145920.5121         35.000  
C39  26095808.367   135887712.0001         30.000                                                    26095759.281   102405335.266          39.000    26095756.708   110419773.265          37.000    26095766.447   137134162.736          34.000  
> 2026 06 07 17 11 48.0000000  0 14                     
C01  38581098.081   200902006.854          38.000                                                                                                    38581094.006   163249246.476          35.000                                                  
C02  36971121.662   192518280.836          39.000                                                                                                    36971111.370   156436868.030          38.000                                                  
C03  37007955.705   192710148.585          36.000                                                                                                    37007946.788   156592740.565          42.000                                                  
C07  37173039.317   193569796.379          29.000                                                                                                    37173031.544   157291245.308          37.000                                                  
C08  38129407.491   198549846.245          47.000                                                                                                    38129404.954   161338028.603          47.000                                                  
C09  38890667.396   202513884.968          34.000    38890676.473   156596616.478          39.000                                                    38890685.158   164559191.299          36.000                                                  
C10  37313245.157   194299866.583          31.000    37313247.658   150244954.304          40.000                                                    37313242.976   157884582.143          37.000                                                  
C12  23038736.875   119968823.455          45.000                                                                                                    23038732.246    97484401.817          45.000                                                  
C19  22413214.911   116711535.116          45.000                                                    22413211.963    87954257.729          47.000    22413206.888    94837581.451          48.000    22413209.711   117782214.546          43.000  
C20  24877089.503   129541598.656          48.000                                                    24877095.649    97623030.978          40.000    24877084.052   105263028.116          46.000    24877083.284   130730077.916          42.000  
C22  23330516.755   121488154.921          34.000                                                                                                    23330509.626    98718995.428          38.000    23330515.773   122602741.8291         31.000  
C30  25220281.493   131328619.249          45.000                                                    25220283.280    98969818.861          38.000    25220284.781   106715275.180          44.000    25220275.167   132533440.758          41.000  
C36                                                                                                  22480640.417    88219047.685          44.000    22480635.807    95123002.430          47.000    22480634.824   118136598.999          36.000  
C39  26090055.900   135857746.0681         28.000                                                    26090051.754   102382932.389          41.000    26090047.108   110395617.197          36.000    26090059.831   137104162.441          34.000  
> 2026 06 07 17 12 03.0000000  0 14                     
C01  38581073.332   200901878.185          39.000                                                                                                    38581069.186   163249141.884          36.000                                                  
C02  36971322.027   192519323.889          39.000                                                                                                    36971311.789   156437715.636          38.000                                                  
C03  37008103.964   192710919.961          35.000                                                                                                    37008095.011   156593367.424          42.000                                                  
C07                                                                                                                                                  37172917.986   157290769.848          36.000                                                  
C08  38124574.153   198524677.181          47.000                                                                                                    38124571.919   161317576.705          47.000                                                  
C09  38896270.907   202543067.003          34.000    38896279.359   156619181.890          39.000                                                    38896289.151   164582904.134          37.000                                                  
C10  37313135.459   194299293.531          33.000    37313137.567   150244511.247          40.000                                                    37313132.993   157884116.538          37.000                                                  
C12  23046616.685   120009851.345          46.000                                                                                                    23046613.754    97517740.300          47.000                                                  
C19  22417310.223   116732860.489          46.000                                                    22417307.132    87970328.619          47.000    22417302.825    94854910.071          49.000    22417304.987   117803735.588          44.000  
C20  24886502.529   129590613.031          48.000                                                    24886507.621    97659968.395          42.000    24886497.597   105302856.266          46.000    24886496.757   130779541.950          43.000  
C22  23325690.672   121463023.967          34.000                                                    23325684.400    91534991.4281         27.000    23325682.470    98698574.535          38.000    23325690.815   122577380.348          34.000  
C30  25213281.857   131292172.582          48.000                                                    25213284.198    98942352.588          40.000    25213285.824   106685659.294          46.000    25213276.354   132496659.683          43.000  
C36  22478868.149   117053360.7791         37.000                                                    22478871.580    88212116.743          40.000    22478871.062    95115528.958          47.000    22478868.096   118127317.530          40.000  
C39                                                                                                  26084349.356   102360550.095          41.000    26084345.604   110371483.326          33.000    26084357.987   137074189.861          34.000  
> 2026 06 07 17 12 18.0000000  0 14                     
C01  38581045.653   200901734.012          39.000                                                                                                    38581041.507   163249024.774          36.000                                                  
C02  36971519.462   192520351.620          39.000                                                                                                    36971509.206   156438550.764          37.000                                                  
C03  37008249.346   192711675.848          36.000                                                                                                    37008240.162   156593981.677          42.000                                                  
C07                                                                                                                                                  37172798.496   157290270.226          36.000                                                  
C08  38119741.279   198499510.389          47.000                                                                                                    38119739.010   161297126.689          48.000                                                  
C09  38901872.613   202572241.156          30.000    38901880.690   156641741.144          37.000                                                    38901891.537   164606610.546          37.000                                                  
C10  37313019.935   194298687.351          36.000    37313021.043   150244042.517          40.000                                                    37313017.130   157883623.979          37.000                                                  
C12  23054505.966   120050931.932          45.000                                                                                                    23054504.089    97551121.645          49.000                                                  
C19  22421425.173   116754285.378          48.000                                                    22421421.689    87986474.453          46.000    22421417.150    94872319.505          49.000    22421420.223   117825357.021          45.000  
C20  24895918.950   129639644.624          48.000                                                    24895923.274    97696918.778          43.000    24895914.357   105342698.411          45.000    24895912.910   130829023.347          43.000  
C22  23320882.690   121437984.797          36.000                                                    23320875.185    91516121.952          27.000    23320873.165    98678228.210          39.000    23320882.904   122552111.420          35.000  
C30  25206279.523   131255709.737          48.000                                                    25206282.507    98914874.149          40.000    25206283.043   106656030.326          45.000    25206274.413   132459862.351          44.000  
C36  22477108.068   117044190.636          40.000                                                    22477108.140    88205206.098          38.000    22477109.212    95108077.449          48.000    22477106.728   118118063.300          39.000  
C39                                                                                                  26078648.834   102338178.900          40.000    26078639.899   110347361.410          30.000    26078657.483   137044232.077          34.000  
> 2026 06 07 17 12 33.0000000  0 14                     
C01  38581025.568   200901629.475          39.000                                                                                                    38581021.512   163248939.864          36.000                                                  
C02  36971724.491   192521419.008          38.000                                                                                                    36971714.217   156439418.104          37.000                                                  
C03  37008402.323   192712471.345          35.000                                                                                                    37008392.995   156594628.092          42.000                                                  
C07                                                                                                                                                  37172684.152   157289791.281          35.000                                                  
C08  38114919.484   198474401.101          47.000                                                                                                    38114916.589   161276723.402          47.000                                                  
C09                                                  38907490.831   156664336.847          36.000                                                    38907502.696   164630355.186          36.000                                                  
C10  37312908.719   194298103.153          37.000    37312908.897   150243590.776          39.000                                                    37312905.538   157883149.285          37.000                                                  
C12  23062415.653   120092120.133          46.000                                                                                                    23062414.170    97584590.494          49.000                                                  
C19  22425568.857   116775864.649          46.000                                                    22425565.551    88002736.647          45.000    22425560.440    94889854.402          48.000    22425565.729   117847134.261          42.000  
C20  24905348.916   129688748.297          47.000                                                    24905352.972    97733923.507          43.000    24905343.894   105382599.160          45.000    24905341.589   130878577.466          43.000  
C22  23316103.351   121413092.696          37.000                                                    23316094.238    91497363.228          26.000    23316092.487    98658001.370          40.000    23316102.708   122526991.015          36.000  
C30  25199284.980   131219286.198          47.000                                                    25199289.108    98887425.360          38.000    25199287.768   106626433.283          42.000    25199279.834   132423104.667          44.000  
C36  22475361.782   117035102.538          41.000                                                    22475362.587    88198357.302          37.000    22475362.783    95100692.623          47.000    22475360.657   118108891.852          42.000  
C39                                                                                                  26072960.731   102315860.662          40.000    26072955.299   110323296.693          31.000    26072970.827   137014345.187          31.000  
> 2026 06 07 17 12 48.0000000  0 14                     
C01  38581002.678   200901510.268          39.000                                                                                                    38580998.479   163248842.980          35.000                                                  
C02  36971926.733   192522471.807          38.000                                                                                                    36971916.405   156440273.639          37.000                                                  
C03  37008552.458   192713252.058          35.000                                                                                                    37008542.952   156595262.519          42.000                                                  
C07                                                                                                                                                  37172564.858   157289288.768          36.000                                                  
C08  38110098.100   198449295.054          46.000                                                                                                    38110094.437   161256322.732          48.000                                                  
C09  38913089.625   202630650.8441         29.000    38913099.703   156686926.705          35.000                                                    38913112.086   164654093.749          35.000                                                  
C10  37312791.105   194297486.615          38.000    37312790.676   150243114.048          40.000                                                    37312787.942   157882648.326          38.000                                                  
C12  23070335.829   120133361.372          47.000                                                                                                    23070334.042    97618102.390          49.000                                                  
C19  22429731.749   116797543.782          47.000                                                    22429729.176    88019074.113          45.000    22429723.190    94907470.483          48.000    22429726.406   117869012.211          40.000  
C20  24914782.009   129737869.387          45.000                                                    24914785.976    97770941.361          44.000    24914776.684   105422514.098          45.000    24914775.701   130928149.267          45.000  
C22  23311341.775   121388293.550          38.000                                                    23311363.468    91478796.0131         27.000    23311329.731    98637850.080          40.000    23311339.416   122501964.290          36.000  
C30  25192287.667   131182847.959          46.000                                                    25192290.794    98859965.385          37.000    25192290.294   106596824.274          43.000    25192283.182   132386332.075          44.000  
C36  22473620.893   117026042.035          43.000                                                    22473625.860    88191529.344          37.000    22473623.144    95093330.189          48.000    22473618.588   118099748.184          39.000  
C39                                                                                                  26067276.380   102293554.095          38.000    26067270.019   110299244.466          33.000                                                  
> 2026 06 07 17 13 03.0000000  0 14                     
C01  38580979.555   200901390.032          39.000                                                                                                    38580975.410   163248745.292          36.000                                                  
C02  36972128.832   192523523.769          39.000                                                                                                    36972118.575   156441128.428          37.000                                                  
C03  37008702.308   192714031.754          35.000                                                                                                    37008692.677   156595896.083          42.000                                                  
C07                                                                                                                                                  37172443.671   157288774.067          36.000                                                  
C08  38105279.879   198424205.998          46.000                                                                                                    38105275.912   161235935.885          48.000                                                  
C09  38918695.566   202659870.820          28.000    38918709.790   156709521.327          33.000                                                    38918722.673   164677837.389          33.000                                                  
C10  37312669.613   194296851.433          38.000    37312668.970   150242622.894          40.000                                                    37312666.486   157882132.186          38.000                                                  
C12  23078269.425   120174669.097          49.000                                                                                                    23078266.852    97651668.289          49.000                                                  
C19  22433917.014   116819336.454          47.000                                                    22433914.744    88035497.109          46.000    22433908.615    94925178.758          48.000    22433911.582   117891004.831          42.000  
C20  24924221.463   129787021.440          46.000                                                    24924225.090    97807982.545          44.000    24924216.120   105462454.143          45.000    24924216.513   130977752.285          46.000  
C22  23306600.498   121363601.324          37.000                                                    23306617.992    91460188.034          28.000    23306587.346    98617785.630          39.000    23306597.067   122477045.541          36.000  
C30  25185290.051   131146409.018          46.000                                                    25185292.409    98832505.002          38.000    25185290.676   106567214.744          42.000    25185285.119   132349558.856          42.000  
C36  22471888.348   117017022.712          43.000                                                    22471894.245    88184732.311          40.000    22471891.350    95086001.227          47.000    22471883.702   118090646.121          38.000  
C39  26061610.059   135709722.528          33.000                                                    26061600.839   102271269.505          36.000    26061593.459   110275215.982          36.000                                                  
> 2026 06 07 17 13 18.0000000  0 14                     
C01  38580955.718   200901266.381          38.000                                                                                                    38580951.572   163248644.842          36.000                                                  
C02  36972330.287   192524572.390          39.000                                                                                                    36972319.995   156441980.533          37.000                                                  
C03  37008851.622   192714807.975          36.000                                                                                                    37008841.758   156596526.784          42.000                                                  
C07                                                                                                                                                  37172319.338   157288245.068          37.000                                                  
C08  38100464.499   198399131.580          46.000                                                                                                    38100460.693   161215560.932          48.000                                                  
C09  38924351.701   202689318.6311         28.000    38924321.235   156732118.847          34.000                                                    38924334.994   164701583.978          31.000                                                  
C10  37312543.744   194296195.204          38.000    37312543.118   150242115.463          40.000                                                    37312540.867   157881598.963          38.000                                                  
C12  23086215.280   120216040.587          49.000                                                                                                    23086211.670    97685285.966          49.000                                                  
C19  22438122.846   116841239.947          45.000                                                    22438121.184    88052003.641          47.000    22438115.788    94942977.119          48.000    22438117.342   117913109.259          37.000  
C20  24933666.242   129836201.709          46.000                                                    24933669.709    97845045.009          44.000    24933661.418   105502417.099          45.000    24933661.293   131027383.747          46.000  
C22  23301879.073   121339013.725          37.000                                                    23301891.635    91441658.609          29.000    23301865.046    98597806.192          38.000    23301874.945   122452232.353          35.000  
C30  25178291.701   131109967.251          45.000                                                    25178294.739    98805042.425          38.000    25178290.576   106537602.885          40.000    25178286.716   132312782.720          43.000  
C36  22470163.576   117008042.016          44.000                                                    22470170.402    88177964.423          42.000    22470166.239    95078703.718          46.000    22470157.537   118081583.018          40.000  
C39  26055936.216   135680178.873          36.000                                                    26055933.392   102249005.099          36.000    26055920.330   110251209.296          38.000                                                  
> 2026 06 07 17 13 33.0000000  0 14                     
C01  38580930.469   200901135.008          39.000                                                                                                    38580926.449   163248538.119          36.000                                                  
C02  36972530.331   192525613.387          39.000                                                                                                    36972520.199   156442826.456          37.000                                                  
C03  37008999.416   192715576.409          36.000                                                                                                    37008989.320   156597151.232          43.000                                                  
C07                                                                                                                                                  37172191.128   157287698.301          38.000                                                  
C08  38095650.923   198374067.589          46.000                                                                                                    38095647.832   161195194.422          48.000                                                  
C09  38929979.622   202718586.620          29.000    38929933.251   156754715.810          36.000                                                    38929950.352   164725356.9741         28.000                                                  
C10  37312412.907   194295513.573          39.000    37312412.281   150241588.427          40.000                                                    37312409.994   157881045.067          38.000                                                  
C12  23094172.159   120257471.235          49.000                                                                                                    23094166.137    97718951.711          47.000                                                  
C19  22442348.816   116863249.769          44.000                                                    22442348.959    88068590.377          48.000    22442342.437    94960861.931          49.000    22442340.203   117935320.948          38.000  
C20  24943114.560   129885405.523          44.000                                                    24943119.277    97882125.207          45.000    24943110.468   105542399.214          45.000    24943110.271   131077038.963          46.000  
C22  23297176.804   121314526.583          33.000                                                    23297185.202    91423205.191          29.000    23297161.669    98577908.421          35.000    23297171.979   122427520.626          34.000  
C30  25171291.619   131073518.622          45.000                                                    25171296.050    98777574.684          39.000    25171291.029   106507985.428          41.000    25171286.079   132275999.687          40.000  
C36  22468445.059   116999095.567          41.000                                                    22468452.850    88171222.362          43.000    22468445.952    95071434.074          45.000    22468439.609   118072554.478          44.000  
C39  26050265.928   135650657.754          36.000                                                    26050270.270   102226757.645          35.000    26050251.526   110227220.833          39.000    26050266.125   136895022.0331         32.000  
> 2026 06 07 17 13 48.0000000  0 14                     
C01  38580903.255   200900993.635          39.000                                                                                                    38580899.288   163248423.216          36.000                                                  
C02  36972728.409   192526644.413          40.000                                                                                                    36972718.331   156443664.285          37.000                                                  
C03  37009145.228   192716334.738          35.000                                                                                                    37009135.042   156597767.435          42.000                                                  
C07                                                                                                                                                  37172058.289   157287131.935          39.000                                                  
C08  38090838.867   198349011.745          46.000                                                                                                    38090836.419   161174834.530          48.000                                                  
C09  38935592.943   202747806.660          29.000    38935544.947   156777310.437          37.000                                                                                                                                                  
C10  37312276.781   194294804.298          39.000    37312276.084   150241039.964          40.000                                                    37312273.761   157880468.742          38.000                                                  
C12  23102139.456   120298958.463          47.000                                                                                                    23102131.647    97752663.440          46.000                                                  
C19  22446595.854   116885363.556          45.000                                                    22446596.676    88085255.434          47.000    22446589.010    94978831.198          49.000    22446587.402   117957637.636          42.000  
C20  24952566.772   129934630.346          45.000                                                    24952572.723    97919221.240          45.000    24952562.984   105582398.390          45.000    24952564.735   131126715.410          46.000  
C22  23292494.244   121290137.878          30.000                                                    23292499.087    91404825.770          31.000    23292477.572    98558090.608          33.000    23292489.330   122402908.181          35.000  
C30  25164290.178   131037061.150          45.000                                                    25164295.074    98750100.242          41.000    25164290.339   106478360.750          41.000    25164283.352   132239207.696          39.000  
C36  22466732.563   116990180.944          43.000                                                    22466740.408    88164504.293          44.000    22466733.296    95064190.297          46.000    22466728.686   118063558.060          46.000  
C39  26044599.411   135621156.841          35.000                                                    26044605.808   102204525.350          31.000    26044588.385   110203248.740          40.000    26044600.429   136865250.408          32.000  
> 2026 06 07 17 14 03.0000000  0 14                     
C01  38580878.077   200900862.733          39.000                                                                                                    38580873.932   163248316.850          35.000                                                  
C02  36972928.524   192527686.076          39.000                                                                                                    36972918.321   156444510.702          37.000                                                  
C03  37009293.058   192717103.466          36.000                                                                                                    37009282.765   156598392.145          42.000                                                  
C07                                                                                                                                                  37171924.504   157286562.665          40.000                                                  
C08  38086032.600   198323984.677          47.000                                                                                                    38086030.331   161154498.018          49.000                                                  
C09  38941162.896   202776918.6591         30.000    38941159.966   156799918.363          37.000                                                                                                                                                  
C10  37312139.421   194294087.933          39.000    37312138.528   150240486.021          41.000                                                    37312135.991   157879886.625          38.000                                                  
C12  23110121.012   120340522.491          46.000                                                                                                    23110115.008    97786437.579          46.000                                                  
C19  22450866.568   116907601.664          45.000                                                    22450866.747    88102014.168          46.000    22450859.582    94996901.461          49.000    22450858.224   117980079.770          44.000  
C20  24962027.384   129983896.368          44.000                                                    24962033.781    97956348.338          45.000    24962024.203   105622431.083          46.000    24962025.936   131176433.470          45.000  
C22  23287835.433   121265868.206          33.000                                                    23287836.683    91386536.146          31.000    23287819.386    98538369.545          33.000    23287829.822   122378416.089          36.000  
C30  25157291.114   131000615.667          45.000                                                    25157296.779    98722634.832          42.000    25157291.132   106448745.876          42.000    25157282.859   132202427.833          38.000  
C36  22465031.075   116981318.620          46.000                                                    22465038.401    88157825.650          44.000    22465032.290    95056988.954          47.000    22465027.858   118054614.466          46.000  
C39  26038940.952   135591696.485          33.000                                                                                                    26038929.963   110179309.753          38.000    26038941.435   136835519.715          30.000  
> 2026 06 07 17 14 18.0000000  0 14                     
C01  38580853.722   200900735.905          39.000                                                                                                    38580849.755   163248213.808          36.000                                                  
C02  36973129.426   192528731.865          39.000                                                                                                    36973119.455   156445360.550          37.000                                                  
C03  37009441.693   192717876.261          36.000                                                                                                    37009431.096   156599020.096          42.000                                                  
C07                                                                                                                                                  37171788.753   157285985.305          40.000                                                  
C08  38081230.854   198298979.990          47.000                                                                                                    38081228.299   161134179.711          48.000                                                  
C09  38946775.306   202805989.5301         31.000    38946776.807   156822534.631          36.000                                                                                                                                                  
C10  37311999.471   194293357.990          39.000    37311998.417   150239921.611          41.000                                                    37311995.558   157879293.529          38.000                                                  
C12  23118115.917   120382156.706          46.000                                                                                                    23118111.897    97820268.768          47.000                                                  
C19  22455158.994   116929957.385          45.000                                                    22455157.350    88118861.542          44.000    22455153.401    95015067.349          49.000    22455151.971   118002640.634          43.000  
C20  24971495.714   130033196.970          46.000                                                    24971501.432    97993501.472          45.000    24971493.195   105662491.854          46.000    24971494.356   131226186.371          45.000  
C22  23283197.867   121241711.562          33.000                                                    23283196.777    91368331.734          30.000    23283183.143    98518740.370          35.000    23283191.953   122354037.865          37.000  
C30  25150293.122   130964175.993          47.000                                                    25150300.002    98695173.803          42.000    25150293.158   106419135.727          42.000    25150283.080   132165653.845          37.000  
C36  22463338.324   116972502.056          46.000                                                    22463346.348    88151181.453          45.000    22463340.004    95049824.753          48.000    22463334.876   118045717.019          45.000  
C39  26033289.052   135562270.427          34.000                                                    26033279.510   102160182.6881         26.000    26033276.115   110155398.502          36.000    26033287.551   136805823.546          31.000  
> 2026 06 07 17 14 33.0000000  0 14                     
C01  38580827.919   200900601.691          39.000                                                                                                    38580823.970   163248104.791          36.000                                                  
C02  36973328.951   192529770.329          39.000                                                                                                    36973318.962   156446204.385          37.000                                                  
C03  37009588.951   192718641.590          36.000                                                                                                    37009577.980   156599642.009          42.000                                                  
C07                                                                                                                                                  37171648.785   157285390.538          41.000                                                  
C08  38076431.431   198273986.309          48.000                                                                                                    38076428.429   161113870.326          48.000                                                  
C09  38952397.312   202835236.630          34.000    38952393.774   156845150.346          36.000                                                    38952388.949   164820304.433          30.000                                                  
C10  37311854.804   194292603.086          39.000    37311853.588   150239337.867          43.000                                                    37311850.283   157878680.067          38.000                                                  
C12  23126122.347   120423849.286          46.000                                                                                                    23126118.291    97854147.341          47.000                                                  
C19  22459472.326   116952419.171          46.000                                                    22459467.858    88135788.818          42.000    22459467.429    95033319.411          48.000    22459465.750   118025308.508          44.000  
C20  24980968.405   130082520.383          46.000                                                    24980973.212    98030671.768          44.000    24980966.708   105702571.134          47.000    24980967.726   131275962.284          42.000  
C22  23278579.582   121217656.556          30.000                                                    23278576.545    91350203.732          30.000    23278564.698    98499193.764          36.000    23278573.829   122329762.230          37.000  
C30  25143294.398   130927730.955          47.000                                                    25143301.403    98667708.761          43.000    25143294.434   106389521.200          43.000    25143285.749   132128874.549          39.000  
C36  22461651.757   116963719.684          46.000                                                    22461659.619    88144563.038          46.000    22461653.436    95042688.340          47.000    22461648.826   118036854.075          46.000  
C39  26027641.940   135532866.915          34.000                                                    26027633.613   102138024.008          28.000    26027628.485   110131505.660          35.000    26027641.493   136776150.360          31.000  
> 2026 06 07 17 14 48.0000000  0 14                     
C01  38580800.847   200900460.682          39.000                                                                                                    38580796.862   163247990.185          36.000                                                  
C02  36973527.154   192530802.140          39.000                                                                                                    36973517.255   156447042.793          37.000                                                  
C03  37009734.834   192719400.076          36.000                                                                                                    37009723.612   156600258.341          42.000                                                  
C07  37171513.105   193561819.5411         30.000                                                                                                    37171504.689   157284778.896          40.000                                                  
C08  38071634.295   198249004.361          48.000                                                                                                    38071630.704   161093570.482          48.000                                                  
C09  38958013.474   202864483.512          35.000    38958010.740   156867765.800          37.000                                                    38958005.951   164844069.816          32.000                                                  
C10  37311705.222   194291823.812          38.000    37311704.239   150238735.299          43.000                                                    37311700.433   157878046.834          38.000                                                  
C12  23134140.446   120465600.618          46.000                                                                                                    23134135.657    97888073.680          47.000                                                  
C19  22463806.707   116974987.509          47.000                                                    22463804.867    88152796.307          44.000    22463800.203    95051657.990          48.000    22463800.257   118048083.886          45.000  
C20  24990444.973   130131866.908          45.000                                                    24990448.815    98067859.494          43.000    24990443.794   105742669.218          47.000    24990440.113   131325761.450          40.000  
C22                                                                                                  23273975.754    91332153.206          32.000    23273965.354    98479730.506          37.000    23273974.592   122305590.007          34.000  
C30  25136294.673   130891281.543          47.000                                                    25136301.213    98640240.424          42.000    25136295.441   106359903.125          43.000    25136288.544   132092090.674          40.000  
C36  22459971.908   116954971.968          46.000                                                    22459979.395    88137970.783          47.000    22459972.694    95035580.165          47.000    22459968.852   118028026.118          43.000  
C39  26021998.742   135503486.654          31.000                                                    26021995.919   102115882.755          29.000    26021988.860   110107631.843          34.000    26022001.029   136746500.637          33.000  
> 2026 06 07 17 15 03.0000000  0 14                     
C01  38580772.936   200900315.459          38.000                                                                                                    38580769.130   163247872.293          35.000                                                  
C02  36973724.625   192531829.860          40.000                                                                                                    36973714.547   156447877.935          36.000                                                  
C03  37009879.805   192720154.288          36.000                                                                                                    37009868.458   156600871.231          42.000                                                  
C07  37171365.704   193561048.735          33.000                                                                                                    37171356.787   157284152.517          40.000                                                  
C08  38066839.768   198224036.762          47.000                                                                                                    38066835.337   161073282.308          47.000                                                  
C09  38963629.672   202893732.629          35.000    38963628.207   156890383.066          37.000                                                    38963623.239   164867837.132          33.000                                                  
C10  37311551.173   194291022.741          38.000    37311550.744   150238115.858          43.000                                                    37311546.509   157877395.946          37.000                                                  
C12  23142170.374   120507413.036          46.000                                                                                                    23142164.781    97922049.617          47.000                                                  
C19  22468161.674   116997664.728          47.000                                                    22468162.639    88169885.966          46.000    22468154.562    95070085.074          47.000    22468155.563   118070969.136          45.000  
C20  24999926.134   130181238.855          43.000                                                    24999928.010    98105066.403          42.000    24999924.597   105782788.014          46.000    24999921.131   131375586.339          43.000  
C22                                                                                                  23269394.547    91314181.813          35.000    23269386.774    98460352.651          37.000    23269394.940   122281523.979          30.000  
C30  25129294.394   130854830.550          48.000                                                    25129300.040    98612770.914          42.000    25129295.752   106330283.728          41.000    25129286.531   132055305.330          40.000  
C36  22458298.938   116946261.467          45.000                                                    22458306.265    88131406.544          47.000    22458300.368    95028502.231          46.000    22458295.007   118019235.705          41.000  
C39  26016360.011   135474132.249          32.000                                                    26016352.720   102093761.074          29.000    26016356.491   110083778.888          36.000    26016365.872   136716876.952          37.000  
> 2026 06 07 17 15 18.0000000  0 14                     
C01  38580748.348   200900187.610          38.000                                                                                                    38580744.506   163247768.325          36.000                                                  
C02  36973925.383   192532874.968          40.000                                                                                                    36973915.323   156448727.216          36.000                                                  
C03  37010028.154   192720925.816          37.000                                                                                                    37010016.646   156601498.149          43.000                                                  
C07  37171218.445   193560281.310          34.000                                                                                                    37171209.100   157283528.898          40.000                                                  
C08  38062052.032   198199105.139          46.000                                                                                                    38062046.635   161053023.367          47.000                                                  
C09  38969250.302   202923005.416          36.000    38969250.141   156913018.586          36.000                                                    38969244.745   164891623.636          33.000                                                  
C10  37311396.999   194290221.443          38.000    37311397.160   150237496.246          43.000                                                    37311392.425   157876744.759          37.000                                                  
C12  23150215.205   120549307.666          42.000                                                                                                    23150209.701    97956092.422          47.000                                                  
C19  22472542.194   117020472.213          48.000                                                    22472542.408    88187073.791          46.000    22472535.117    95088618.031          47.000    22472536.475   118093985.890          44.000  
C20  25009416.890   130230657.498          44.000                                                    25009415.872    98142308.447          41.000    25009413.870   105822944.702          45.000    25009412.512   131425458.381          44.000  
C22                                                                                                  23264838.232    91296306.185          37.000    23264832.389    98441078.002          38.000    23264839.930   122257586.169          28.000  
C30  25122298.028   130818399.856          47.000                                                    25122303.389    98585316.704          42.000    25122298.600   106300680.885          39.000    25122290.487   132018540.409          42.000  
C36  22456637.351   116937609.559          43.000                                                    22456644.660    88124886.449          48.000    22456639.710    95021471.924          47.000    22456633.152   118010504.392          40.000  
C39  26010731.805   135444825.138          37.000                                                    26010724.586   102071674.963          31.000    26010727.034   110059964.351          37.000    26010738.273   136687300.990          36.000  
> 2026 06 07 17 15 33.0000000  0 14                     
C01  38580725.136   200900066.873          39.000                                                                                                    38580721.402   163247670.208          36.000                                                  
C02  36974127.625   192533927.299          40.000                                                                                                    36974117.654   156449582.293          37.000                                                  
C03  37010177.861   192721704.296          36.000                                                                                                    37010166.085   156602130.773          42.000                                                  
C07  37171069.543   193559507.072          35.000                                                                                                    37171059.625   157282899.730          40.000                                                  
C08  38057269.066   198174199.333          46.000                                                                                                    38057263.259   161032785.435          47.000                                                  
C09  38974873.701   202952291.588          36.000    38974874.648   156935664.489          36.000                                                    38974868.823   164915421.066          33.000                                                  
C10  37311241.003   194289409.660          39.000    37311241.449   150236868.546          43.000                                                    37311236.482   157876085.160          36.000                                                  
C12  23158272.633   120591274.019          40.000                                                                                                    23158268.720    97990193.566          48.000                                                  
C19  22476945.442   117043399.582          47.000                                                    22476943.781    88204351.928          46.000    22476937.723    95107248.372          47.000    22476939.617   118117123.570          43.000  
C20  25018914.919   130280112.261          44.000                                                    25018913.168    98179577.755          41.000    25018909.934   105863130.753          44.000    25018910.595   131475366.908          44.000  
C22  23260316.029   121122571.4991         33.000                                                    23260304.557    91278518.618          38.000    23260300.287    98421898.339          38.000    23260309.525   122233766.374          29.000  
C30  25115303.717   130781979.539          48.000                                                    25115309.006    98557870.282          42.000    25115301.841   106271086.510          37.000    25115296.909   131981785.976          43.000  
C36  22454985.074   116929005.936          42.000                                                    22454991.954    88118402.754          48.000    22454988.541    95014480.812          48.000    22454981.268   118001821.802          40.000  
C39  26005112.229   135415554.942          39.000                                                    26005107.029   102049616.718          34.000    26005105.046   110036179.844          37.000    26005116.375   136657762.312          33.000  
> 2026 06 07 17 15 48.0000000  0 14                     
C01  38580699.262   200899932.229          39.000                                                                                                    38580695.331   163247560.857          36.000                                                  
C02  36974327.133   192534965.761          40.000                                                                                                    36974317.483   156450426.142          36.000                                                  
C03  37010324.851   192722468.825          36.000                                                                                                    37010312.897   156602752.041          42.000                                                  
C07  37170915.119   193558705.007          35.000                                                                                                    37170905.112   157282247.951          40.000                                                  
C08  38052486.922   198149298.404          46.000                                                                                                    38052481.580   161012551.428          47.000                                                  
C09  38980495.725   202981569.966          38.000    38980497.833   156958304.398          36.000                                                    38980491.472   164939212.163          33.000                                                  
C10  37311079.091   194288566.383          39.000    37311079.574   150236216.496          43.000                                                    37311074.303   157875399.963          35.000                                                  
C12  23166341.051   120633290.926          43.000                                                                                                    23166337.727    98024335.745          48.000                                                  
C19  22481367.150   117066425.580          46.000                                                    22481365.649    88221704.421          45.000    22481358.519    95125958.868          46.000    22481361.325   118140360.845          44.000  
C20  25028415.682   130329581.900          45.000                                                    25028415.718    98216858.236          42.000    25028409.053   105903328.854          43.000    25028409.750   131525290.376          43.000  
C22  23255801.939   121099064.289          36.000                                                    23255789.734    91260803.492          38.000    23255786.161    98402796.821          37.000    23255797.043   122210043.451          31.000  
C30  25108307.727   130745548.892          47.000                                                    25108312.783    98530416.087          42.000    25108308.155   106241483.743          37.000    25108301.240   131945021.090          45.000  
C36  22453337.801   116920429.467          43.000                                                    22453344.359    88111939.530          48.000    22453341.428    95007511.761          48.000    22453334.531   117993166.623          39.000  
C39  25999495.566   135386300.794          39.000                                                    25999490.242   102027570.496          36.000    25999486.346   110012408.369          36.000    25999495.298   136628239.871          34.000  
> 2026 06 07 17 16 03.0000000  0 14                     
C01  38580675.317   200899807.640          39.000                                                                                                    38580671.297   163247459.625          35.000                                                  
C02  36974528.624   192536014.390          40.000                                                                                                    36974518.849   156451278.282          36.000                                                  
C03  37010473.700   192723243.417          36.000                                                                                                    37010461.603   156603381.461          42.000                                                  
C07  37170759.980   193557899.208          36.000                                                                                                    37170750.777   157281593.146          40.000                                                  
C08  38047710.551   198124426.352          46.000                                                                                                    38047706.012   160992340.927          47.000                                                  
C09  38986121.233   203010864.384          39.000    38986124.253   156980956.727          37.000                                                    38986117.284   164963016.386          33.000                                                  
C10  37310915.679   194287715.636          39.000    37310916.126   150235558.651          42.000                                                    37310910.461   157874708.626          35.000                                                  
C12  23174424.604   120675382.022          45.000                                                                                                    23174421.262    98058538.213          48.000                                                  
C19  22485812.552   117089574.065          46.000                                                    22485811.837    88239149.175          46.000    22485804.279    95144768.879          47.000    22485807.906   118163721.769          41.000  
C20  25037922.985   130379090.120          45.000                                                    25037925.576    98254167.821          43.000    25037915.498   105943558.296          42.000    25037916.499   131575252.815          43.000  
C22  23251310.542   121075677.314          37.000                                                    23251297.837    91243179.034          39.000    23251294.210    98383793.010          37.000    23251307.361   122186441.993          30.000  
C30  25101314.130   130709132.172          46.000                                                    25101319.866    98502972.404          43.000    25101317.186   106211892.291          38.000    25101308.305   131908270.255          44.000  
C36  22451700.891   116911904.011          43.000                                                    22451707.145    88105514.790          48.000    22451701.999    95000584.185          47.000    22451697.728   117984562.955          38.000  
C39  25993886.587   135357086.593          36.000                                                    25993881.602   102005554.420          39.000    25993872.810   109988669.303          34.000    25993884.658   136598757.627          36.000  
> 2026 06 07 17 16 18.0000000  0 14                     
C01  38580652.248   200899687.552          38.000                                                                                                    38580648.389   163247362.051          35.000                                                  
C02  36974730.990   192537067.632          40.000                                                                                                    36974721.270   156452134.169          36.000                                                  
C03  37010623.371   192724022.392          36.000                                                                                                    37010611.202   156604014.474          42.000                                                  
C07  37170602.875   193557084.035          35.000                                                                                                    37170594.888   157280930.736          40.000                                                  
C08  38042938.807   198099577.766          45.000                                                                                                    38042934.804   160972149.455          47.000                                                  
C09  38991748.778   203040169.392          39.000    38991752.923   157003617.242          37.000                                                    38991745.651   164986829.068          32.000                                                  
C10  37310749.730   194286851.888          39.000    37310750.158   150234890.742          42.000                                                    37310743.976   157874006.805          34.000                                                  
C12  23182521.916   120717541.538          46.000                                                                                                    23182517.949    98092796.240          48.000                                                  
C19  22490280.916   117112839.332          48.000                                                    22490280.076    88256681.936          47.000    22490274.090    95163673.789          48.000    22490274.036   118187200.370          38.000  
C20  25047436.399   130428631.043          45.000                                                    25047440.777    98291502.047          44.000    25047428.662   105983814.297          42.000    25047430.985   131625248.245          43.000  
C22  23246841.178   121052405.316          37.000                                                    23246828.509    91225641.149          39.000    23246824.113    98364882.624          37.000    23246840.731   122162956.491          28.000  
C30  25094321.607   130672724.161          44.000                                                    25094328.986    98475535.201          43.000    25094328.611   106182307.833          39.000    25094317.497   131871528.161          43.000  
C36  22450072.666   116903423.984          42.000                                                    22450078.866    88099124.243          49.000    22450072.398    94993693.479          47.000    22450068.842   117976005.168          38.000  
C39  25988283.291   135327906.875          32.000                                                    25988277.894   101983564.107          39.000    25988268.245   109964958.142          33.000    25988281.254   136569309.932          34.000  
> 2026 06 07 17 16 33.0000000  0 14                     
C01  38580625.642   200899549.142          39.000                                                                                                    38580621.907   163247249.565          37.000                                                  
C02  36974929.765   192538102.583          40.000                                                                                                    36974920.313   156452975.121          36.000                                                  
C03  37010769.486   192724782.981          36.000                                                                                                    37010757.228   156604632.517          43.000                                                  
C07  37170439.052   193556236.684          36.000                                                                                                    37170432.583   157280242.206          41.000                                                  
C08  38038166.920   198074729.782          44.000                                                                                                    38038162.971   160951958.461          46.000                                                  
C09  38997373.571   203069461.958          37.000    38997379.039   157026268.119          35.000                                                    38997372.320   165010631.625          31.000                                                  
C10  37310577.061   194285952.256          39.000    37310577.258   150234195.096          42.000                                                    37310570.593   157873275.761          34.000                                                  
C12  23190627.197   120759746.218          44.000                                                                                                    23190622.712    98127090.964          47.000                                                  
C19  22494767.381   117136198.301          48.000                                                    22494767.113    88274285.320          48.000    22494759.340    95182654.811          49.000    22494759.411   118210773.577          41.000  
C20  25056951.761   130478181.530          45.000                                                    25056957.158    98328843.501          44.000    25056945.400   106024078.129          44.000    25056945.597   131675253.303          41.000  
C22  23242389.593   121029225.598          34.000                                                    23242376.728    91208172.778          39.000    23242371.188    98346047.200          38.000    23242409.410   122139670.9321         26.000  
C30  25087326.760   130636302.237          47.000                                                    25087334.336    98448087.563          43.000    25087336.748   106152712.072          40.000    25087323.061   131834772.038          40.000  
C36  22448447.728   116894966.425          41.000                                                    22448454.089    88092750.589          48.000    22448448.764    94986820.984          47.000    22448443.725   117967469.969          40.000  
C39  25982682.835   135298738.314          36.000                                                    25982675.473   101961582.420          39.000    25982670.220   109941256.254          33.000    25982678.958   136539873.914          32.000  
> 2026 06 07 17 16 48.0000000  0 14                     
C01  38580598.320   200899406.899          39.000                                                                                                    38580594.496   163247134.045          36.000                                                  
C02  36975127.915   192539133.816          40.000                                                                                                    36975118.301   156453813.120          36.000                                                  
C03  37010914.868   192725539.746          37.000                                                                                                    37010902.485   156605247.439          43.000                                                  
C07  37170271.941   193555371.686          37.000                                                                                                    37170266.402   157279539.405          41.000                                                  
C08  38033397.588   198049897.026          44.000                                                                                                    38033393.103   160931779.862          46.000                                                  
C09  39002998.400   203098756.515          35.000    39003005.315   157048920.432          34.000                                                    39002998.793   165034435.807          30.000                                                  
C10  37310400.462   194285031.295          40.000    37310400.390   150233482.993          42.000                                                    37310392.778   157872527.445          33.000                                                  
C12  23198742.521   120802010.396          43.000                                                                                                    23198739.055    98161434.045          46.000                                                  
C19  22499273.752   117159665.286          45.000                                                    22499274.198    88291970.156          49.000    22499266.014    95201723.667          50.000    22499266.836   118234455.882          42.000  
C20  25066472.145   130527755.861          46.000                                                    25066477.237    98366202.940          44.000    25066468.589   106064361.308          45.000    25066465.319   131725282.438          42.000  
C22  23237958.719   121006152.817          28.000                                                    23237945.228    91190785.095          39.000    23237938.777    98327298.720          37.000                                                  
C30  25080333.038   130599881.249          46.000                                                    25080339.471    98420640.645          42.000    25080337.935   106123117.177          40.000    25080325.426   131798016.939          37.000  
C36  22446830.171   116886545.640          42.000                                                    22446837.068    88086404.730          48.000    22446832.869    94979978.450          47.000    22446826.775   117958971.971          41.000  
C39  25977088.223   135269595.697          35.000                                                    25977079.127   101939620.263          38.000    25977078.055   109917575.424          33.000    25977082.165   136510464.094          33.000  
> 2026 06 07 17 17 03.0000000  0 14                     
C01  38580574.643   200899283.688          39.000                                                                                                    38580570.837   163247033.891          36.000                                                  
C02  36975329.710   192540184.109          40.000                                                                                                    36975320.346   156454666.604          36.000                                                  
C03  37011063.825   192726315.309          37.000                                                                                                    37011051.406   156605877.698          42.000                                                  
C07  37170106.134   193554511.986          37.000                                                                                                    37170100.809   157278840.868          40.000                                                  
C08  38028635.887   198025102.405          44.000                                                                                                    38028630.276   160911632.253          46.000                                                  
C09  39008627.821   203128075.719          34.000    39008636.077   157071591.910          33.000                                                                                                                                                  
C10  37310224.059   194284111.823          40.000    37310223.916   150232772.026          42.000                                                    37310215.785   157871780.308          33.000                                                  
C12  23206873.159   120844356.528          40.000                                                                                                    23206871.604    98195843.776          46.000                                                  
C19  22503805.139   117183262.943          46.000                                                    22503804.907    88309753.465          49.000    22503799.511    95220898.734          51.000    22503800.011   118258270.084          41.000  
C20  25076001.695   130577376.583          47.000                                                    25076005.769    98403597.300          43.000    25075999.765   106104682.180          45.000    25075996.191   131775358.422          42.000  
C22                                                                                                  23233538.387    91173495.345          38.000    23233531.543    98308655.860          37.000                                                  
C30  25073343.820   130563484.346          42.000                                                    25073349.252    98393211.874          41.000    25073343.695   106093541.831          41.000    25073334.636   131761286.096          38.000  
C36  22445224.978   116878184.436          44.000                                                    22445232.054    88080103.748          47.000    22445227.784    94973184.336          47.000    22445220.243   117950534.126          42.000  
C39  25971503.009   135240501.845          33.000                                                    25971492.610   101917694.811          37.000    25971491.269   109893934.112          30.000    25971495.540   136481103.458          32.000  
> 2026 06 07 17 17 18.0000000  0 14                     
C01  38580550.878   200899159.736          39.000                                                                                                    38580547.071   163246933.209          36.000                                                  
C02  36975531.344   192541233.759          41.000                                                                                                    36975521.748   156455519.555          36.000                                                  
C03  37011212.620   192727090.184          36.000                                                                                                    37011200.112   156606507.354          42.000                                                  
C07  37169937.665   193553637.880          36.000                                                                                                    37169932.430   157278130.584          39.000                                                  
C08  38023878.009   198000326.274          43.000                                                                                                    38023871.451   160891499.679          46.000                                                  
C09  39014257.939   203157399.822          33.000    39014267.017   157094267.211          33.000                                                                                                                                                  
C10  37310044.028   194283174.165          40.000    37310043.939   150232046.978          42.000                                                    37310035.809   157871018.401          33.000                                                  
C12  23215017.484   120886764.699          43.000                                                                                                    23215015.608    98230303.884          46.000                                                  
C19  22508357.541   117206971.418          43.000                                                    22508356.737    88327620.251          48.000    22508351.930    95240163.806          51.000    22508353.145   118282196.059          37.000  
C20  25085536.033   130627023.645          45.000                                                    25085539.214    98441011.487          43.000    25085532.942   106145024.455          45.000    25085529.976   131825460.901          41.000  
C22  23229163.371   120960317.9831         33.000                                                    23229152.507    91156288.890          38.000    23229146.717    98290102.728          38.000    23229159.494   122070081.591          32.000  
C30  25066355.049   130527092.136          42.000                                                    25066360.463    98365786.596          41.000    25066354.870   106063970.198          42.000    25066345.793   131724559.995          36.000  
C36  22443627.488   116869863.001          43.000                                                    22443633.599    88073832.704          46.000    22443628.578    94966422.512          45.000    22443621.805   117942136.386          43.000  
C39                                                                                                  25965909.630   101895791.123          36.000    25965900.588   109870316.522          29.000    25965914.222   136451771.909          30.000  
> 2026 06 07 17 17 33.0000000  0 14                     
C01  38580527.165   200899036.225          39.000                                                                                                    38580523.359   163246832.842          36.000                                                  
C02  36975733.032   192542283.915          40.000                                                                                                    36975723.650   156456372.914          35.000                                                  
C03  37011361.576   192727865.300          36.000                                                                                                    37011348.978   156607137.247          42.000                                                  
C07  37169766.551   193552750.426          35.000                                                                                                    37169761.637   157277409.482          39.000                                                  
C08  38019123.920   197975569.803          43.000                                                                                                    38019117.219   160871383.075          46.000                                                  
C09  39019888.808   203186729.898          32.000    39019898.189   157116946.990          32.000                                                                                                                                                  
C10  37309860.656   194282219.398          41.000    37309860.764   150231308.694          42.000                                                    37309852.329   157870242.525          32.000                                                  
C12  23223174.497   120929235.742          43.000                                                                                                    23223172.174    98264815.055          46.000                                                  
C19  22512931.528   117230791.575          44.000                                                    22512931.171    88345571.243          48.000    22512925.364    95259519.679          51.000    22512927.204   118306234.635          38.000  
C20  25095075.072   130676697.797          45.000                                                    25095077.502    98478446.149          42.000    25095070.015   106185388.800          44.000    25095069.943   131875590.867          40.000  
C22  23224799.595   120937597.458          37.000                                                    23224788.552    91139166.581          37.000    23224784.317    98271640.440          39.000    23224796.325   122047152.604          36.000  
C30  25059368.225   130490705.963          43.000                                                    25059372.424    98338365.902          40.000    25059367.671   106034403.525          43.000    25059359.523   131687840.003          36.000  
C36  22442037.431   116861582.401          41.000                                                    22442042.219    88067592.444          46.000    22442037.448    94959693.870          45.000    22442032.588   117933779.837          44.000  
C39                                                                                                  25960333.405   101873910.141          35.000    25960328.026   109846723.224          31.000                                                  
> 2026 06 07 17 17 48.0000000  0 14                     
C01  38580502.381   200898907.649          39.000                                                                                                    38580498.628   163246728.376          36.000                                                  
C02  36975933.701   192543329.079          40.000                                                                                                    36975924.516   156457222.198          35.000                                                  
C03  37011509.496   192728635.330          37.000                                                                                                    37011496.827   156607762.978          42.000                                                  
C07  37169592.239   193551844.239          35.000                                                                                                    37169587.700   157276673.197          38.000                                                  
C08  38014372.457   197950827.592          43.000                                                                                                    38014366.185   160851278.068          46.000                                                  
C09  39025519.605   203216060.163          30.000    39025528.843   157139626.946          29.000                                                                                                                                                  
C10  37309673.049   194281242.079          41.000    37309673.139   150230552.985          41.000                                                    37309665.133   157869448.394          32.000                                                  
C12  23231342.213   120971763.923          42.000                                                                                                    23231340.336    98299372.662          45.000                                                  
C19  22517527.066   117254717.930          45.000                                                    22517526.208    88363602.209          49.000    22517520.669    95278961.774          51.000    22517522.223   118330380.524          40.000  
C20  25104618.577   130726393.466          45.000                                                    25104619.882    98515896.983          42.000    25104611.894   106225770.574          43.000    25104612.413   131925742.398          41.000  
C22  23220456.636   120914983.360          39.000                                                    23220445.111    91122124.601          37.000    23220442.162    98253264.674          38.000    23220453.348   122024331.046          38.000  
C30  25052381.401   130454320.735          39.000                                                    25052384.528    98310945.918          39.000    25052380.454   106004837.584          44.000    25052372.896   131651120.898          32.000  
C36  22440453.753   116853337.118          42.000                                                    22440458.399    88061378.715          45.000    22440454.324    94952993.836          45.000    22440450.036   117925458.783          42.000  
C39                                                                                                  25954764.077   101852047.640          37.000    25954755.643   109823149.812          30.000                                                  
> 2026 06 07 17 18 03.0000000  0 14                     
C01  38580476.435   200898772.694          39.000                                                                                                    38580472.754   163246618.730          35.000                                                  
C02  36976133.173   192544367.973          40.000                                                                                                    36976123.720   156458066.368          35.000                                                  
C03  37011656.147   192729398.946          37.000                                                                                                    37011643.424   156608383.493          42.000                                                  
C07  37169414.389   193550918.055          36.000                                                                                                    37169409.904   157275920.621          37.000                                                  
C08  38009623.300   197926098.445          42.000                                                                                                    38009617.725   160831183.654          46.000                                                  
C09  39031151.028   203245389.433          31.000    39031159.801   157162327.2191         29.000                                                    39031152.654   165153579.9591         28.000                                                  
C10  37309480.868   194280240.956          41.000    37309480.832   150229778.835          40.000                                                    37309473.488   157868634.903          33.000                                                  
C12  23239519.489   121014347.616          39.000                                                                                                    23239518.685    98333975.370          45.000                                                  
C19  22522141.920   117278748.804          43.000                                                    22522141.330    88381711.984          49.000    22522135.505    95298488.865          51.000    22522135.630   118354631.909          36.000  
C20  25114166.086   130776108.996          44.000                                                    25114166.622    98553362.746          42.000    25114160.725   106266168.445          44.000    25114160.010   131975914.045          42.000  
C22  23216133.852   120892474.672          38.000                                                    23216122.290    91105161.966          37.000    23216118.949    98234974.573          38.000    23216130.439   122001615.842          40.000  
C30  25045393.345   130417935.442          40.000                                                    25045395.418    98283525.893          38.000    25045393.238   105975271.594          45.000    25045385.643   131614401.805          29.000  
C36  22438877.222   116845125.582          44.000                                                    22438882.440    88055190.459          45.000    22438877.365    94946321.283          45.000    22438874.202   117917171.868          40.000  
C39  25949225.788   135124424.2391         28.000                                                    25949197.162   101830202.572          35.000    25949191.426   109799595.302          29.000    25949216.532   136364060.6471         29.000  
> 2026 06 07 17 18 18.0000000  0 14                     
C01  38580449.078   200898630.565          39.000                                                                                                    38580445.289   163246503.198          35.000                                                  
C02  36976331.304   192545399.697          41.000                                                                                                    36976322.459   156458904.844          35.000                                                  
C03  37011801.422   192730155.257          37.000                                                                                                    37011788.610   156608998.105          42.000                                                  
C07  37169232.786   193549971.055          36.000                                                                                                    37169228.354   157275151.163          36.000                                                  
C08  38004875.965   197901381.584          42.000                                                                                                    38004871.480   160811099.191          47.000                                                  
C09  39036783.236   203274716.805          33.000    39036791.992   157185004.925          32.000                                                    39036786.346   165177410.858          29.000                                                  
C10  37309283.809   194279215.158          41.000    37309283.541   150228985.607          38.000                                                    37309276.804   157867801.391          33.000                                                  
C12  23247707.968   121056985.661          43.000                                                                                                    23247707.057    98368622.307          44.000                                                  
C19  22526776.054   117302883.236          41.000                                                    22526776.447    88399899.836          50.000    22526769.997    95318100.111          51.000    22526768.621   118378987.678          37.000  
C20  25123717.329   130825843.277          44.000                                                    25123717.650    98590842.716          42.000    25123714.666   106306581.599          45.000    25123710.735   132026104.657          41.000  
C22  23211831.062   120870070.760          35.000                                                    23211820.001    91088278.251          38.000    23211814.623    98216769.554          36.000    23211827.846   121979006.301          39.000  
C30  25038405.109   130381549.507          41.000                                                    25038406.539    98256105.438          37.000    25038406.771   105945705.072          45.000    25038396.371   131577682.250          34.000  
C36  22437307.089   116836946.905          43.000                                                    22437311.753    88049026.965          44.000    22437306.499    94939675.428          46.000    22437302.944   117908918.175          39.000  
C39  25943666.056   135095459.470          31.000                                                    25943632.265   101808374.434          33.000    25943629.388   109775989.8171         29.000                                                  
> 2026 06 07 17 18 33.0000000  0 14                     
C01  38580420.666   200898482.699          39.000                                                                                                    38580416.878   163246383.090          35.000                                                  
C02  36976528.453   192546425.806          41.000                                                                                                    36976519.358   156459738.634          35.000                                                  
C03  37011945.661   192730905.835          37.000                                                                                                    37011932.724   156609608.017          43.000                                                  
C07  37169047.305   193549004.730          36.000                                                                                                    37169042.838   157274366.010          35.000                                                  
C08  38000131.203   197876678.523          43.000                                                                                                    38000127.880   160791025.963          47.000                                                  
C09  39042416.249   203304043.551          35.000    39042423.558   157207682.376          31.000                                                    39042420.538   165201255.3671         30.000                                                  
C10  37309082.121   194278166.226          40.000    37309081.442   150228174.511          37.000                                                    37309075.617   157866948.998          33.000                                                  
C12  23255908.027   121099679.460          44.000                                                                                                    23255905.240    98403314.461          44.000                                                  
C19  22531430.899   117327122.580          40.000                                                    22531431.113    88418166.717          49.000    22531424.663    95337796.580          51.000    22531425.324   118403449.443          42.000  
C20  25133272.324   130875597.529          44.000                                                    25133273.503    98628337.685          43.000    25133270.305   106347010.998          46.000    25133264.694   132076315.344          40.000  
C22  23207548.197   120847773.200          32.000                                                    23207538.030    91071474.718          38.000    23207530.667    98198650.951          35.000    23207545.141   121956504.141          38.000  
C30  25031417.088   130345164.750          42.000                                                    25031420.698    98228685.771          38.000    25031420.609   105916139.479          45.000    25031409.298   131540963.594          37.000  
C36  22435743.049   116828802.437          42.000                                                    22435747.713    88042889.266          43.000    22435742.674    94933057.421          47.000    22435738.779   117900699.022          40.000  
C39  25938103.268   135066518.506          34.000                                                    25938072.569   101786564.038          30.000                                                    25938088.365   136305599.627          31.000  
> 2026 06 07 17 18 48.0000000  0 14                     
C01  38580393.237   200898340.058          39.000                                                                                                    38580389.502   163246267.204          35.000                                                  
C02  36976726.621   192547457.213          41.000                                                                                                    36976717.418   156460576.813          35.000                                                  
C03  37012090.793   192731661.524          37.000                                                                                                    37012077.820   156610222.107          42.000                                                  
C07  37168859.609   193548030.092          34.000                                                                                                    37168855.696   157273574.001          34.000                                                  
C08  37995391.713   197852000.292          45.000                                                                                                    37995388.997   160770972.924          48.000                                                  
C09  39048051.693   203333380.577          36.000                                                                                                    39048054.552   165225094.058          30.000                                                  
C10  37308878.057   194277105.073          39.000    37308876.752   150227353.940          36.000                                                    37308872.071   157866086.783          34.000                                                  
C12  23264120.112   121142439.465          44.000                                                                                                    23264116.342    98438060.431          44.000                                                  
C19  22536107.830   117351477.531          40.000                                                    22536107.633    88436520.747          49.000    22536101.343    95357587.018          51.000    22536102.719   118428027.934          43.000  
C20  25142832.502   130925382.423          42.000                                                    25142835.378    98665855.779          44.000    25142830.357   106387465.305          46.000    25142826.122   132126556.948          40.000  
C22  23203287.257   120825593.169          34.000                                                    23203278.448    91054759.804          38.000    23203270.800    98180627.918          34.000    23203285.649   121934120.582          37.000  
C30  25024431.944   130308792.377          42.000                                                    25024438.663    98201275.532          39.000    25024435.393   105886584.010          45.000    25024424.582   131504257.538          39.000  
C36  22434187.819   116820703.063          39.000                                                    22434192.518    88036785.588          43.000    22434187.980    94926476.069          48.000    22434183.441   117892525.474          39.000  
C39  25932546.735   135037612.177          39.000                                                    25932524.005   101764779.864          29.000                                                    25932537.032   136276428.084          29.000  
> 2026 06 07 17 19 03.0000000  0 14                     
C01  38580368.864   200898213.271          38.000                                                                                                    38580365.218   163246164.223          35.000                                                  
C02  36976927.897   192548504.488          41.000                                                                                                    36976918.820   156461427.781          34.000                                                  
C03  37012238.892   192732432.947          38.000                                                                                                    37012225.883   156610848.971          42.000                                                  
C07  37168671.645   193547057.753          31.000                                                                                                    37168668.482   157272783.986          33.000                                                  
C08  37990659.531   197827357.517          45.000                                                                                                    37990656.690   160750948.717          48.000                                                  
C09  39053691.424   203362738.390          36.000    39053691.388   157253031.8821         29.000                                                    39053692.943   165248949.670          31.000                                                  
C10  37308673.689   194276042.291          39.000    37308671.723   150226532.156          36.000                                                    37308668.185   157865223.157          33.000                                                  
C12  23272346.849   121185276.059          44.000                                                                                                    23272344.383    98472868.649          45.000                                                  
C19  22540808.348   117375958.520          42.000                                                    22540808.759    88454969.721          49.000    22540803.344    95377479.852          51.000    22540803.487   118452733.560          41.000  
C20  25152400.559   130975208.215          41.000                                                    25152404.919    98703404.703          44.000    25152397.718   106427952.830          46.000    25152394.698   132176839.825          39.000  
C22  23199051.494   120803541.376          38.000                                                    23199043.096    91038141.513          37.000    23199038.021    98162709.136          33.000    23199051.280   121911866.561          36.000  
C30  25017451.589   130272443.281          41.000                                                    25017459.630    98173882.771          40.000    25017453.108   105857047.472          43.000    25017444.996   131467574.952          40.000  
C36  22432642.792   116812659.379          34.000                                                    22432647.670    88030723.794          44.000    22432644.150    94919939.879          49.000    22432638.307   117884407.918          39.000  
C39  25927000.619   135008750.950          39.000                                                    25926987.860   101743029.774          30.000                                                    25926992.899   136247302.193          31.000  
> 2026 06 07 17 19 18.0000000  0 14                     
C01  38580344.955   200898088.961          39.000                                                                                                    38580341.435   163246063.155          35.000                                                  
C02  36977129.621   192549554.301          41.000                                                                                                    36977120.651   156462280.889          35.000                                                  
C03  37012387.472   192733206.746          38.000                                                                                                    37012374.571   156611477.779          42.000                                                  
C07  37168482.215   193546074.281          31.000                                                                                                    37168478.624   157271984.861          32.000                                                  
C08  37985931.584   197802736.991          45.000                                                                                                    37985928.547   160730942.579          48.000                                                  
C09  39059331.513   203392103.586          34.000    39059332.174   157275738.870          32.000                                                    39059332.031   165272811.330          31.000                                                  
C10  37308466.569   194274964.613          39.000    37308463.906   150225698.789          36.000                                                    37308461.530   157864347.548          34.000                                                  
C12  23280584.844   121228175.603          44.000                                                                                                    23280584.487    98507728.047          45.000                                                  
C19  22545531.613   117400552.039          45.000                                                    22545532.310    88473503.483          50.000    22545526.824    95397464.115          52.000    22545526.181   118477552.676          43.000  
C20  25161974.406   131025061.247          42.000                                                    25161979.320    98740974.172          44.000    25161970.636   106468462.502          45.000    25161968.313   132227150.183          40.000  
C22  23194838.247   120781604.722          39.000                                                    23194829.866    91021609.966          37.000    23194828.240    98144883.839          33.000    23194839.283   121889728.642          35.000  
C30  25010473.271   130236104.455          41.000                                                    25010480.669    98146497.778          39.000    25010473.325   105827519.263          43.000    25010468.268   131430902.740          40.000  
C36  22431104.358   116804657.915          38.000                                                    22431110.916    88024693.788          44.000    22431108.504    94913437.970          50.000    22431100.105   117876332.924          37.000  
C39  25921461.954   134979921.683          34.000                                                    25921453.109   101721303.581          28.000    25921450.554   109682139.5331         29.000    25921455.861   136218208.481          32.000  
> 2026 06 07 17 19 33.0000000  0 14                     
C01  38580317.580   200897946.372          38.000                                                                                                    38580313.756   163245947.339          35.000                                                  
C02  36977327.770   192550585.926          41.000                                                                                                    36977318.550   156463119.200          34.000                                                  
C03  37012532.587   192733962.222          38.000                                                                                                    37012519.471   156612091.658          42.000                                                  
C07  37168288.283   193545059.096          33.000                                                                                                    37168282.368   157271160.117          31.000                                                  
C08  37981203.602   197778118.046          45.000                                                                                                    37981200.778   160710937.700          48.000                                                  
C09  39064967.260   203421455.176          31.000    39064968.922   157298435.442          32.000                                                    39064966.992   165296661.958          31.000                                                  
C10  37308252.694   194273851.279          38.000    37308249.478   150224837.880          37.000                                                    37308248.102   157863442.819          34.000                                                  
C12  23288831.148   121271117.092          44.000                                                                                                    23288829.844    98542621.524          45.000                                                  
C19  22550273.194   117425237.159          46.000                                                    22550273.194    88492106.282          51.000    22550266.958    95417522.805          51.000    22550267.655   118502464.259          42.000  
C20  25171549.612   131074920.537          43.000                                                    25171553.579    98778548.335          43.000    25171544.823   106508977.257          45.000    25171544.537   132277466.932          41.000  
C22  23190643.565   120759762.574          41.000                                                    23190635.560    91005149.732          37.000    23190636.275    98127135.427          31.000    23190645.513   121867686.172          34.000  
C30  25003493.041   130199755.443          41.000                                                    25003497.491    98119105.143          39.000    25003493.988   105797982.806          42.000    25003488.574   131394220.297          39.000  
C36  22429571.500   116796677.690          39.000                                                    22429579.023    88018679.850          46.000    22429575.735    94906953.381          50.000    22429565.889   117868279.553          36.000  
C39                                                                                                                                                  25915917.697   109658722.082          33.000    25915921.699   136189125.870          28.000  
> 2026 06 07 17 19 48.0000000  0 14                     
C01  38580292.277   200897814.839          39.000                                                                                                    38580288.632   163245840.420          35.000                                                  
C02  36977528.046   192551628.621          41.000                                                                                                    36977518.647   156463966.501          34.000                                                  
C03  37012679.738   192734728.592          37.000                                                                                                    37012666.622   156612714.420          42.000                                                  
C07  37168094.047   193544041.495          33.000                                                                                                    37168086.738   157270338.1831         29.000                                                  
C08  37976481.677   197753529.943          46.000                                                                                                    37976479.014   160690957.917          48.000                                                  
C09  39070604.919   203450822.570          28.000    39070608.582   157321144.208          33.000                                                    39070605.098   165320525.341          30.000                                                  
C10  37308037.516   194272731.517          38.000    37308034.121   150223972.049          37.000                                                    37308033.495   157862532.960          34.000                                                  
C12  23297091.622   121314129.506          45.000                                                                                                    23297086.530    98577572.613          43.000                                                  
C19  22555037.344   117450042.914          44.000                                                    22555037.218    88510800.038          51.000    22555030.107    95437679.526          51.000    22555031.250   118527497.581          43.000  
C20  25181130.821   131124815.098          40.000                                                    25181133.037    98816149.055          41.000    25181126.032   106549520.651          44.000    25181127.426   132327819.244          40.000  
C22  23186472.953   120738044.509          40.000                                                    23186465.573    90988782.905          36.000    23186468.450    98109487.768          30.000    23186474.794   121845768.836          35.000  
C30  24996516.385   130163425.924          41.000                                                    24996519.012    98091727.163          39.000    24996517.707   105768462.129          41.000    24996511.560   131357557.457          39.000  
C36  22428047.772   116788747.996          42.000                                                    22428057.225    88012703.964          47.000    22428052.418    94900509.832          50.000    22428043.806   117860277.066          40.000  
C39                                                                                                                                                  25910386.823   109635337.505          33.000    25910395.704   136160083.924          29.000  
> 2026 06 07 17 20 03.0000000  0 14                     
C01  38580267.671   200897686.949          39.000                                                                                                    38580264.115   163245736.521          35.000                                                  
C02  36977729.001   192552675.038          40.000                                                                                                    36977719.852   156464816.796          34.000                                                  
C03  37012827.604   192735498.564          37.000                                                                                                    37012814.453   156613340.100          42.000                                                  
C07  37167897.255   193543014.063          31.000                                                                                                                                                                                                  
C08  37971764.737   197728965.461          45.000                                                                                                    37971761.592   160670997.320          47.000                                                  
C09                                                  39076249.779   157343859.294          30.000                                                    39076245.294   165344395.481          30.000                                                  
C10  37307819.764   194271598.059          37.000    37307816.315   150223095.574          38.000                                                    37307816.297   157861611.907          33.000                                                  
C12  23305364.640   121357205.264          46.000                                                                                                    23305355.938    98612575.121          42.000                                                  
C19  22559822.990   117474961.831          45.000                                                    22559822.954    88529579.014          50.000    22559815.109    95457928.154          49.000    22559817.343   118552645.111          45.000  
C20  25190717.105   131174737.175          42.000                                                    25190717.337    98853770.583          39.000    25190712.817   106590086.532          44.000    25190714.050   132378199.404          39.000  
C22  23182324.785   120716443.282          41.000                                                    23182318.620    90972504.147          36.000    23182319.745    98091935.076          31.000    23182325.517   121823969.338          37.000  
C30  24989541.998   130127108.732          41.000                                                    24989543.713    98064358.466          40.000    24989541.015   105738951.568          40.000    24989538.085   131320907.086          40.000  
C36  22426533.516   116780861.268          45.000                                                    22426542.146    88006760.550          47.000    22426537.250    94894101.273          49.000    22426529.299   117852318.023          42.000  
C39                                                                                                  25904868.940   101656253.8171         27.000    25904864.241   109611979.691          34.000    25904876.124   136131075.185          32.000  
> 2026 06 07 17 20 18.0000000  0 14                     
C01  38580241.618   200897551.162          39.000                                                                                                    38580237.919   163245626.204          36.000                                                  
C02  36977928.295   192553713.601          41.000                                                                                                    36977918.949   156465660.706          34.000                                                  
C03  37012973.952   192736260.519          37.000                                                                                                    37012960.746   156613959.274          42.000                                                  
C07  37167696.765   193541940.3981         30.000                                                                                                    37167695.889   157268668.483          29.000                                                  
C08  37967050.049   197704413.130          45.000                                                                                                    37967046.118   160651046.570          47.000                                                  
C09  39081889.296   203509628.2851         32.000    39081891.119   157366576.5841         30.000                                                    39081885.419   165368262.710          30.000                                                  
C10  37307597.169   194270439.326          36.000    37307593.846   150222199.582          38.000                                                    37307593.738   157860670.389          33.000                                                  
C12  23313646.218   121400332.399          42.000                                                                                                    23313638.945    98647619.418          42.000                                                  
C19  22564627.577   117499982.057          45.000                                                    22564626.951    88548434.372          49.000    22564619.643    95478259.130          49.000    22564622.681   118577894.913          45.000  
C20  25200307.785   131224675.186          44.000                                                    25200305.748    98891404.001          39.000    25200302.567   106630665.186          44.000    25200301.316   132428595.495          41.000  
C22  23178196.772   120694947.580          42.000                                                    23178191.537    90956304.929          34.000    23178191.805    98074468.060          33.000    23178196.451   121802276.410          38.000  
C30  24982567.683   130090792.723          41.000                                                    24982568.558    98036990.640          40.000    24982566.450   105709441.874          40.000    24982565.092   131284257.820          37.000  
C36  22425025.763   116773005.894          45.000                                                    22425032.089    88000840.783          47.000    22425028.283    94887718.216          49.000    22425020.563   117844390.605          43.000  
C39                                                                                                  25899354.613   101634622.261          31.000    25899348.806   109588639.074          33.000    25899358.098   136102087.970          29.000  
> 2026 06 07 17 20 33.0000000  0 14                     
C01  38580215.119   200897413.189          39.000                                                                                                    38580211.438   163245514.148          35.000                                                  
C02  36978127.177   192554750.055          40.000                                                                                                    36978117.653   156466502.991          33.000                                                  
C03  37013119.781   192737020.265          37.000                                                                                                    37013106.576   156614576.632          42.000                                                  
C07  37167494.755   193540876.110          31.000                                                                                                    37167492.629   157267817.640          29.000                                                  
C08  37962338.595   197679878.699          45.000                                                                                                    37962333.878   160631110.381          47.000                                                  
C09  39087530.779   203539002.562          34.000    39087534.567   157389290.739          33.000                                                    39087527.223   165392120.8361         29.000                                                  
C10  37307370.983   194269261.025          36.000    37307367.785   150221288.487          39.000                                                    37307367.177   157859713.012          32.000                                                  
C12  23321937.766   121443516.414          41.000                                                                                                    23321933.817    98682709.996          42.000                                                  
C19  22569452.856   117525109.182          46.000                                                    22569450.355    88567370.285          48.000    22569444.404    95498676.963          47.000    22569448.854   118603252.597          45.000  
C20  25209902.110   131274634.401          44.000                                                    25209900.216    98929053.399          38.000    25209896.017   106671261.119          42.000    25209895.177   132479013.046          42.000  
C22  23174090.042   120673563.240          42.000                                                    23174085.450    90940189.723          30.000    23174084.252    98057091.518          35.000    23174088.988   121780695.916          38.000  
C30  24975594.207   130054483.853          42.000                                                    24975596.459    98009628.167          41.000    24975595.243   105679938.002          40.000    24975592.367   131247615.876          35.000  
C36  22423524.337   116765187.588          42.000                                                    22423530.841    87994948.897          47.000    22423527.160    94881365.202          48.000    22423518.994   117836500.618          45.000  
C39  25893840.108   134835979.5261         31.000                                                    25893842.931   101612996.036          34.000    25893836.981   109565320.582          31.000                                                  
> 2026 06 07 17 20 48.0000000  0 14                     
C01  38580189.423   200897279.184          38.000                                                                                                    38580185.778   163245405.213          35.000                                                  
C02  36978326.684   192555790.465          40.000                                                                                                    36978316.999   156467348.357          34.000                                                  
C03  37013266.396   192737783.773          37.000                                                                                                    37013253.102   156615197.062          42.000                                                  
C07  37167290.030   193539802.523          31.000                                                                                                                                                                                                  
C08  37957631.716   197655368.351          45.000                                                                                                    37957626.516   160611193.767          47.000                                                  
C09  39093173.424   203568385.190          35.000    39093177.480   157412011.249          34.000                                                                                                                                                  
C10  37307142.367   194268069.289          35.000    37307139.186   150220366.993          40.000                                                    37307137.596   157858744.579          32.000                                                  
C12  23330243.127   121486763.143          45.000                                                                                                    23330239.357    98717851.498          43.000                                                  
C19  22574299.793   117550349.107          44.000                                                    22574297.005    88586391.170          47.000    22574291.216    95519186.414          48.000    22574296.987   118628724.079          45.000  
C20  25219501.653   131324620.629          46.000                                                    25219501.564    98966723.155          39.000    25219494.148   106711878.998          41.000    25219494.899   132529457.860          43.000  
C22  23170005.666   120652296.540          42.000                                                    23170000.162    90924163.150          29.000    23169999.251    98039810.512          37.000    23170004.379   121759234.088          38.000  
C30  24968623.966   130018188.489          43.000                                                    24968628.058    97982275.920          41.000    24968623.805   105650445.088          40.000    24968621.661   131210987.537          34.000  
C36  22422030.611   116757412.314          44.000                                                    22422039.439    87989089.418          47.000    22422033.971    94875047.146          48.000    22422026.644   117828653.973          45.000  
C39  25888340.469   134807315.827          36.000                                                    25888336.949   101591394.718          37.000    25888334.948   109542028.792          30.000    25888342.542   136044123.4991         36.000  
> 2026 06 07 17 21 03.0000000  0 14                     
C01  38580166.193   200897158.293          38.000                                                                                                    38580162.494   163245307.046          35.000                                                  
C02  36978528.783   192556844.107          40.000                                                                                                    36978519.688   156468204.615          32.000                                                  
C03  37013415.531   192738560.357          37.000                                                                                                    37013402.272   156615828.095          42.000                                                  
C07  37167086.252   193538728.718          29.000                                                                                                    37167078.782   157266076.6771         29.000                                                  
C08  37952931.037   197630891.375          45.000                                                                                                    37952926.052   160591304.252          46.000                                                  
C09  39098819.231   203597784.997          33.000    39098823.412   157434745.103          34.000                                                    39098816.229   165439888.277          29.000                                                  
C10  37306913.125   194266873.416          35.000    37306909.802   150219442.292          40.000                                                    37306906.871   157857772.867          32.000                                                  
C12  23338562.390   121530081.589          46.000                                                                                                    23338558.388    98753051.209          43.000                                                  
C19  22579170.281   117575710.796          44.000                                                    22579168.405    88605503.891          47.000    22579164.206    95539794.899          49.000    22579168.441   118654318.555          43.000  
C20  25229107.343   131374642.792          42.000                                                    25229109.559    99004420.065          40.000    25229099.570   106752526.065          40.000    25229102.375   132579938.965          43.000  
C22  23165945.413   120631156.869          41.000                                                    23165938.908    90908232.297          31.000    23165939.444    98022632.764          37.000    23165944.251   121737900.442          40.000  
C30  24961658.299   129981916.254          43.000                                                    24961662.927    97954941.065          42.000    24961656.762   105620971.027          40.000    24961654.064   131174382.578          33.000  
C36  22420547.500   116749689.206          48.000                                                    22420556.292    87983269.210          47.000    22420550.609    94868771.443          47.000    22420543.515   117820859.999          45.000  
C39  25882844.690   134778694.242          35.000                                                    25882841.260   101569825.226          38.000                                                    25882848.157   136015239.468          38.000  
> 2026 06 07 17 21 18.0000000  0 14                     
C01  38580139.836   200897021.393          38.000                                                                                                    38580136.316   163245195.739          36.000                                                  
C02  36978727.844   192557881.763          40.000                                                                                                    36978718.177   156469047.840          33.000                                                  
C03  37013561.503   192739320.789          37.000                                                                                                    37013548.494   156616446.079          42.000                                                  
C07                                                                                                                                                  37166867.946   157265180.232          29.000                                                  
C08  37948231.127   197606418.656          45.000                                                                                                    37948226.695   160571418.175          47.000                                                  
C09  39104462.804   203627173.051          32.000    39104466.968   157457469.878          33.000                                                    39104462.500   165463778.451          30.000                                                  
C10  37306677.469   194265644.149          35.000    37306673.913   150218491.750          41.000                                                    37306669.445   157856774.045          31.000                                                  
C12  23346889.015   121573442.131          45.000                                                                                                    23346885.781    98788285.222          45.000                                                  
C19  22584058.817   117601165.036          43.000                                                    22584056.315    88624686.250          47.000    22584052.330    95560478.509          49.000    22584055.851   118680006.194          41.000  
C20  25238714.462   131424671.430          43.000                                                    25238718.554    99042121.852          41.000    25238708.190   106793178.436          40.000    25238709.727   132630426.640          44.000  
C22  23161903.761   120610115.239          40.000                                                    23161898.418    90892375.210          34.000    23161899.330    98005534.655          38.000    23161902.761   121716665.726          42.000  
C30  24954691.882   129945638.102          44.000                                                    24954695.491    97927601.832          42.000    24954690.184   105591492.168          41.000    24954687.093   131137771.628          39.000  
C36  22419069.357   116741988.906          50.000                                                    22419077.219    87977466.206          47.000    22419072.198    94862514.326          47.000    22419064.568   117813089.069          45.000  
C39  25877349.948   134750085.779          32.000                                                    25877347.893   101548265.499          39.000                                                    25877355.005   135986368.525          39.000  
> 2026 06 07 17 21 33.0000000  0 14                     
C01  38580110.031   200896866.696          38.000                                                                                                    38580106.707   163245070.090          36.000                                                  
C02  36978923.599   192558901.714          40.000                                                                                                    36978914.790   156469876.596          34.000                                                  
C03  37013704.151   192740063.402          37.000                                                                                                    37013691.053   156617049.506          42.000                                                  
C07                                                                                                                                                  37166651.498   157264261.6741         30.000                                                  
C08  37943531.967   197581948.484          46.000                                                                                                    37943527.857   160551534.201          47.000                                                  
C09  39110104.287   203656547.186          33.000    39110107.968   157480183.779          32.000                                                    39110103.715   165487647.393          30.000                                                  
C10  37306435.165   194264379.879          36.000    37306431.287   150217514.118          41.000                                                    37306425.766   157855746.698          31.000                                                  
C12  23355223.914   121616842.858          47.000                                                                                                    23355220.805    98823551.861          45.000                                                  
C19  22588964.203   117626709.723          42.000                                                    22588962.184    88643936.820          47.000    22588956.359    95581235.633          48.000    22588959.807   118705785.183          38.000  
C20  25248323.440   131474704.578          44.000                                                    25248327.836    99079827.020          43.000    25248318.776   106833834.418          41.000    25248319.277   132680918.858          45.000  
C22  23157880.658   120589170.019          41.000                                                    23157875.226    90876590.842          35.000    23157877.442    97988514.898          39.000    23157879.568   121695528.383          43.000  
C30  24947724.374   129909352.697          40.000                                                    24947726.626    97900257.085          41.000    24947722.123   105562007.420          42.000    24947720.390   131101153.289          40.000  
C36  22417595.287   116734309.580          51.000                                                    22417602.274    87971679.035          47.000    22417597.575    94856274.254          46.000    22417590.481   117805339.317          46.000  
C39  25871857.046   134721488.598          35.000                                                    25871855.974   101526714.309          39.000    25871861.513   109472320.0491         28.000    25871862.943   135957508.926          38.000  
> 2026 06 07 17 21 48.0000000  0 14                     
C01  38580083.942   200896731.316          38.000                                                                                                    38580080.601   163244960.078          36.000                                                  
C02  36979123.017   192559940.972          40.000                                                                                                    36979115.030   156470721.165          35.000                                                  
C03  37013850.552   192740825.186          37.000                                                                                                    37013837.311   156617668.537          42.000                                                  
C07  37166435.497   193535383.4251         30.000                                                                                                    37166435.122   157263344.992          31.000                                                  
C08  37938840.544   197557517.995          45.000                                                                                                    37938836.416   160531682.479          47.000                                                  
C09  39115750.702   203685944.629          33.000    39115753.060   157502915.805          33.000                                                    39115750.005   165511535.267          30.000                                                  
C10  37306193.433   194263117.508          37.000    37306189.108   150216538.022          41.000                                                    37306182.443   157854720.963          30.000                                                  
C12  23363573.805   121660320.525          47.000                                                                                                    23363570.338    98858881.008          46.000                                                  
C19  22593894.088   117652381.758          40.000                                                    22593893.087    88663283.356          47.000    22593887.101    95602096.262          49.000    22593888.763   118731692.759          39.000  
C20  25257940.727   131524779.086          46.000                                                    25257944.569    99117563.366          43.000    25257936.367   106874524.036          42.000    25257937.564   132731452.751          44.000  
C22  23153883.393   120568358.540          42.000                                                    23153877.550    90860907.206          36.000    23153881.106    97971603.885          38.000    23153882.071   121674525.958          42.000  
C30  24940761.674   129873097.560          38.000                                                    24940763.979    97872935.083          40.000    24940760.763   105532547.135          44.000    24940757.528   131064565.442          36.000  
C36  22416132.118   116726688.264          50.000                                                    22416138.390    87965935.558          47.000    22416134.048    94850081.318          47.000    22416127.562   117797648.052          47.000  
C39  25866375.920   134692939.573          35.000                                                    25866374.133   101505199.447          38.000                                                    25866379.976   135928698.001          35.000  
> 2026 06 07 17 22 03.0000000  0 14                     
C01  38580056.442   200896588.597          38.000                                                                                                    38580053.189   163244844.076          36.000                                                  
C02  36979321.006   192560972.945          40.000                                                                                                    36979312.697   156471559.724          34.000                                                  
C03  37013995.577   192741579.540          37.000                                                                                                    37013982.015   156618281.526          42.000                                                  
C07  37166214.065   193534234.783          31.000                                                                                                    37166214.904   157262411.491          32.000                                                  
C08  37934151.337   197533100.686          44.000                                                                                                    37934147.191   160511841.439          47.000                                                  
C09  39121397.027   203715338.463          32.000    39121397.349   157525644.963          34.000                                                    39121395.508   165535420.144          29.000                                                  
C10  37305946.786   194261830.557          38.000    37305942.140   150215542.904          41.000                                                    37305934.814   157853675.175          29.000                                                  
C12  23371932.666   121703848.110          44.000                                                                                                    23371929.753    98894250.772          46.000                                                  
C19  22598843.664   117678154.312          41.000                                                    22598842.485    88682705.691          47.000    22598837.285    95623038.578          49.000    22598837.160   118757701.796          38.000  
C20  25267560.605   131574867.950          46.000                                                    25267563.571    99155310.520          43.000    25267556.209   106915225.346          43.000    25267556.495   132782001.081          43.000  
C22  23149907.303   120547654.261          43.000                                                    23149901.139    90845304.357          37.000    23149904.480    97954779.970          36.000    23149905.677   121653631.740          41.000  
C30  24933799.634   129836846.162          41.000                                                    24933801.421    97845615.902          39.000    24933800.260   105503089.902          45.000    24933796.490   131027981.374          30.000  
C36  22414674.596   116719098.183          50.000                                                    22414681.368    87960215.639          47.000    22414677.490    94843913.741          47.000    22414670.200   117789988.308          46.000  
C39  25860898.064   134664412.141          31.000                                                    25860897.152   101483700.770          37.000    25860900.744   109425921.301          29.000    25860901.066   135899908.808          33.000  
