     3.04           OBSERVATION DATA    M: Mixed            RINEX VERSION / TYPE
CONVBIN EX 2.5.0                        20260625 182623 UTC PGM / RUN BY / DATE 
format: RTCM 3                                              COMMENT             
log: C:\Users\admin\Desktop\540423494727\2026-06-08\1.rtcm3 COMMENT             
0000                                                        MARKER NAME         
                                                            MARKER NUMBER       
                                                            MARKER TYPE         
                                                            OBSERVER / AGENCY   
                    NONE                                    REC # / TYPE / VERS 
NONE                NONE                                    ANT # / TYPE        
  -492860.3329  5551481.2314  3092889.6323                  APPROX POSITION XYZ 
        0.0000        0.0000        0.0000                  ANTENNA: DELTA H/E/N
C   10 C2I L2I C7I L7I C5P L5P C6I L6I C1P L1P              SYS / # / OBS TYPES 
  2026    06    07    17    00   18.0000000     GPS         TIME OF FIRST OBS   
  2026    06    07    18    00   03.0000000     GPS         TIME OF LAST OBS    
C L2I                                                       SYS / PHASE SHIFT   
C L7I                                                       SYS / PHASE SHIFT   
C L5P  0.00000                                              SYS / PHASE SHIFT   
C L6I                                                       SYS / PHASE SHIFT   
C L1P  0.00000                                              SYS / PHASE SHIFT   
  0                                                         GLONASS SLOT / FRQ #
 C1C    0.000 C1P    0.000 C2C    0.000 C2P    0.000        GLONASS COD/PHS/BIS 
                                                            END OF HEADER       
> 2026 06 07 17 00 18.0000000  0 13                     
C01  38582162.038   200907540.102                                                                    38582157.285   163253741.866                                  
C02  36961861.077   192470049.907                                                                    36961844.566   156397675.422                                  
C03  37001066.892   192674235.163                                                                    37001048.309   156563557.155                                  
C07  37175104.261   193580527.609                                                                    37175093.968   157299992.521                                  
C08  38355126.523   199725211.635                                                                    38355122.628   162293106.720                                  
C09  38634669.126   201180806.800    38634677.613   155565788.528                                                                                                  
C10                                  37314548.809   150250203.694                                    37314544.592   157890082.622                                  
C12  22691289.912   118159482.595                                                                    22691285.302    96014238.405                                  
C19  22249106.018   115856981.636                                    22249105.304    87310262.607    22249097.745    94143186.733    22249100.640   116919821.082  
C20  24451758.438   127326786.261                                    24451761.154    95953940.683    24451753.131   103463312.621    24451753.256   128494946.068  
C22  23574002.064   122756002.764                                                                    23573995.649    99749284.740    23574002.510   123882211.391  
C36  22570957.356   117532851.185                                    22570962.503    88573487.177    22570982.159    95505137.055    22570953.407   118611070.361  
C39  26358757.259   137256812.472                                    26358767.104   103437434.452    26358765.389   111532563.461    26358757.688   138516269.455  
> 2026 06 07 17 00 33.0000000  0 13                     
C01  38582143.365   200907443.180                                                                    38582138.683   163253663.123                                  
C02  36962066.231   192471118.371                                                                    36962049.827   156398543.667                                  
C03  37001221.138   192675039.673                                                                    37001202.876   156564210.881                                  
C07  37175127.455   193580652.579                                                                                                                                  
C08  38350156.844   199699334.625                                                                    38350153.128   162272079.603                                  
C09  38640199.392   201209577.223    38640201.518   155588035.552                                                                                                  
C10  37314599.557   194306910.883    37314601.540   150250418.126                                    37314597.859   157890307.944                                  
C12  22698517.682   118197114.978                                                                    22698512.500    96044817.749                                  
C19  22252162.390   115872896.664                                    22252162.729    87322256.241    22252153.973    94156118.978    22252156.815   116935882.119  
C20  24460829.540   127374023.863                                    24460832.203    95989539.127    24460824.412   103501697.065    24460825.734   128542617.072  
C22                                                                                                                                  23568279.795   123852139.921  
C36  22568800.869   117521624.054                                    22568805.086    88565026.424    22568800.154    95495978.4821   22568796.545   118599740.264  
C39  26352785.592   137225715.495                                    26352792.347   103413999.532    26352787.933   111507294.598    26352784.359   138484887.149  
> 2026 06 07 17 00 48.0000000  0 13                     
C01  38582125.978   200907352.833                                                                    38582121.332   163253589.754                                  
C02  36962272.690   192472193.630                                                                    36962256.429   156399417.396                                  
C03  37001376.688   192675850.828                                                                    37001358.694   156564870.011                                  
C07  37175149.487   193580769.085                                                                                                                                  
C08  38345191.722   199673478.658                                                                    38345188.130   162251069.581                                  
C09  38645734.536   201238365.921    38645728.979   155610296.685                                                                                                  
C10  37314652.682   194307176.898    37314652.056   150250623.841                                    37314648.429   157890524.161                                  
C12  22705762.141   118234834.295                                                                    22705756.137    96075467.699                                  
C19  22255243.224   115888939.442                                    22255243.653    87334346.144    22255234.718    94169155.030    22255236.987   116952072.049  
C20  24469911.221   127421313.685                                    24469913.151    96025176.918    24469904.681   103540123.918    24469905.718   128590340.716  
C22                                                                                                                                  23562567.640   123822145.1131 
C36  22566655.443   117510450.544                                    22566659.052    88556606.081    22566657.444    95486899.134    22566650.886   118588464.312  
C39  26346821.234   137194656.725                                    26346812.496   103390593.866    26346818.410   111482056.766    26346818.929   138453543.557  
> 2026 06 07 17 01 03.0000000  0 12                     
C01  38582106.179   200907249.898                                                                    38582101.462   163253506.136                                  
C02  36962476.754   192473256.482                                                                    36962460.922   156400281.050                                  
C03  37001529.736   192676649.334                                                                    37001512.010   156565518.903                                  
C07  37175166.606   193580857.696                                                                                                                                  
C08  38340226.975   199647624.626                                                                    38340223.776   162230061.109                                  
C09  38651269.126   201267153.610    38651256.082   155632557.029                                                                                                  
C10  37314698.426   194307412.489    37314696.818   150250805.941                                    37314692.994   157890715.562                                  
C12  22713016.982   118272621.031                                                                    22713012.622    96106172.463                                  
C19  22258344.982   115905090.662                                    22258344.536    87346517.760    22258336.816    94182279.191    22258337.853   116968371.449  
C20  24478999.192   127468636.238                                    24478998.513    96060839.317    24478990.883   103578577.318    24478994.117   128638097.412  
C36                                                                  22564519.380    88548211.650    22564518.736    95477847.681    22564511.785   118577223.094  
C39  26340859.181   137163617.031                                    26340851.140   103367202.244    26340855.035   111456834.420    26340856.232   138422218.919  
> 2026 06 07 17 01 18.0000000  0 12                     
C01  38582082.807   200907128.408                                                                    38582078.125   163253407.378                                  
C02  36962677.280   192474300.927                                                                    36962661.752   156401129.793                                  
C03  37001679.228   192677429.312                                                                    37001661.734   156566152.703                                  
C07  37175177.131   193580912.601                                                                    37175174.826   157300320.3271                                 
C08  38335261.334   199621766.589                                                                    38335258.707   162209049.386                                  
C09  38656802.269   201295934.170    38656782.041   155654811.963                                                                                                  
C10  37314737.041   194307611.665    37314734.736   150250959.954                                    37314730.555   157890877.344                                  
C12  22720284.600   118310468.883                                                                    22720281.562    96136927.009                                  
C19  22261466.325   115921344.230                                    22261464.753    87358766.513    22261458.284    94195486.525    22261459.767   116984774.164  
C20  24488091.719   127515985.227                                    24488089.503    96096521.713    24488084.589   103617052.225    24488086.358   128685880.802  
C36  22562382.870   117488191.7901                                   22562384.764    88539838.536    22562384.425    95468819.190    22562379.832   118566010.347  
C39  26334900.004   137132590.276                                    26334898.611   103343820.369    26334895.627   111431622.635    26334896.198   138390907.415  
> 2026 06 07 17 01 33.0000000  0 12                     
C01  38582064.205   200907031.862                                                                    38582059.845   163253328.959                                  
C02  36962882.577   192475370.490                                                                    36962867.424   156401998.938                                  
C03  37001833.491   192678234.195                                                                    37001816.355   156566806.758                                  
C07                                                                                                  37175186.959   157300382.0981                                 
C08  38330303.216   199595948.136                                                                    38330300.893   162188069.818                                  
C09  38662300.800   201324741.9921   38662315.024   155677095.061                                                                                                  
C10  37314776.889   194307817.916    37314774.137   150251119.481                                    37314769.867   157891044.992                                  
C12  22727574.357   118348421.427                                                                    22727571.480    96167766.484                                  
C19  22264615.580   115937743.539                                    22264614.115    87371125.101    22264609.522    94208812.309    22264609.504   117001323.952  
C20  24497197.720   127563403.882                                    24497196.790    96132256.568    24497193.502   103655583.745    24497192.949   128733734.557  
C36  22560263.854   117477152.616                                    22560265.641    88531519.418    22560264.086    95459848.962    22560260.459   118554869.907  
C39  26328952.121   137101620.025                                    26328952.854   103320481.056    26328944.831   111406456.762    26328948.816   138359652.913  
> 2026 06 07 17 01 48.0000000  0 12                     
C01  38582040.725   200906909.593                                                                    38582036.133   163253229.646                                  
C02  36963082.996   192476414.528                                                                    36963068.326   156402847.316                                  
C03  37001982.841   192679013.411                                                                    37001965.990   156567439.948                                  
C08  38325342.918   199570118.724                                                                    38325340.399   162167081.371                                  
C09  38667835.212   201353544.662    38667845.558   155699367.092                                                                                                  
C10  37314807.588   194307980.609    37314805.301   150251245.216                                    37314801.012   157891177.195                                  
C12  22734873.621   118386427.589                                                                    22734869.761    96198649.536                                  
C19  22267783.043   115954237.885                                    22267781.721    87383555.270    22267776.002    94222215.291    22267777.629   117017969.602  
C20  24506307.723   127610841.332                                    24506309.867    96168005.598    24506304.435   103694130.570    24506302.737   128781607.237  
C22                                                                                                  23539926.927    99605135.2681                                 
C36  22558146.661   117466134.517                                    22558150.663    88523216.101    22558146.875    95450895.797    22558143.605   118543750.660  
C39  26323005.114   137070655.581                                    26323004.471   103297146.160    26322996.680   111381295.641    26323004.274   138328404.368  
> 2026 06 07 17 02 03.0000000  0 12                     
C01  38582013.171   200906766.170                                                                    38582008.632   163253113.044                                  
C02  36963279.430   192477437.543                                                                    36963265.099   156403678.640                                  
C03  37002128.152   192679771.415                                                                    37002111.623   156568055.919                                  
C08  38320381.548   199544282.929                                                                    38320378.529   162146087.728                                  
C09  38673365.495   201382337.231    38673374.216   155721631.371                                                                                                  
C10  37314830.568   194308104.253    37314828.977   150251340.880                                    37314824.993   157891277.633                                  
C12  22742183.588   118424491.593                                                                    22742178.370    96229579.626                                  
C19  22270969.644   115970831.601                                    22270969.268    87396060.377    22270961.638    94235699.051    22270963.425   117034715.545  
C20  24515422.568   127658301.826                                    24515426.106    96203771.984    24515418.369   103732696.091    24515417.190   128829503.160  
C22  23534315.821   122549440.6261                                                                   23534308.835    99581365.0221                                 
C36  22556033.720   117455141.785                                    22556040.010    88514931.900    22556035.060    95441963.238    22556030.933   118532657.036  
C39  26317060.251   137039701.448                                    26317059.125   103273819.112    26317053.318   111356142.761    26317059.572   138297166.317  
> 2026 06 07 17 02 18.0000000  0 12                     
C01  38581987.422   200906631.970                                                                    38581982.651   163253004.093                                  
C02  36963477.562   192478469.968                                                                    36963463.660   156404517.593                                  
C03  37002275.232   192680538.653                                                                    37002258.881   156568679.380                                  
C08  38315424.664   199518471.233                                                                    38315421.304   162125113.658                                  
C09  38678900.193   201411150.346    38678906.787   155743911.515                                                                                                  
C10  37314851.135   194308220.2331   37314851.063   150251429.834                                    37314847.972   157891371.065                                  
C12  22749510.817   118462643.668                                                                    22749505.009    96260581.262                                  
C19  22274181.493   115987555.042                                    22274182.458    87408663.223    22274175.346    94249288.207    22274174.649   117051592.318  
C20  24524547.564   127705815.472                                    24524550.369    96239578.440    24524542.435   103771304.768    24524542.203   128877452.696  
C22  23528717.206   122520289.541                                                                    23528712.668    99557677.446                                  
C36  22553931.751   117444204.690                                    22553940.364    88506689.651    22553934.378    95433075.943    22553929.750   118521619.663  
C39  26311123.518   137008858.9931                                   26311121.356   103250522.683    26311131.452   111331022.748    26311124.376   138265969.315  
> 2026 06 07 17 02 33.0000000  0 12                     
C01  38581963.191   200906505.747                                                                    38581958.510   163252901.495                                  
C02  36963677.284   192479510.546                                                                    36963663.811   156405363.141                                  
C03  37002423.741   192681313.848                                                                    37002407.873   156569309.306                                  
C08  38310471.889   199492682.483                                                                    38310468.958   162104158.226                                  
C09  38684438.071   201439982.457    38684442.932   155766206.327                                    38684439.394   163686533.087                                  
C10  37314873.257   194308325.386    37314871.345   150251511.141                                    37314868.950   157891456.535                                  
C12  22756854.360   118500882.295                                                                    22756848.945    96291653.194                                  
C19  22277418.109   116004406.811                                    22277418.252    87421362.776    22277411.569    94262981.677    22277411.391   117068598.664  
C20  24533682.083   127753380.712                                    24533683.852    96275423.762    24533676.043   103809955.387    24533676.472   128925454.321  
C22  23523138.926   122491244.979                                                                    23523135.031    99534076.356                                  
C36  22551841.933   117433321.925                                    22551851.154    88498488.357    22551844.524    95424232.821    22551841.576   118510637.015  
C39  26305196.667   136977984.952                                    26305192.057   103227255.987    26305202.135   111305935.041    26305196.453   138234812.117  
> 2026 06 07 17 02 48.0000000  0 12                     
C01  38581941.713   200906394.074                                                                    38581936.924   163252810.745                                  
C02  36963879.830   192480565.785                                                                    36963867.089   156406220.661                                  
C03  37002575.127   192682103.616                                                                    37002559.581   156569951.055                                  
C08  38305524.725   199466923.281                                                                    38305522.598   162083226.815                                  
C09  38689980.792   201468840.136    38689983.758   155788520.900                                                                                                  
C10  37314893.234   194308427.243    37314891.072   150251589.923                                    37314889.553   157891539.292                                  
C12  22764214.217   118539213.669                                                                    22764211.733    96322800.545                                  
C19  22280680.171   116021393.327                                    22280678.724    87434163.859    22280670.826    94276784.633    22280674.775   117085741.058  
C20  24542827.324   127801003.891                                    24542829.200    96311312.721    24542821.213   103848653.066    24542822.017   128973514.348  
C22  23517582.714   122462229.8761                                                                   23517576.693    99510567.474                                  
C36  22549764.427   117422499.923                                    22549772.986    88490332.902    22549766.411    95415439.089    22549763.837   118499715.743  
C39  26299276.624   136947156.981                                    26299272.943   103204023.985    26299278.786   111280884.766                                  
> 2026 06 07 17 03 03.0000000  0 13                     
C01  38581920.109   200906281.482                                                                    38581915.320   163252719.297                                  
C02  36964082.286   192481620.283                                                                    36964069.491   156407077.543                                  
C03  37002726.281   192682892.416                                                                    37002711.128   156570592.052                                  
C08  38300580.473   199441178.255                                                                    38300579.044   162062306.922                                  
C09  38695525.371   201497707.734    38695526.604   155810843.137                                    38695522.298   163733418.701                                  
C10  37314909.906   194308510.309    37314907.190   150251654.180                                    37314906.350   157891606.861                                  
C12  22771589.263   118577622.166                                                                    22771588.030    96354010.618                                  
C19  22283964.408   116038498.997                                    22283963.675    87447054.777    22283951.650    94290684.391    22283960.405   117103003.740  
C20  24551980.499   127848669.165                                    24551983.215    96347233.460    24551975.728   103887384.982    24551975.227   129021616.900  
C22  23512046.873   122433398.1141                                                                   23512039.064    99487138.443                                  
C27  25387805.638   132200982.306                                                                                                                                  
C36  22547695.802   117411723.172                                    22547702.735    88482211.556    22547697.178    95406682.113    22547693.300   118488840.181  
C39  26293362.388   136916359.434                                    26293358.064   103180814.888    26293361.727   111255859.315                                  
> 2026 06 07 17 03 18.0000000  0 13                     
C01  38581899.685   200906175.081                                                                    38581894.789   163252632.826                                  
C02  36964285.903   192482681.113                                                                    36964273.377   156407939.583                                  
C03  37002878.615   192683687.357                                                                    37002863.784   156571238.062                                  
C08  38295640.600   199415454.584                                                                    38295639.224   162041404.403                                  
C09  38701073.417   201526592.354    38701073.042   155833178.589                                    38701068.503   163756890.811                                  
C10  37314924.541   194308581.730    37314921.110   150251709.389                                    37314919.859   157891664.833                                  
C12  22778980.624   118616114.644                                                                    22778978.408    96385288.898                                  
C19  22287273.698   116055730.958                                    22287273.840    87460040.844    22287262.958    94304686.690    22287269.659   117120393.742  
C20  24561143.734   127896383.429                                    24561146.539    96383191.125    24561139.266   103926156.739    24561139.338   129069768.960  
C22                                                                                                  23506523.415    99463795.233    23506535.584   123527681.098  
C27  25384261.961   132182483.171                                                                                                    25384259.352   133395164.962  
C36  22545636.594   117400998.691                                    22545644.474    88474129.614    22545639.381    95397967.593    22545633.627   118478017.263  
C39  26287454.425   136885599.598                                    26287449.314   103157634.142    26287449.475   111230864.372                                  
> 2026 06 07 17 03 33.0000000  0 14                     
C01  38581878.617   200906065.516                                                                    38581873.829   163252543.842                                  
C02  36964488.985   192483738.952                                                                    36964476.834   156408799.178                                  
C03  37003030.359   192684479.132                                                                    37003015.813   156571881.467                                  
C07                                                                                                  37175137.068   157300171.350                                  
C08  38290703.353   199389742.980                                                                    38290701.351   162020511.682                                  
C09  38706622.624   201555484.560    38706620.944   155855519.912                                                                                                  
C10  37314935.030   194308632.133    37314931.009   150251748.352                                    37314929.312   157891705.801                                  
C12  22786385.565   118654681.513                                                                    22786383.528    96416627.600                                  
C19  22290605.341   116073079.590                                    22290604.251    87473114.844    22290600.052    94318783.875    22290601.088   117137901.509  
C20  24570315.081   127944137.134                                    24570317.083    96419178.441    24570309.363   103964960.494    24570310.114   129117960.740  
C22                                                                                                  23501027.208    99440530.332    23501035.052   123498787.645  
C27  25380728.808   132164068.559                                                                                                                                  
C36  22543585.176   117390316.904                                    22543594.772    88466079.880    22543587.267    95389287.852    22543582.835   118467237.494  
C39  26281553.091   136854867.852                                    26281545.925   103134474.718    26281544.317   111205892.371                                  
> 2026 06 07 17 03 48.0000000  0 13                     
C01  38581862.642   200905982.473                                                                    38581857.818   163252476.375                                  
C02  36964697.194   192484823.446                                                                    36964685.258   156409680.449                                  
C03  37003187.141   192685297.408                                                                    37003172.989   156572546.388                                  
C07                                                                                                  37175127.080   157300127.9401                                 
C08  38285774.308   199364073.166                                                                    38285771.252   161999652.922                                  
C09  38712178.211   201584413.881    38712175.798   155877889.817                                                                                                  
C10  37314946.824   194308691.225    37314942.642   150251794.050                                    37314940.105   157891753.844                                  
C12  22793810.841   118693352.119                                                                    22793809.447    96448050.633                                  
C19  22293965.039   116090574.477                                    22293963.074    87486299.058    22293961.108    94332999.951    22293960.572   117155556.865  
C20  24579498.955   127991959.596                                    24579500.903    96455217.623    24579492.272   104003820.133    24579491.772   129166221.850  
C22                                                                                                  23495555.373    99417368.173    23495561.199   123470021.702  
C36  22541548.090   117379707.466                                    22541556.595    88458084.688    22541546.642    95380666.942    22541545.874   118456530.777  
C39  26275663.193   136824193.876                                    26275655.366   103111358.855    26275651.560   111180967.405                                  
> 2026 06 07 17 04 03.0000000  0 13                     
C01  38581839.895   200905864.025                                                                    38581835.053   163252380.181                                  
C02  36964898.596   192485872.701                                                                    36964886.856   156410533.078                                  
C03  37003337.223   192686080.264                                                                    37003323.393   156573182.535                                  
C07                                                                                                  37175107.513   157300040.611                                  
C08  38280841.332   199338383.370                                                                    38280837.365   161978777.922                                  
C09  38717729.223   201613318.169    38717725.988   155900240.448                                                                                                  
C10  37314947.914   194308697.090    37314944.125   150251798.570                                    37314940.712   157891758.605                                  
C12  22801245.980   118732064.405                                                                    22801244.783    96479507.493                                  
C19  22297340.801   116108153.585                                    22297339.068    87499546.791    22297335.601    94347284.487    22297337.656   117173297.299  
C20  24588683.525   128039788.636                                    24588685.813    96491261.746    24588676.485   104042685.129    24588677.325   129214489.679  
C22                                                                                                  23490095.100    99394258.465    23490099.603   123441321.080  
C36  22539513.147   117369108.560                                    22539518.919    88450097.370    22539511.611    95372054.420    22539510.610   118445834.584  
C39  26269772.151   136793515.918                                    26269765.343   103088239.888    26269762.073   111156039.105    26269793.880   138048629.8801 
> 2026 06 07 17 04 18.0000000  0 13                     
C01  38581814.664   200905732.663                                                                    38581809.911   163252273.467                                  
C02  36965097.550   192486909.127                                                                    36965085.828   156411375.316                                  
C03  37003484.696   192686850.140                                                                    37003471.312   156573808.155                                  
C07  37175095.809   193580504.6201                                                                   37175082.282   157299930.531                                  
C08  38275908.391   199312696.122                                                                    38275904.121   161957904.940                                  
C09  38723280.842   201642220.008    38723275.714   155922589.157                                                                                                  
C10  37314942.624   194308672.167    37314939.640   150251779.303                                    37314935.352   157891738.332                                  
C12  22808694.843   118770840.563                                                                    22808695.344    96511016.232                                  
C19  22300736.916   116125839.271                                    22300735.237    87512874.802    22300728.982    94361655.572    22300734.361   117191145.230  
C20  24597873.028   128087646.294                                    24597875.798    96527327.513    24597866.399   104081573.444    24597867.506   129262786.469  
C22  23484660.648   122290781.916                                                                    23484652.124    99371219.790    23484653.554   123412708.429  
C36  22537483.048   117358542.425                                    22537489.338    88442134.677    22537482.923    95363468.451    22537481.976   118435171.417  
C39                                                                  26263877.911   103065134.787    26263874.033   111131125.686    26263905.197   138017688.918  
> 2026 06 07 17 04 33.0000000  0 14                     
C01  38581793.382   200905622.008                                                                    38581788.700   163252183.496                                  
C02  36965300.506   192487966.488                                                                    36965289.249   156412234.511                                  
C03  37003636.226   192687640.737                                                                    37003623.163   156574450.578                                  
C07  37175070.917   193580375.047                                                                    37175058.034   157299825.197                                  
C08  38270981.866   199287045.176                                                                    38270977.685   161937061.479                                  
C09  38728839.484   201671152.990    38728831.765   155944961.890                                                                                                  
C10  37314937.514   194308650.155    37314935.691   150251762.250                                    37314930.813   157891720.436                                  
C12                                                                                                  22816161.700    96542604.004                                  
C19  22304159.871   116143665.071                                    22304160.121    87526308.446    22304153.188    94376140.500    22304157.673   117209134.596  
C20  24607075.557   128135566.225                                    24607078.094    96563440.161    24607069.053   104120512.311    24607069.589   129311146.017  
C22  23479238.829   122262550.771                                    23479223.015    92137512.609                                    23479231.931   123384218.365  
C27  25366726.553   132091198.2901                                                                                                                                 
C36  22535466.385   117348042.520                                    22535472.461    88434221.937    22535466.743    95354936.326    22535464.599   118424575.203  
C39  26258027.110   136732462.9051                                   26258001.969   103042068.784    26257993.713   111106254.476    26258022.822   137986842.4341 
> 2026 06 07 17 04 48.0000000  0 14                     
C01  38581772.047   200905511.004                                                                    38581767.222   163252093.398                                  
C02  36965503.463   192489023.629                                                                    36965492.152   156413093.520                                  
C03  37003787.684   192688430.971                                                                    37003775.050   156575092.745                                  
C07                                                                                                  37175030.426   157299707.508                                  
C08  38266058.146   199261409.471                                                                    38266053.983   161916230.406                                  
C09  38734400.056   201700095.803    38734390.853   155967342.240                                                                                                  
C10                                  37314928.204   150251731.143                                    37314922.647   157891687.775                                  
C12  22823649.018   118848752.7181                                                                   22823638.082    96574253.412                                  
C19  22307605.912   116161609.822                                    22307606.912    87539831.708    22307601.498    94390722.087    22307603.910   117227243.937  
C20  24616285.912   128183526.934                                    24616289.200    96599583.564    24616280.570   104159484.335    24616281.606   129359546.795  
C22  23473835.844   122234420.006                                    23473820.923    92116313.161                                    23473830.501   123355829.455  
C27  25363259.265   132073145.244                                                                                                                                  
C36  22533458.747   117337587.726                                    22533463.518    88426343.270    22533468.861    95346476.7161   22533455.781   118414024.570  
C39  26252151.079   136701886.058                                    26252130.511   103019026.034    26252121.845   111081408.370    26252143.002   137955985.215  
> 2026 06 07 17 05 03.0000000  0 14                     
C01  38581742.455   200905357.032                                                                    38581737.506   163251968.280                                  
C02  36965698.235   192490037.892                                                                    36965686.781   156413917.753                                  
C03  37003930.939   192689178.242                                                                    37003918.681   156575699.954                                  
C07                                                                                                  37174991.418   157299542.783                                  
C08  38261129.530   199235746.418                                                                    38261124.741   161895377.145                                  
C09  38739953.623   201729005.845    38739944.367   155989697.316                                                                                                  
C10                                  37314908.977   150251653.037                                    37314903.062   157891605.644                                  
C12  22831134.065   118887735.020                                                                    22831120.235    96605929.590                                  
C19  22311066.534   116179630.661                                    22311067.213    87553412.349    22311062.549    94405365.578    22311064.818   117245430.178  
C20  24625496.500   128231485.501                                    24625499.985    96635725.321    24625491.694   104198454.591    24625491.158   129407945.354  
C22  23468443.527   122206347.224                                    23468430.607    92095157.454    23468436.004    99302644.4821   23468440.382   123327499.060  
C27  25359800.662   132055122.454                                                                                                                                  
C36  22531451.663   117327135.313                                    22531456.148    88418466.365    22531463.170    95337983.147    22531448.321   118403476.281  
C39  26246272.152   136671297.729                                    26246254.319   102995974.508    26246246.814   111056552.795    26246269.240   137925116.223  
> 2026 06 07 17 05 18.0000000  0 13                     
C01  38581716.313   200905220.919                                                                    38581711.614   163251857.722                                  
C02  36965896.528   192491070.206                                                                    36965885.020   156414756.635                                  
C03  37004077.644   192689943.373                                                                    37004065.547   156576321.695                                  
C07                                                                                                  37174953.750   157299380.520                                  
C08  38256207.561   199210116.999                                                                    38256201.915   161874551.201                                  
C09  38745511.640   201757943.811    38745503.938   156012073.989                                                                                                  
C10                                  37314889.571   150251574.948                                    37314883.764   157891523.598                                  
C12  22838637.304   118926810.833                                                                    22838626.064    96637681.823                                  
C19  22314553.709   116197788.445                                    22314554.299    87567096.155    22314546.455    94420120.295    22314551.351   117263754.503  
C20  24634718.274   128279502.595                                    24634720.865    96671911.158    24634712.574   104237472.357    24634714.021   129456402.972  
C22  23463074.064   122178393.533                                    23463062.699    92074091.484    23463066.505    99279929.837    23463073.117   123299288.899  
C36  22529456.461   117316746.101                                    22529463.377    88410637.011    22529469.488    95329540.964    22529453.334   118392991.723  
C39  26240393.136   136640553.0771                                   26240386.847   102972959.971    26240382.165   111031737.054    26240403.608   137894296.697  
> 2026 06 07 17 05 33.0000000  0 13                     
C01  38581697.015   200905120.644                                                                    38581692.583   163251776.218                                  
C02  36966101.628   192492138.530                                                                    36966090.406   156415624.724                                  
C03  37004231.282   192690744.240                                                                    37004219.328   156576972.543                                  
C07                                                                                                  37174921.568   157299235.347                                  
C08  38251295.599   199184539.251                                                                    38251289.238   161853767.257                                  
C09  38751076.661   201786927.528    38751072.426   156034486.064                                                                                                  
C10                                  37314873.453   150251510.824                                    37314868.003   157891456.225                                  
C12  22846161.646   118965997.990                                                                    22846155.284    96669524.522                                  
C19  22318070.530   116216100.901                                    22318070.387    87580896.508    22318059.594    94435000.666    22318068.082   117282235.005  
C20  24643953.807   128327595.835                                    24643955.040    96708154.346    24643946.606   104276552.028    24643951.091   129504937.431  
C22  23457730.797   122150577.258                                    23457720.147    92053128.963    23457723.560    99257326.735    23457731.333   123271217.173  
C36  22527477.395   117306437.865                                    22527485.151    88402868.716    22527490.851    95321164.611    22527473.589   118382588.942  
C39  26234543.247   136610080.544                                    26234535.099   102949995.921    26234531.704   111006975.764    26234551.949   137863544.664  
> 2026 06 07 17 05 48.0000000  0 13                     
C01  38581674.911   200905005.941                                                                    38581670.390   163251683.031                                  
C02  36966303.995   192493192.562                                                                    36966293.113   156416481.205                                  
C03  37004382.025   192691530.705                                                                    37004370.339   156577611.637                                  
C07                                                                                                  37174884.597   157299066.385                                  
C08  38246383.994   199158962.969                                                                    38246377.419   161832984.454                                  
C09  38756639.788   201815906.819    38756637.787   156056894.632                                    38756632.784   163991995.0901                                 
C10                                  37314851.135   150251421.730                                    37314846.114   157891362.628                                  
C12  22853697.727   119005245.890                                                                    22853692.295    96701416.635                                  
C19  22321607.774   116234517.712                                    22321606.506    87594775.483    22321597.500    94449965.821    22321604.415   117300820.794  
C20  24653193.772   128375714.611                                    24653194.076    96744416.840    24653186.749   104315652.442    24653191.056   129553497.702  
C22  23452404.345   122122848.050                                    23452393.106    92032232.164    23452397.430    99234794.511    23452405.542   123243233.663  
C36  22525503.726   117296160.282                                    22525510.927    88395123.432    22525516.181    95312813.070    22525499.098   118372217.093  
C39  26228693.269   136579697.1601                                   26228688.801   102927044.465    26228684.620   110982228.048    26228706.170   137832689.8071 
> 2026 06 07 17 06 03.0000000  0 13                     
C01  38581650.823   200904880.587                                                                    38581646.374   163251581.225                                  
C02  36966504.342   192494235.984                                                                    36966493.228   156417329.148                                  
C03  37004530.803   192692306.507                                                                    37004519.509   156578242.037                                  
C07                                                                                                  37174841.693   157298876.735                                  
C08  38241473.462   199133391.956                                                                    38241467.404   161812205.984                                  
C09  38762202.540   201844885.197    38762200.879   156079302.554                                    38762198.252   164015542.393                                  
C10                                  37314823.206   150251310.622                                    37314818.989   157891245.834                                  
C12  22861246.693   119044558.096                                                                    22861239.634    96733360.959                                  
C19  22325165.300   116253042.445                                    22325164.246    87608735.773    22325156.241    94465018.670    22325160.887   117319515.461  
C20  24662439.955   128423862.470                                    24662440.723    96780701.247    24662434.648   104354776.495    24662435.666   129602087.267  
C22  23447096.834   122095210.108                                    23447082.682    92011403.970    23447088.847    99212336.360    23447098.139   123215342.065  
C36  22523535.578   117285917.075                                    22523543.584    88387404.051    22523544.531    95304489.226    22523533.416   118361879.800  
C39  26222849.455   136549272.933                                    26222844.523   102904108.349    26222840.109   110957496.909    26222872.702   137801975.294  
> 2026 06 07 17 06 18.0000000  0 13                     
C01  38581625.985   200904751.119                                                                    38581621.554   163251476.021                                  
C02  36966703.939   192495275.553                                                                    36966692.789   156418173.902                                  
C03  37004678.847   192693078.151                                                                    37004667.769   156578869.096                                  
C07  37174794.430   193578901.4961                                                                   37174793.304   157298671.828                                  
C08  38236565.324   199107832.937                                                                    38236560.374   161791437.230                                  
C09  38767766.543   201873869.149    38767765.846   156101714.749                                    38767764.863   164039094.283                                  
C10                                  37314791.024   150251182.582                                    37314787.343   157891111.318                                  
C12  22868808.238   119083940.827                                                                    22868802.055    96765362.653                                  
C19  22328744.734   116271681.578                                    22328743.429    87622782.286    22328736.371    94480164.485    22328738.730   117338325.537  
C20  24671693.482   128472045.749                                    24671696.055    96817012.320    24671688.997   104393929.335    24671688.014   129650712.595  
C22  23441808.604   122067670.158                                                                    23441799.026    99189957.909                                  
C36  22521575.543   117275714.725                                    22521585.264    88379715.416    22521583.030    95296198.887    22521575.954   118351583.663  
C39                                                                  26217004.229   102881192.644    26217000.602   110932787.771    26217029.550   137771288.070  
> 2026 06 07 17 06 33.0000000  0 13                     
C01  38581602.720   200904630.115                                                                    38581598.217   163251377.677                                  
C02  36966905.162   192496323.654                                                                    36966894.084   156419025.572                                  
C03  37004828.536   192693858.236                                                                    37004817.690   156579502.989                                  
C07  37174748.185   193578642.908                                                                    37174741.949   157298461.687                                  
C08  38231661.921   199082298.497                                                                    38231658.365   161770688.418                                  
C09  38773334.834   201902871.126    38773334.888   156124140.888                                    38773334.781   164062660.791                                  
C10  37314764.685   194307761.4911   37314756.947   150251047.285                                    37314753.999   157890969.124                                  
C12  22876386.348   119123406.452                                                                    22876382.095    96797431.695                                  
C19  22332348.505   116290447.469                                    22332347.665    87636924.323    22332341.071    94495413.312    22332343.698   117357263.622  
C20  24680956.194   128520276.669                                    24680959.768    96853359.302    24680951.530   104433120.899    24680950.118   129699385.980  
C22  23436541.585   122040240.916                                                                    23436530.291    99167669.412                                  
C36  22519627.498   117265565.398                                    22519637.469    88372066.935                                    22519626.301   118341341.528  
C39                                                                  26211170.815   102858306.673    26211167.813   110908110.727    26211193.491   137740640.670  
> 2026 06 07 17 06 48.0000000  0 13                     
C01  38581580.544   200904514.799                                                                    38581576.041   163251284.027                                  
C02  36967107.547   192497377.605                                                                    36967096.647   156419882.022                                  
C03  37004979.315   192694643.942                                                                    37004968.629   156580141.468                                  
C07  37174697.008   193578375.369                                                                    37174687.323   157298244.267                                  
C08  38226762.824   199056785.927                                                                    38226760.430   161749957.422                                  
C09  38778906.825   201931888.274    38778907.575   156146578.893                                    38778907.593   164086239.645                                  
C10  37314725.998   194307551.483    37314720.620   150250902.702                                    37314718.243   157890817.180                                  
C12  22883980.611   119162951.925                                                                    22883977.162    96829565.605                                  
C19  22335975.612   116309337.211                                    22335976.256    87651159.734    22335969.251    94510762.819    22335970.824   117376326.740  
C20  24690226.965   128568552.148                                    24690230.199    96889739.872    24690222.265   104472348.661    24690219.406   129748104.344  
C22  23431295.222   122012919.971                                                                    23431282.749    99145468.911                                  
C36  22517688.888   117255466.443                                    22517697.107    88364456.408    22517696.303    95279790.9141   22517686.851   118331150.004  
C39                                                                  26205344.888   102835448.414    26205341.422   110883463.538    26205365.027   137710030.356  
> 2026 06 07 17 07 03.0000000  0 13                     
C01  38581558.351   200904399.468                                                                    38581553.830   163251190.325                                  
C02  36967309.914   192498431.648                                                                    36967299.139   156420738.531                                  
C03  37005130.147   192695429.619                                                                    37005119.587   156580779.921                                  
C07  37174642.811   193578093.083                                                                    37174627.783   157298014.995                                  
C08  38221866.855   199031289.591                                                                    38221864.872   161729239.629                                  
C09  38784482.067   201960914.772    38784482.407   156169024.021                                    38784481.013   164109826.084                                  
C10  37314690.528   194307346.724    37314680.843   150250744.272                                    37314678.931   157890650.659                                  
C12  22891589.223   119202571.267                                                                    22891585.453    96861759.550                                  
C19  22339625.896   116328345.006                                    22339625.593    87665484.132    22339619.160    94526208.200    22339620.589   117395508.925  
C20  24699505.115   128616866.224                                    24699507.277    96926149.567    24699500.469   104511607.831    24699496.699   129796861.689  
C22  23426068.443   121985701.783                                    23426051.753    91928861.9771   23426055.738    99123351.855                                  
C36  22515758.586   117245412.075                                    22515769.183    88356879.456    22515762.017    95271620.860    22515756.728   118321003.336  
C39  26199532.792   136427857.0621                                   26199526.020   102812613.516    26199521.785   110858841.521    26199542.495   137679451.267  
> 2026 06 07 17 07 18.0000000  0 13                     
C01  38581532.477   200904264.498                                                                    38581527.759   163251080.663                                  
C02  36967508.492   192499466.207                                                                    36967497.914   156421579.249                                  
C03  37005277.174   192696195.649                                                                    37005266.774   156581402.392                                  
C07  37174581.860   193577776.499                                                                                                                                  
C08  38216969.760   199005790.048                                                                    38216967.705   161708519.164                                  
C09  38790056.327   201989931.097    38790055.397   156191461.279                                    38790050.090   164133404.163                                  
C10  37314644.998   194307104.413    37314633.919   150250556.902                                    37314632.883   157890453.806                                  
C12  22899207.752   119242244.639                                                                    22899201.552    96893997.359                                  
C19  22343295.676   116347451.200                                    22343293.513    87679882.569    22343288.206    94541733.503    22343289.779   117414790.305  
C20  24708787.179   128665199.030                                    24708788.341    96962573.363    24708781.157   104550882.157    24708779.085   129845637.920  
C22  23420857.550   121958566.886                                    23420841.271    91908413.250    23420844.935    99101302.544    23420856.764   123077442.3801 
C36  22513832.949   117235382.592                                    22513845.011    88349321.169    22513834.432    95263471.039    22513830.626   118310881.745  
C39  26193717.765   136397567.332                                    26193710.457   102789787.157    26193706.240   110834228.790    26193722.161   137648883.802  
> 2026 06 07 17 07 33.0000000  0 14                     
C01  38581508.532   200904139.548                                                                    38581503.600   163250979.183                                  
C02  36967709.018   192500510.845                                                                    36967698.493   156422428.145                                  
C03  37005426.023   192696971.570                                                                    37005415.820   156582032.939                                  
C07  37174520.194   193577455.275                                                                                                                                  
C08  38212076.989   198980316.864                                                                    38212074.738   161687820.150                                  
C09  38795633.177   202018966.630    38795632.016   156213913.379                                    38795621.973   164156997.907                                  
C10  37314597.824   194306854.464    37314585.780   150250363.491                                    37314585.226   157890250.613                                  
C12  22906842.435   119282001.306                                                                    22906833.751    96926302.865                                  
C19  22346989.488   116366685.132                                    22346988.345    87694377.319    22346982.305    94557362.629    22346982.412   117434200.666  
C20  24718078.517   128713579.883                                    24718079.375    96999033.342    24718070.369   104590195.502    24718071.030   129894462.655  
C22  23415667.510   121931545.281                                    23415656.020    91888049.601    23415655.520    99079345.230    23415666.742   123050172.815  
C27  25326046.256   131879332.2551                                                                                                                                 
C36  22511917.229   117225407.481                                    22511926.985    88341803.910    22511918.319    95255365.364    22511915.067   118300815.091  
C39                                                                  26187900.898   102766991.696    26187899.415   110809649.303    26187911.387   137618357.736  
> 2026 06 07 17 07 48.0000000  0 13                     
C01  38581484.320   200904013.720                                                                    38581479.513   163250876.914                                  
C02  36967909.473   192501554.805                                                                    36967898.930   156423276.410                                  
C03  37005574.711   192697746.645                                                                    37005564.686   156582662.756                                  
C07  37174455.723   193577118.555                                                                                                                                  
C08  38207187.220   198954859.282                                                                    38207184.040   161667133.821                                  
C09  38801208.598   202048010.363    38801210.081   156236371.867                                    38801197.126   164180598.270                                  
C10  37314546.790   194306585.672    37314534.121   150250155.691                                    37314533.656   157890032.186                                  
C12  22914491.163   119321830.240                                                                    22914484.981    96958667.024                                  
C19  22350704.601   116386035.771                                    22350705.316    87708960.090    22350697.257    94573086.641    22350698.347   117453728.907  
C20  24727376.913   128761997.662                                    24727377.360    97035521.140    24727367.193   104629538.866    24727369.033   129943324.587  
C22  23410496.429   121904626.149                                    23410490.836    91867763.337    23410485.637    99057471.235    23410496.501   123023006.751  
C36  22510008.317   117215475.813                                    22510015.643    88334319.363    22510005.529    95247295.138    22510008.281   118290792.306  
C39                                                                  26182096.164   102744218.869    26182096.825   110785094.262                                  
> 2026 06 07 17 08 03.0000000  0 12                     
C01  38581463.770   200903907.135                                                                    38581459.088   163250790.357                                  
C02  36968113.644   192502618.118                                                                    36968103.120   156424140.468                                  
C03  37005727.080   192698540.955                                                                    37005717.127   156583308.228                                  
C08  38202304.653   198929437.522                                                                    38202299.739   161646476.622                                  
C09  38806788.987   202077082.432    38806793.401   156258852.276                                    38806779.445   164204221.759                                  
C10  37314495.881   194306318.469    37314482.926   150249949.059                                    37314482.354   157889815.068                                  
C12  22922157.207   119361751.295                                                                    22922154.062    96991106.142                                  
C19  22354446.625   116405523.258                                    22354446.714    87723645.940    22354439.352    94588921.804    22354440.800   117473395.093  
C20  24736685.477   128810472.239                                    24736686.103    97072051.743    24736676.436   104668928.322    24736678.598   129992243.876  
C22  23405348.989   121877829.926                                                                    23405339.537    99035697.175    23405349.829   122995964.679  
C36  22508112.485   117205607.557                                    22508119.919    88326882.644    22508113.736    95239276.455    22508113.629   118280833.472  
C39                                                                  26176303.527   102721483.847    26176301.204   110760580.001                                  
> 2026 06 07 17 08 18.0000000  0 13                     
C01  38581442.041   200903794.317                                                                    38581437.324   163250698.713                                  
C02  36968316.637   192503675.326                                                                    36968305.915   156424999.574                                  
C03  37005878.306   192699328.947                                                                    37005868.495   156583948.546                                  
C07  37174332.355   193576516.6491                                                                                                                                 
C08  38197424.301   198904026.145                                                                    38197418.404   161625827.848                                  
C09  38812370.787   202106157.203    38812377.041   156281334.760                                    38812364.283   164227847.352                                  
C10                                  37314426.924   150249723.852                                    37314426.067   157889578.322                                  
C12  22929835.329   119401738.567                                                                    22929833.685    97023599.101                                  
C19  22358210.574   116425121.825                                    22358210.038    87738415.478    22358203.926    94604847.241    22358206.303   117493173.437  
C20  24745999.598   128858977.693                                    24746001.528    97108605.634    24745993.684   104708342.970    24745994.631   130041194.390  
C22                                                                                                  23400212.664    99014002.398    23400222.385   122969021.225  
C36  22506225.338   117195776.989                                    22506231.735    88319474.321    22506227.732    95231288.412    22506226.428   118270912.788  
C39  26170534.316   136276827.1511                                   26170517.609   102698767.303    26170511.551   110736085.691                                  
> 2026 06 07 17 08 33.0000000  0 13                     
C01  38581415.381   200903656.064                                                                    38581410.878   163250586.376                                  
C02  36968514.804   192504707.224                                                                    36968504.029   156425838.132                                  
C03  37006024.617   192700091.498                                                                    37006015.057   156584568.219                                  
C07  37174257.734   193576123.704                                                                    37174233.843   157296345.9351                                 
C08  38192542.252   198878606.095                                                                    38192536.909   161605171.999                                  
C09  38817949.943   202135215.472    38817957.662   156303804.407                                    38817947.459   164251459.448                                  
C10                                  37314362.292   150249465.207                                    37314361.506   157889306.571                                  
C12  22937523.351   119441772.746                                                                    22937521.600    97056130.210                                  
C19  22361991.999   116444812.123                                    22361992.302    87753254.224    22361986.084    94620847.318    22361987.674   117513044.444  
C20  24755316.525   128907494.709                                    24755320.098    97145168.230    24755313.505   104747767.019    24755312.522   130090156.557  
C22                                                                  23395115.882    91807457.9051   23395101.158    98992371.500                                  
C36  22504341.496   117185965.022                                    22504347.500    88312080.032    22504339.137    95223315.496    22504342.890   118261010.800  
C39  26164747.594   136246688.875                                    26164731.083   102676054.847    26164725.150   110711595.813                                  
> 2026 06 07 17 08 48.0000000  0 13                     
C01  38581389.471   200903521.693                                                                    38581385.093   163250477.196                                  
C02  36968713.776   192505743.138                                                                    36968703.072   156426679.893                                  
C03  37006171.643   192700857.874                                                                    37006162.191   156585190.990                                  
C07  37174176.680   193575691.0051                                                                   37174156.917   157296017.947                                  
C08  38187664.491   198853206.651                                                                    38187660.399   161584532.956                                  
C09  38823531.457   202164286.366    38823541.214   156326283.901                                    38823533.441   164275081.957                                  
C10                                  37314294.354   150249195.861                                    37314294.265   157889023.460                                  
C12  22945227.438   119481882.952                                                                    22945224.918    97088722.976                                  
C19  22365797.368   116464623.466                                    22365797.046    87768184.128    22365790.345    94636945.664    22365792.740   117533037.569  
C20  24764641.582   128956052.337                                    24764645.584    97181761.399    24764639.241   104787223.987    24764636.614   130139159.598  
C22  23390023.800   121797976.2191                                   23390024.194    91787478.552    23390010.202    98970828.609                                  
C36  22502466.374   117176200.847                                    22502472.468    88304721.722    22502462.372    95215381.378    22502467.143   118251157.025  
C39  26158963.624   136216585.186                                    26158953.992   102653368.553    26158945.183   110687134.034                                  
> 2026 06 07 17 09 03.0000000  0 13                     
C01  38581365.437   200903397.098                                                                    38581361.202   163250376.007                                  
C02  36968914.605   192506788.956                                                                    36968903.723   156427529.750                                  
C03  37006320.618   192701634.013                                                                    37006311.343   156585821.660                                  
C07                                                                                                  37174078.400   157295686.112                                  
C08  38182792.269   198827833.858                                                                    38182789.035   161563915.542                                  
C09  38829116.581   202193375.702    38829129.197   156348777.679                                    38829122.424   164298719.461                                  
C10                                  37314224.004   150248920.364                                    37314225.505   157888733.948                                  
C12  22952946.391   119522074.700                                                                    22952943.157    97121382.015                                  
C19  22369626.342   116484561.538                                    22369626.342    87783209.539    22369618.801    94653146.967    22369622.250   117553158.615  
C20  24773974.894   129004656.086                                    24773978.754    97218389.335    24773972.035   104826718.498    24773971.695   130188209.267  
C22  23384954.555   121771578.785                                    23384954.126    91767585.289    23384940.778    98949378.489                                  
C36  22500601.206   117166490.225                                    22500607.013    88297403.754    22500598.847    95207490.787    22500600.777   118241357.341  
C39  26153186.390   136186522.021                                    26153195.396   102630712.638    26153172.148   110662705.264                                  
> 2026 06 07 17 09 18.0000000  0 13                     
C01  38581343.458   200903282.982                                                                    38581339.187   163250283.285                                  
C02  36969117.490   192507845.385                                                                    36969106.715   156428388.192                                  
C03  37006471.664   192702420.594                                                                    37006462.462   156586460.819                                  
C07                                                                                                  37173997.704   157295350.984                                  
C08  38177925.427   198802488.491                                                                    38177922.139   161543320.451                                  
C09  38834705.386   202222484.142    38834721.361   156371286.243                                    38834714.035   164322372.443                                  
C10                                                                                                  37314155.369   157888438.480                                  
C12  22960678.371   119562348.253                                                                    22960676.101    97154107.689                                  
C19  22373479.171   116504626.858                                    22373479.100    87798330.872    22373472.435    94669451.711    22373475.991   117573408.023  
C20  24783317.337   129053306.405                                    24783321.126    97255052.416    24783313.388   104866250.837    24783313.299   130237305.902  
C22  23379907.271   121745296.545                                    23379905.395    91747778.912    23379893.708    98928022.090    23379895.138   122862136.5321 
C36  22498745.865   117156833.826                                    22498752.083    88290126.639    22498746.437    95199644.207    22498744.489   118231612.328  
C39  26147417.519   136156500.014                                    26147401.079   102608010.3651   26147405.278   110638310.012                                  
> 2026 06 07 17 09 33.0000000  0 13                     
C01  38581321.211   200903167.421                                                                    38581316.976   163250189.357                                  
C02  36969320.036   192508900.475                                                                    36969309.600   156429245.523                                  
C03  37006622.282   192703205.620                                                                    37006613.241   156587098.769                                  
C07                                                                                                  37173913.809   157295002.889                                  
C08  38173061.550   198777158.654                                                                    38173057.065   161522737.969                                  
C09  38840296.103   202251599.572    38840315.259   156393800.126                                    38840305.860   164346031.103                                  
C10                                  37314077.210   150248327.9391                                   37314081.391   157888127.448                                  
C12  22968426.022   119602691.735                                                                    22968423.842    97186890.058                                  
C19  22377354.677   116524807.365                                    22377353.801    87813538.974    22377346.278    94685849.998    22377350.924   117593773.682  
C20  24792666.428   129101991.103                                    24792671.181    97291741.371    24792662.568   104905811.135    24792662.961   130286437.229  
C22  23374879.786   121719117.755                                    23374875.962    91728050.457    23374869.046    98906749.575    23374869.404   122835717.552  
C36  22496898.994   117147219.561                                    22496905.802    88282881.269    22496901.031    95191831.867    22496896.725   118221909.809  
C39  26141655.920   136126507.385                                    26141641.661   102585407.965    26141640.338   110613938.605                                  
> 2026 06 07 17 09 48.0000000  0 13                     
C01  38581299.089   200903052.410                                                                    38581294.872   163250095.974                                  
C02  36969522.778   192509956.217                                                                    36969512.342   156430103.459                                  
C03  37006773.061   192703991.210                                                                    37006764.127   156587737.144                                  
C07                                                                                                  37173828.484   157294643.547                                  
C08  38168200.801   198751846.473                                                                    38168194.886   161502169.796                                  
C09  38845889.715   202280723.920    38845910.657   156416321.100                                    38845897.327   164369697.182                                  
C10                                  37314005.144   150248018.668                                    37314004.501   157887802.449                                  
C12  22976187.253   119643106.710                                                                    22976185.824    97219730.534                                  
C19  22381252.590   116545104.931                                    22381251.571    87828835.283    22381242.458    94702343.386    22381249.391   117614257.456  
C20  24802022.702   129150711.887                                    24802028.670    97328457.580    24802018.878   104945400.767    24802020.611   130335605.053  
C22  23369872.474   121693044.631                                    23369867.114    91708401.737                                    23369863.183   122809405.292  
C36  22495062.452   117137649.274                                    22495068.331    88275669.073    22495063.041    95184055.244    22495057.252   118212251.770  
C39  26135901.166   136096545.980                                    26135890.462   102562828.922    26135884.333   110589592.592    26135895.716   137345059.4341 
> 2026 06 07 17 10 03.0000000  0 13                     
C01  38581275.824   200902931.418                                                                    38581271.607   163249997.639                                  
C02  36969724.340   192511006.092                                                                    36969713.762   156430956.582                                  
C03  37006922.732   192704770.760                                                                    37006913.833   156588370.604                                  
C07                                                                                                  37173740.515   157294267.587                                  
C08  38163341.749   198726545.452                                                                    38163335.584   161481610.719                                  
C09  38851484.578   202309850.652    38851505.770   156438843.881                                    38851486.561   164393365.019                                  
C10                                  37313924.430   150247691.115                                    37313923.125   157887458.205                                  
C12  22983960.671   119683586.401                                                                    22983958.634    97252623.631                                  
C19  22385171.713   116565512.830                                    22385169.551    87844214.765    22385165.745    94718926.458    22385169.640   117634852.618  
C20  24811385.248   129199462.007                                    24811391.341    97365195.853    24811380.888   104985014.202    24811381.746   130384802.381  
C22  23364884.176   121667070.970                                    23364877.725    91688827.888                                    23364876.921   122783193.238  
C36  22493232.807   117128116.485                                    22493238.185    88268485.092    22493232.753    95176309.039    22493242.063   118202751.7251 
C39  26130151.611   136066609.273                                    26130148.573   102540268.634    26130139.138   110565266.674    26130155.631   137314856.219  
> 2026 06 07 17 10 18.0000000  0 13                     
C01  38581251.593   200902805.439                                                                    38581247.341   163249895.318                                  
C02  36969925.027   192512051.090                                                                    36969914.574   156431805.757                                  
C03  37007071.402   192705545.225                                                                    37007062.575   156588999.918                                  
C07                                                                                                  37173649.919   157293875.764                                  
C08  38158485.127   198701256.562                                                                    38158479.409   161461061.505                                  
C09  38857080.226   202338980.609    38857100.275   156461369.075                                                                                                  
C10                                  37313839.444   150247345.889                                    37313837.515   157887095.406                                  
C12  22991747.384   119724131.455                                                                    22991742.952    97285569.812                                  
C19  22389112.404   116586031.913                                    22389109.081    87859677.991    22389107.312    94735599.896    22389109.956   117655559.887  
C20  24820752.529   129248242.045                                    24820759.266    97401956.725    24820749.527   105024651.960    24820747.598   130434029.919  
C22  23359914.979   121641197.804                                    23359908.654    91669329.832                                    23359909.315   122757082.750  
C36                                                                  22491414.241    88261329.943    22491409.863    95168593.902    22491416.045   118193170.021  
C39  26124408.078   136036698.219                                    26124404.647   102517727.558    26124397.124   110540961.490    26124410.312   137284670.654  
> 2026 06 07 17 10 33.0000000  0 13                     
C01  38581223.914   200902661.385                                                                    38581219.554   163249778.255                                  
C02  36970122.248   192513078.129                                                                    36970111.598   156432640.313                                  
C03  37007216.695   192706301.597                                                                    37007207.868   156589614.556                                  
C07                                                                                                  37173553.355   157293457.600                                  
C08  38153628.809   198675966.899                                                                    38153623.466   161440511.679                                  
C09  38862673.731   202368100.555    38862691.082   156483886.549                                                                                                  
C10                                  37313747.544   150246973.098                                    37313745.114   157886703.649                                  
C12  22999544.336   119764728.713                                                                    22999538.135    97318558.366                                  
C19  22393071.715   116606648.959                                    22393068.642    87875215.063    22393063.799    94752352.916    22393069.142   117676366.092  
C20  24830123.134   129297038.733                                    24830130.193    97438730.140    24830121.633   105064303.275    24830118.203   130483274.324  
C22  23354962.955   121615412.371                                    23354956.861    91649897.905    23354944.871    98822410.1481   23354957.773   122731060.772  
C36  22489611.989   117109355.7781                                   22489594.370    88254193.751    22489591.350    95160899.201    22489596.264   118183613.693  
C39  26118666.511   136006799.740                                    26118660.382   102495195.898    26118655.825   110516666.492    26118668.333   137254497.746  
> 2026 06 07 17 10 48.0000000  0 14                     
C01  38581196.968   200902521.117                                                                    38581192.643   163249664.307                                  
C02  36970320.272   192514109.091                                                                    36970309.783   156433478.082                                  
C03  37007362.739   192707061.712                                                                    37007353.983   156590232.221                                  
C07  37173465.332   193571993.5991                                                                   37173453.896   157293030.724                                  
C08  38148776.369   198650698.389                                                                    38148771.222   161419979.021                                  
C09  38868269.326   202397232.429    38868282.817   156506413.164                                                                                                  
C10                                  37313652.767   150246589.439                                    37313649.926   157886300.448                                  
C12  23007355.028   119805399.607                                                                    23007349.221    97351606.740                                  
C19  22397053.934   116627385.656                                    22397051.844    87890842.334    22397046.286    94769203.158    22397051.826   117697293.079  
C20  24839501.995   129345873.591                                    24839508.660    97475532.278    24839500.154   105103985.603    24839497.313   130532557.276  
C22  23350032.766   121589736.728                                    23350025.422    91630548.668    23350016.756    98801546.688    23350027.924   122705149.607  
C30  25248277.820   131474393.737                                    25248280.662    99079674.807    25248276.999   106833728.687    25248267.867   132680552.568  
C36  22487796.532   117099933.042                                    22487784.595    88247092.889    22487781.593    95153242.556    22487783.291   118174104.783  
C39  26112930.662   135976935.489                                    26112923.728   102472690.132    26112922.299   110492399.415    26112932.931   137224359.608  
> 2026 06 07 17 11 03.0000000  0 14                     
C01  38581170.915   200902385.516                                                                    38581166.590   163249554.084                                  
C02  36970519.208   192515144.804                                                                    36970508.844   156434319.698                                  
C03  37007509.622   192707826.444                                                                    37007500.813   156590853.676                                  
C07  37173356.563   193571458.633                                                                    37173351.756   157292596.136                                  
C08  38143927.502   198625452.037                                                                    38143922.910   161399464.311                                  
C09  38873866.387   202426376.864    38873876.893   156528949.494                                                                                                  
C10                                  37313555.452   150246195.718                                    37313551.986   157885886.705                                  
C12  23015179.623   119846144.838                                                                    23015174.727    97384715.495                                  
C19  22401059.794   116648242.762                                    22401058.061    87906560.339    22401052.503    94786151.272    22401056.238   117718341.481  
C20  24848888.432   129394747.320                                    24848882.589    97512363.588    24848885.001   105143699.473    24848883.196   130581879.380  
C22                                                                  23345114.461    91611283.138    23345109.314    98780773.291    23345121.412   122679350.157  
C30  25241277.935   131437945.367                                    25241280.061    99052207.248    25241276.487   106804111.457    25241268.589   132643769.915  
C36  22485992.297   117090558.165                                    22485984.523    88240027.898    22485981.450    95145624.639    22485984.631   118164643.810  
C39                                                                  26107194.652   102450210.934    26107196.635   110468160.942    26107205.194   137194257.038  
> 2026 06 07 17 11 18.0000000  0 14                     
C01  38581145.845   200902254.977                                                                    38581141.502   163249448.035                                  
C02  36970719.180   192516185.723                                                                    36970708.780   156435165.551                                  
C03  37007657.506   192708596.195                                                                    37007648.554   156591479.152                                  
C07  37173252.583   193570914.493                                                                    37173247.258   157292153.938                                  
C08  38139082.870   198600228.215                                                                    38139079.100   161378967.951                                  
C09  38879464.108   202455534.119    38879473.847   156551495.846                                    38879475.294   164511776.3951                                 
C10                                  37313455.582   150245792.261                                    37313451.490   157885462.752                                  
C12  23023017.727   119886964.435                                                                    23023012.599    97417884.708                                  
C19  22405089.259   116669220.569                                    22405087.168    87922369.267    22405080.521    94803197.411    22405084.452   117739511.742  
C20  24858281.641   129443659.988                                    24858281.105    97549224.085    24858276.977   105183444.984    24858276.906   130631240.761  
C22                                                                  23340224.192    91592101.457    23340222.262    98760090.503                                  
C30  25234278.745   131401500.340                                    25234280.514    99024742.200    25234277.816   106774496.947    25234269.668   132606990.498  
C36  22484199.640   117081231.249                                    22484195.084    88232999.023    22484190.134    95138045.664                                  
C39                                                                  26101473.294   102427758.573    26101474.527   110443951.418    26101481.532   137164190.413  
> 2026 06 07 17 11 33.0000000  0 15                     
C01  38581122.275   200902132.636                                                                    38581118.112   163249348.620                                  
C02  36970920.743   192517234.911                                                                    36970910.432   156436018.149                                  
C03  37007806.909   192709374.056                                                                    37007798.046   156592111.261                                  
C07  37173147.674   193570364.229                                                                    37173141.134   157291706.829                                  
C08  38134243.671   198575030.109                                                                    38134240.615   161358492.501                                  
C09  38885065.189   202484707.422    38885074.552   156574054.529                                    38885079.806   164535482.063                                  
C10  37313350.137   194300418.9461   37313353.729   150245381.433                                    37313349.154   157885030.993                                  
C12  23030870.359   119927861.240                                                                    23030864.426    97451116.692                                  
C19  22409141.614   116690321.928                                    22409139.273    87938271.346    22409132.840    94820343.979    22409136.235   117760806.688  
C20  24867682.463   129492614.353                                    24867688.484    97586116.247    24867677.263   105223224.390    24867679.193   130680644.260  
C22  23335362.638   121513389.8781                                                                   23335356.455    98739500.930                                  
C27  25275052.211   131613826.2511                                                                                                                                 
C30  25227280.664   131365062.062                                    25227282.165    98997282.233    25227281.593   106744887.916    25227271.962   132570217.971  
C36  22482417.688   117071955.228                                    22482415.043    88226008.531    22482408.378    95130508.097    22482409.129   118145920.5121 
C39  26095808.367   135887712.0001                                   26095759.281   102405335.266    26095756.708   110419773.265    26095766.447   137134162.736  
> 2026 06 07 17 11 48.0000000  0 14                     
C01  38581098.081   200902006.854                                                                    38581094.006   163249246.476                                  
C02  36971121.662   192518280.836                                                                    36971111.370   156436868.030                                  
C03  37007955.705   192710148.585                                                                    37007946.788   156592740.565                                  
C07  37173039.317   193569796.379                                                                    37173031.544   157291245.308                                  
C08  38129407.491   198549846.245                                                                    38129404.954   161338028.603                                  
C09  38890667.396   202513884.968    38890676.473   156596616.478                                    38890685.158   164559191.299                                  
C10  37313245.157   194299866.583    37313247.658   150244954.304                                    37313242.976   157884582.143                                  
C12  23038736.875   119968823.455                                                                    23038732.246    97484401.817                                  
C19  22413214.911   116711535.116                                    22413211.963    87954257.729    22413206.888    94837581.451    22413209.711   117782214.546  
C20  24877089.503   129541598.656                                    24877095.649    97623030.978    24877084.052   105263028.116    24877083.284   130730077.916  
C22  23330516.755   121488154.921                                                                    23330509.626    98718995.428    23330515.773   122602741.8291 
C30  25220281.493   131328619.249                                    25220283.280    98969818.861    25220284.781   106715275.180    25220275.167   132533440.758  
C36                                                                  22480640.417    88219047.685    22480635.807    95123002.430    22480634.824   118136598.999  
C39  26090055.900   135857746.0681                                   26090051.754   102382932.389    26090047.108   110395617.197    26090059.831   137104162.441  
> 2026 06 07 17 12 03.0000000  0 14                     
C01  38581073.332   200901878.185                                                                    38581069.186   163249141.884                                  
C02  36971322.027   192519323.889                                                                    36971311.789   156437715.636                                  
C03  37008103.964   192710919.961                                                                    37008095.011   156593367.424                                  
C07                                                                                                  37172917.986   157290769.848                                  
C08  38124574.153   198524677.181                                                                    38124571.919   161317576.705                                  
C09  38896270.907   202543067.003    38896279.359   156619181.890                                    38896289.151   164582904.134                                  
C10  37313135.459   194299293.531    37313137.567   150244511.247                                    37313132.993   157884116.538                                  
C12  23046616.685   120009851.345                                                                    23046613.754    97517740.300                                  
C19  22417310.223   116732860.489                                    22417307.132    87970328.619    22417302.825    94854910.071    22417304.987   117803735.588  
C20  24886502.529   129590613.031                                    24886507.621    97659968.395    24886497.597   105302856.266    24886496.757   130779541.950  
C22  23325690.672   121463023.967                                    23325684.400    91534991.4281   23325682.470    98698574.535    23325690.815   122577380.348  
C30  25213281.857   131292172.582                                    25213284.198    98942352.588    25213285.824   106685659.294    25213276.354   132496659.683  
C36  22478868.149   117053360.7791                                   22478871.580    88212116.743    22478871.062    95115528.958    22478868.096   118127317.530  
C39                                                                  26084349.356   102360550.095    26084345.604   110371483.326    26084357.987   137074189.861  
> 2026 06 07 17 12 18.0000000  0 14                     
C01  38581045.653   200901734.012                                                                    38581041.507   163249024.774                                  
C02  36971519.462   192520351.620                                                                    36971509.206   156438550.764                                  
C03  37008249.346   192711675.848                                                                    37008240.162   156593981.677                                  
C07                                                                                                  37172798.496   157290270.226                                  
C08  38119741.279   198499510.389                                                                    38119739.010   161297126.689                                  
C09  38901872.613   202572241.156    38901880.690   156641741.144                                    38901891.537   164606610.546                                  
C10  37313019.935   194298687.351    37313021.043   150244042.517                                    37313017.130   157883623.979                                  
C12  23054505.966   120050931.932                                                                    23054504.089    97551121.645                                  
C19  22421425.173   116754285.378                                    22421421.689    87986474.453    22421417.150    94872319.505    22421420.223   117825357.021  
C20  24895918.950   129639644.624                                    24895923.274    97696918.778    24895914.357   105342698.411    24895912.910   130829023.347  
C22  23320882.690   121437984.797                                    23320875.185    91516121.952    23320873.165    98678228.210    23320882.904   122552111.420  
C30  25206279.523   131255709.737                                    25206282.507    98914874.149    25206283.043   106656030.326    25206274.413   132459862.351  
C36  22477108.068   117044190.636                                    22477108.140    88205206.098    22477109.212    95108077.449    22477106.728   118118063.300  
C39                                                                  26078648.834   102338178.900    26078639.899   110347361.410    26078657.483   137044232.077  
> 2026 06 07 17 12 33.0000000  0 14                     
C01  38581025.568   200901629.475                                                                    38581021.512   163248939.864                                  
C02  36971724.491   192521419.008                                                                    36971714.217   156439418.104                                  
C03  37008402.323   192712471.345                                                                    37008392.995   156594628.092                                  
C07                                                                                                  37172684.152   157289791.281                                  
C08  38114919.484   198474401.101                                                                    38114916.589   161276723.402                                  
C09                                  38907490.831   156664336.847                                    38907502.696   164630355.186                                  
C10  37312908.719   194298103.153    37312908.897   150243590.776                                    37312905.538   157883149.285                                  
C12  23062415.653   120092120.133                                                                    23062414.170    97584590.494                                  
C19  22425568.857   116775864.649                                    22425565.551    88002736.647    22425560.440    94889854.402    22425565.729   117847134.261  
C20  24905348.916   129688748.297                                    24905352.972    97733923.507    24905343.894   105382599.160    24905341.589   130878577.466  
C22  23316103.351   121413092.696                                    23316094.238    91497363.228    23316092.487    98658001.370    23316102.708   122526991.015  
C30  25199284.980   131219286.198                                    25199289.108    98887425.360    25199287.768   106626433.283    25199279.834   132423104.667  
C36  22475361.782   117035102.538                                    22475362.587    88198357.302    22475362.783    95100692.623    22475360.657   118108891.852  
C39                                                                  26072960.731   102315860.662    26072955.299   110323296.693    26072970.827   137014345.187  
> 2026 06 07 17 12 48.0000000  0 14                     
C01  38581002.678   200901510.268                                                                    38580998.479   163248842.980                                  
C02  36971926.733   192522471.807                                                                    36971916.405   156440273.639                                  
C03  37008552.458   192713252.058                                                                    37008542.952   156595262.519                                  
C07                                                                                                  37172564.858   157289288.768                                  
C08  38110098.100   198449295.054                                                                    38110094.437   161256322.732                                  
C09  38913089.625   202630650.8441   38913099.703   156686926.705                                    38913112.086   164654093.749                                  
C10  37312791.105   194297486.615    37312790.676   150243114.048                                    37312787.942   157882648.326                                  
C12  23070335.829   120133361.372                                                                    23070334.042    97618102.390                                  
C19  22429731.749   116797543.782                                    22429729.176    88019074.113    22429723.190    94907470.483    22429726.406   117869012.211  
C20  24914782.009   129737869.387                                    24914785.976    97770941.361    24914776.684   105422514.098    24914775.701   130928149.267  
C22  23311341.775   121388293.550                                    23311363.468    91478796.0131   23311329.731    98637850.080    23311339.416   122501964.290  
C30  25192287.667   131182847.959                                    25192290.794    98859965.385    25192290.294   106596824.274    25192283.182   132386332.075  
C36  22473620.893   117026042.035                                    22473625.860    88191529.344    22473623.144    95093330.189    22473618.588   118099748.184  
C39                                                                  26067276.380   102293554.095    26067270.019   110299244.466                                  
> 2026 06 07 17 13 03.0000000  0 14                     
C01  38580979.555   200901390.032                                                                    38580975.410   163248745.292                                  
C02  36972128.832   192523523.769                                                                    36972118.575   156441128.428                                  
C03  37008702.308   192714031.754                                                                    37008692.677   156595896.083                                  
C07                                                                                                  37172443.671   157288774.067                                  
C08  38105279.879   198424205.998                                                                    38105275.912   161235935.885                                  
C09  38918695.566   202659870.820    38918709.790   156709521.327                                    38918722.673   164677837.389                                  
C10  37312669.613   194296851.433    37312668.970   150242622.894                                    37312666.486   157882132.186                                  
C12  23078269.425   120174669.097                                                                    23078266.852    97651668.289                                  
C19  22433917.014   116819336.454                                    22433914.744    88035497.109    22433908.615    94925178.758    22433911.582   117891004.831  
C20  24924221.463   129787021.440                                    24924225.090    97807982.545    24924216.120   105462454.143    24924216.513   130977752.285  
C22  23306600.498   121363601.324                                    23306617.992    91460188.034    23306587.346    98617785.630    23306597.067   122477045.541  
C30  25185290.051   131146409.018                                    25185292.409    98832505.002    25185290.676   106567214.744    25185285.119   132349558.856  
C36  22471888.348   117017022.712                                    22471894.245    88184732.311    22471891.350    95086001.227    22471883.702   118090646.121  
C39  26061610.059   135709722.528                                    26061600.839   102271269.505    26061593.459   110275215.982                                  
> 2026 06 07 17 13 18.0000000  0 14                     
C01  38580955.718   200901266.381                                                                    38580951.572   163248644.842                                  
C02  36972330.287   192524572.390                                                                    36972319.995   156441980.533                                  
C03  37008851.622   192714807.975                                                                    37008841.758   156596526.784                                  
C07                                                                                                  37172319.338   157288245.068                                  
C08  38100464.499   198399131.580                                                                    38100460.693   161215560.932                                  
C09  38924351.701   202689318.6311   38924321.235   156732118.847                                    38924334.994   164701583.978                                  
C10  37312543.744   194296195.204    37312543.118   150242115.463                                    37312540.867   157881598.963                                  
C12  23086215.280   120216040.587                                                                    23086211.670    97685285.966                                  
C19  22438122.846   116841239.947                                    22438121.184    88052003.641    22438115.788    94942977.119    22438117.342   117913109.259  
C20  24933666.242   129836201.709                                    24933669.709    97845045.009    24933661.418   105502417.099    24933661.293   131027383.747  
C22  23301879.073   121339013.725                                    23301891.635    91441658.609    23301865.046    98597806.192    23301874.945   122452232.353  
C30  25178291.701   131109967.251                                    25178294.739    98805042.425    25178290.576   106537602.885    25178286.716   132312782.720  
C36  22470163.576   117008042.016                                    22470170.402    88177964.423    22470166.239    95078703.718    22470157.537   118081583.018  
C39  26055936.216   135680178.873                                    26055933.392   102249005.099    26055920.330   110251209.296                                  
> 2026 06 07 17 13 33.0000000  0 14                     
C01  38580930.469   200901135.008                                                                    38580926.449   163248538.119                                  
C02  36972530.331   192525613.387                                                                    36972520.199   156442826.456                                  
C03  37008999.416   192715576.409                                                                    37008989.320   156597151.232                                  
C07                                                                                                  37172191.128   157287698.301                                  
C08  38095650.923   198374067.589                                                                    38095647.832   161195194.422                                  
C09  38929979.622   202718586.620    38929933.251   156754715.810                                    38929950.352   164725356.9741                                 
C10  37312412.907   194295513.573    37312412.281   150241588.427                                    37312409.994   157881045.067                                  
C12  23094172.159   120257471.235                                                                    23094166.137    97718951.711                                  
C19  22442348.816   116863249.769                                    22442348.959    88068590.377    22442342.437    94960861.931    22442340.203   117935320.948  
C20  24943114.560   129885405.523                                    24943119.277    97882125.207    24943110.468   105542399.214    24943110.271   131077038.963  
C22  23297176.804   121314526.583                                    23297185.202    91423205.191    23297161.669    98577908.421    23297171.979   122427520.626  
C30  25171291.619   131073518.622                                    25171296.050    98777574.684    25171291.029   106507985.428    25171286.079   132275999.687  
C36  22468445.059   116999095.567                                    22468452.850    88171222.362    22468445.952    95071434.074    22468439.609   118072554.478  
C39  26050265.928   135650657.754                                    26050270.270   102226757.645    26050251.526   110227220.833    26050266.125   136895022.0331 
> 2026 06 07 17 13 48.0000000  0 14                     
C01  38580903.255   200900993.635                                                                    38580899.288   163248423.216                                  
C02  36972728.409   192526644.413                                                                    36972718.331   156443664.285                                  
C03  37009145.228   192716334.738                                                                    37009135.042   156597767.435                                  
C07                                                                                                  37172058.289   157287131.935                                  
C08  38090838.867   198349011.745                                                                    38090836.419   161174834.530                                  
C09  38935592.943   202747806.660    38935544.947   156777310.437                                                                                                  
C10  37312276.781   194294804.298    37312276.084   150241039.964                                    37312273.761   157880468.742                                  
C12  23102139.456   120298958.463                                                                    23102131.647    97752663.440                                  
C19  22446595.854   116885363.556                                    22446596.676    88085255.434    22446589.010    94978831.198    22446587.402   117957637.636  
C20  24952566.772   129934630.346                                    24952572.723    97919221.240    24952562.984   105582398.390    24952564.735   131126715.410  
C22  23292494.244   121290137.878                                    23292499.087    91404825.770    23292477.572    98558090.608    23292489.330   122402908.181  
C30  25164290.178   131037061.150                                    25164295.074    98750100.242    25164290.339   106478360.750    25164283.352   132239207.696  
C36  22466732.563   116990180.944                                    22466740.408    88164504.293    22466733.296    95064190.297    22466728.686   118063558.060  
C39  26044599.411   135621156.841                                    26044605.808   102204525.350    26044588.385   110203248.740    26044600.429   136865250.408  
> 2026 06 07 17 14 03.0000000  0 14                     
C01  38580878.077   200900862.733                                                                    38580873.932   163248316.850                                  
C02  36972928.524   192527686.076                                                                    36972918.321   156444510.702                                  
C03  37009293.058   192717103.466                                                                    37009282.765   156598392.145                                  
C07                                                                                                  37171924.504   157286562.665                                  
C08  38086032.600   198323984.677                                                                    38086030.331   161154498.018                                  
C09  38941162.896   202776918.6591   38941159.966   156799918.363                                                                                                  
C10  37312139.421   194294087.933    37312138.528   150240486.021                                    37312135.991   157879886.625                                  
C12  23110121.012   120340522.491                                                                    23110115.008    97786437.579                                  
C19  22450866.568   116907601.664                                    22450866.747    88102014.168    22450859.582    94996901.461    22450858.224   117980079.770  
C20  24962027.384   129983896.368                                    24962033.781    97956348.338    24962024.203   105622431.083    24962025.936   131176433.470  
C22  23287835.433   121265868.206                                    23287836.683    91386536.146    23287819.386    98538369.545    23287829.822   122378416.089  
C30  25157291.114   131000615.667                                    25157296.779    98722634.832    25157291.132   106448745.876    25157282.859   132202427.833  
C36  22465031.075   116981318.620                                    22465038.401    88157825.650    22465032.290    95056988.954    22465027.858   118054614.466  
C39  26038940.952   135591696.485                                                                    26038929.963   110179309.753    26038941.435   136835519.715  
> 2026 06 07 17 14 18.0000000  0 14                     
C01  38580853.722   200900735.905                                                                    38580849.755   163248213.808                                  
C02  36973129.426   192528731.865                                                                    36973119.455   156445360.550                                  
C03  37009441.693   192717876.261                                                                    37009431.096   156599020.096                                  
C07                                                                                                  37171788.753   157285985.305                                  
C08  38081230.854   198298979.990                                                                    38081228.299   161134179.711                                  
C09  38946775.306   202805989.5301   38946776.807   156822534.631                                                                                                  
C10  37311999.471   194293357.990    37311998.417   150239921.611                                    37311995.558   157879293.529                                  
C12  23118115.917   120382156.706                                                                    23118111.897    97820268.768                                  
C19  22455158.994   116929957.385                                    22455157.350    88118861.542    22455153.401    95015067.349    22455151.971   118002640.634  
C20  24971495.714   130033196.970                                    24971501.432    97993501.472    24971493.195   105662491.854    24971494.356   131226186.371  
C22  23283197.867   121241711.562                                    23283196.777    91368331.734    23283183.143    98518740.370    23283191.953   122354037.865  
C30  25150293.122   130964175.993                                    25150300.002    98695173.803    25150293.158   106419135.727    25150283.080   132165653.845  
C36  22463338.324   116972502.056                                    22463346.348    88151181.453    22463340.004    95049824.753    22463334.876   118045717.019  
C39  26033289.052   135562270.427                                    26033279.510   102160182.6881   26033276.115   110155398.502    26033287.551   136805823.546  
> 2026 06 07 17 14 33.0000000  0 14                     
C01  38580827.919   200900601.691                                                                    38580823.970   163248104.791                                  
C02  36973328.951   192529770.329                                                                    36973318.962   156446204.385                                  
C03  37009588.951   192718641.590                                                                    37009577.980   156599642.009                                  
C07                                                                                                  37171648.785   157285390.538                                  
C08  38076431.431   198273986.309                                                                    38076428.429   161113870.326                                  
C09  38952397.312   202835236.630    38952393.774   156845150.346                                    38952388.949   164820304.433                                  
C10  37311854.804   194292603.086    37311853.588   150239337.867                                    37311850.283   157878680.067                                  
C12  23126122.347   120423849.286                                                                    23126118.291    97854147.341                                  
C19  22459472.326   116952419.171                                    22459467.858    88135788.818    22459467.429    95033319.411    22459465.750   118025308.508  
C20  24980968.405   130082520.383                                    24980973.212    98030671.768    24980966.708   105702571.134    24980967.726   131275962.284  
C22  23278579.582   121217656.556                                    23278576.545    91350203.732    23278564.698    98499193.764    23278573.829   122329762.230  
C30  25143294.398   130927730.955                                    25143301.403    98667708.761    25143294.434   106389521.200    25143285.749   132128874.549  
C36  22461651.757   116963719.684                                    22461659.619    88144563.038    22461653.436    95042688.340    22461648.826   118036854.075  
C39  26027641.940   135532866.915                                    26027633.613   102138024.008    26027628.485   110131505.660    26027641.493   136776150.360  
> 2026 06 07 17 14 48.0000000  0 14                     
C01  38580800.847   200900460.682                                                                    38580796.862   163247990.185                                  
C02  36973527.154   192530802.140                                                                    36973517.255   156447042.793                                  
C03  37009734.834   192719400.076                                                                    37009723.612   156600258.341                                  
C07  37171513.105   193561819.5411                                                                   37171504.689   157284778.896                                  
C08  38071634.295   198249004.361                                                                    38071630.704   161093570.482                                  
C09  38958013.474   202864483.512    38958010.740   156867765.800                                    38958005.951   164844069.816                                  
C10  37311705.222   194291823.812    37311704.239   150238735.299                                    37311700.433   157878046.834                                  
C12  23134140.446   120465600.618                                                                    23134135.657    97888073.680                                  
C19  22463806.707   116974987.509                                    22463804.867    88152796.307    22463800.203    95051657.990    22463800.257   118048083.886  
C20  24990444.973   130131866.908                                    24990448.815    98067859.494    24990443.794   105742669.218    24990440.113   131325761.450  
C22                                                                  23273975.754    91332153.206    23273965.354    98479730.506    23273974.592   122305590.007  
C30  25136294.673   130891281.543                                    25136301.213    98640240.424    25136295.441   106359903.125    25136288.544   132092090.674  
C36  22459971.908   116954971.968                                    22459979.395    88137970.783    22459972.694    95035580.165    22459968.852   118028026.118  
C39  26021998.742   135503486.654                                    26021995.919   102115882.755    26021988.860   110107631.843    26022001.029   136746500.637  
> 2026 06 07 17 15 03.0000000  0 14                     
C01  38580772.936   200900315.459                                                                    38580769.130   163247872.293                                  
C02  36973724.625   192531829.860                                                                    36973714.547   156447877.935                                  
C03  37009879.805   192720154.288                                                                    37009868.458   156600871.231                                  
C07  37171365.704   193561048.735                                                                    37171356.787   157284152.517                                  
C08  38066839.768   198224036.762                                                                    38066835.337   161073282.308                                  
C09  38963629.672   202893732.629    38963628.207   156890383.066                                    38963623.239   164867837.132                                  
C10  37311551.173   194291022.741    37311550.744   150238115.858                                    37311546.509   157877395.946                                  
C12  23142170.374   120507413.036                                                                    23142164.781    97922049.617                                  
C19  22468161.674   116997664.728                                    22468162.639    88169885.966    22468154.562    95070085.074    22468155.563   118070969.136  
C20  24999926.134   130181238.855                                    24999928.010    98105066.403    24999924.597   105782788.014    24999921.131   131375586.339  
C22                                                                  23269394.547    91314181.813    23269386.774    98460352.651    23269394.940   122281523.979  
C30  25129294.394   130854830.550                                    25129300.040    98612770.914    25129295.752   106330283.728    25129286.531   132055305.330  
C36  22458298.938   116946261.467                                    22458306.265    88131406.544    22458300.368    95028502.231    22458295.007   118019235.705  
C39  26016360.011   135474132.249                                    26016352.720   102093761.074    26016356.491   110083778.888    26016365.872   136716876.952  
> 2026 06 07 17 15 18.0000000  0 14                     
C01  38580748.348   200900187.610                                                                    38580744.506   163247768.325                                  
C02  36973925.383   192532874.968                                                                    36973915.323   156448727.216                                  
C03  37010028.154   192720925.816                                                                    37010016.646   156601498.149                                  
C07  37171218.445   193560281.310                                                                    37171209.100   157283528.898                                  
C08  38062052.032   198199105.139                                                                    38062046.635   161053023.367                                  
C09  38969250.302   202923005.416    38969250.141   156913018.586                                    38969244.745   164891623.636                                  
C10  37311396.999   194290221.443    37311397.160   150237496.246                                    37311392.425   157876744.759                                  
C12  23150215.205   120549307.666                                                                    23150209.701    97956092.422                                  
C19  22472542.194   117020472.213                                    22472542.408    88187073.791    22472535.117    95088618.031    22472536.475   118093985.890  
C20  25009416.890   130230657.498                                    25009415.872    98142308.447    25009413.870   105822944.702    25009412.512   131425458.381  
C22                                                                  23264838.232    91296306.185    23264832.389    98441078.002    23264839.930   122257586.169  
C30  25122298.028   130818399.856                                    25122303.389    98585316.704    25122298.600   106300680.885    25122290.487   132018540.409  
C36  22456637.351   116937609.559                                    22456644.660    88124886.449    22456639.710    95021471.924    22456633.152   118010504.392  
C39  26010731.805   135444825.138                                    26010724.586   102071674.963    26010727.034   110059964.351    26010738.273   136687300.990  
> 2026 06 07 17 15 33.0000000  0 14                     
C01  38580725.136   200900066.873                                                                    38580721.402   163247670.208                                  
C02  36974127.625   192533927.299                                                                    36974117.654   156449582.293                                  
C03  37010177.861   192721704.296                                                                    37010166.085   156602130.773                                  
C07  37171069.543   193559507.072                                                                    37171059.625   157282899.730                                  
C08  38057269.066   198174199.333                                                                    38057263.259   161032785.435                                  
C09  38974873.701   202952291.588    38974874.648   156935664.489                                    38974868.823   164915421.066                                  
C10  37311241.003   194289409.660    37311241.449   150236868.546                                    37311236.482   157876085.160                                  
C12  23158272.633   120591274.019                                                                    23158268.720    97990193.566                                  
C19  22476945.442   117043399.582                                    22476943.781    88204351.928    22476937.723    95107248.372    22476939.617   118117123.570  
C20  25018914.919   130280112.261                                    25018913.168    98179577.755    25018909.934   105863130.753    25018910.595   131475366.908  
C22  23260316.029   121122571.4991                                   23260304.557    91278518.618    23260300.287    98421898.339    23260309.525   122233766.374  
C30  25115303.717   130781979.539                                    25115309.006    98557870.282    25115301.841   106271086.510    25115296.909   131981785.976  
C36  22454985.074   116929005.936                                    22454991.954    88118402.754    22454988.541    95014480.812    22454981.268   118001821.802  
C39  26005112.229   135415554.942                                    26005107.029   102049616.718    26005105.046   110036179.844    26005116.375   136657762.312  
> 2026 06 07 17 15 48.0000000  0 14                     
C01  38580699.262   200899932.229                                                                    38580695.331   163247560.857                                  
C02  36974327.133   192534965.761                                                                    36974317.483   156450426.142                                  
C03  37010324.851   192722468.825                                                                    37010312.897   156602752.041                                  
C07  37170915.119   193558705.007                                                                    37170905.112   157282247.951                                  
C08  38052486.922   198149298.404                                                                    38052481.580   161012551.428                                  
C09  38980495.725   202981569.966    38980497.833   156958304.398                                    38980491.472   164939212.163                                  
C10  37311079.091   194288566.383    37311079.574   150236216.496                                    37311074.303   157875399.963                                  
C12  23166341.051   120633290.926                                                                    23166337.727    98024335.745                                  
C19  22481367.150   117066425.580                                    22481365.649    88221704.421    22481358.519    95125958.868    22481361.325   118140360.845  
C20  25028415.682   130329581.900                                    25028415.718    98216858.236    25028409.053   105903328.854    25028409.750   131525290.376  
C22  23255801.939   121099064.289                                    23255789.734    91260803.492    23255786.161    98402796.821    23255797.043   122210043.451  
C30  25108307.727   130745548.892                                    25108312.783    98530416.087    25108308.155   106241483.743    25108301.240   131945021.090  
C36  22453337.801   116920429.467                                    22453344.359    88111939.530    22453341.428    95007511.761    22453334.531   117993166.623  
C39  25999495.566   135386300.794                                    25999490.242   102027570.496    25999486.346   110012408.369    25999495.298   136628239.871  
> 2026 06 07 17 16 03.0000000  0 14                     
C01  38580675.317   200899807.640                                                                    38580671.297   163247459.625                                  
C02  36974528.624   192536014.390                                                                    36974518.849   156451278.282                                  
C03  37010473.700   192723243.417                                                                    37010461.603   156603381.461                                  
C07  37170759.980   193557899.208                                                                    37170750.777   157281593.146                                  
C08  38047710.551   198124426.352                                                                    38047706.012   160992340.927                                  
C09  38986121.233   203010864.384    38986124.253   156980956.727                                    38986117.284   164963016.386                                  
C10  37310915.679   194287715.636    37310916.126   150235558.651                                    37310910.461   157874708.626                                  
C12  23174424.604   120675382.022                                                                    23174421.262    98058538.213                                  
C19  22485812.552   117089574.065                                    22485811.837    88239149.175    22485804.279    95144768.879    22485807.906   118163721.769  
C20  25037922.985   130379090.120                                    25037925.576    98254167.821    25037915.498   105943558.296    25037916.499   131575252.815  
C22  23251310.542   121075677.314                                    23251297.837    91243179.034    23251294.210    98383793.010    23251307.361   122186441.993  
C30  25101314.130   130709132.172                                    25101319.866    98502972.404    25101317.186   106211892.291    25101308.305   131908270.255  
C36  22451700.891   116911904.011                                    22451707.145    88105514.790    22451701.999    95000584.185    22451697.728   117984562.955  
C39  25993886.587   135357086.593                                    25993881.602   102005554.420    25993872.810   109988669.303    25993884.658   136598757.627  
> 2026 06 07 17 16 18.0000000  0 14                     
C01  38580652.248   200899687.552                                                                    38580648.389   163247362.051                                  
C02  36974730.990   192537067.632                                                                    36974721.270   156452134.169                                  
C03  37010623.371   192724022.392                                                                    37010611.202   156604014.474                                  
C07  37170602.875   193557084.035                                                                    37170594.888   157280930.736                                  
C08  38042938.807   198099577.766                                                                    38042934.804   160972149.455                                  
C09  38991748.778   203040169.392    38991752.923   157003617.242                                    38991745.651   164986829.068                                  
C10  37310749.730   194286851.888    37310750.158   150234890.742                                    37310743.976   157874006.805                                  
C12  23182521.916   120717541.538                                                                    23182517.949    98092796.240                                  
C19  22490280.916   117112839.332                                    22490280.076    88256681.936    22490274.090    95163673.789    22490274.036   118187200.370  
C20  25047436.399   130428631.043                                    25047440.777    98291502.047    25047428.662   105983814.297    25047430.985   131625248.245  
C22  23246841.178   121052405.316                                    23246828.509    91225641.149    23246824.113    98364882.624    23246840.731   122162956.491  
C30  25094321.607   130672724.161                                    25094328.986    98475535.201    25094328.611   106182307.833    25094317.497   131871528.161  
C36  22450072.666   116903423.984                                    22450078.866    88099124.243    22450072.398    94993693.479    22450068.842   117976005.168  
C39  25988283.291   135327906.875                                    25988277.894   101983564.107    25988268.245   109964958.142    25988281.254   136569309.932  
> 2026 06 07 17 16 33.0000000  0 14                     
C01  38580625.642   200899549.142                                                                    38580621.907   163247249.565                                  
C02  36974929.765   192538102.583                                                                    36974920.313   156452975.121                                  
C03  37010769.486   192724782.981                                                                    37010757.228   156604632.517                                  
C07  37170439.052   193556236.684                                                                    37170432.583   157280242.206                                  
C08  38038166.920   198074729.782                                                                    38038162.971   160951958.461                                  
C09  38997373.571   203069461.958    38997379.039   157026268.119                                    38997372.320   165010631.625                                  
C10  37310577.061   194285952.256    37310577.258   150234195.096                                    37310570.593   157873275.761                                  
C12  23190627.197   120759746.218                                                                    23190622.712    98127090.964                                  
C19  22494767.381   117136198.301                                    22494767.113    88274285.320    22494759.340    95182654.811    22494759.411   118210773.577  
C20  25056951.761   130478181.530                                    25056957.158    98328843.501    25056945.400   106024078.129    25056945.597   131675253.303  
C22  23242389.593   121029225.598                                    23242376.728    91208172.778    23242371.188    98346047.200    23242409.410   122139670.9321 
C30  25087326.760   130636302.237                                    25087334.336    98448087.563    25087336.748   106152712.072    25087323.061   131834772.038  
C36  22448447.728   116894966.425                                    22448454.089    88092750.589    22448448.764    94986820.984    22448443.725   117967469.969  
C39  25982682.835   135298738.314                                    25982675.473   101961582.420    25982670.220   109941256.254    25982678.958   136539873.914  
> 2026 06 07 17 16 48.0000000  0 14                     
C01  38580598.320   200899406.899                                                                    38580594.496   163247134.045                                  
C02  36975127.915   192539133.816                                                                    36975118.301   156453813.120                                  
C03  37010914.868   192725539.746                                                                    37010902.485   156605247.439                                  
C07  37170271.941   193555371.686                                                                    37170266.402   157279539.405                                  
C08  38033397.588   198049897.026                                                                    38033393.103   160931779.862                                  
C09  39002998.400   203098756.515    39003005.315   157048920.432                                    39002998.793   165034435.807                                  
C10  37310400.462   194285031.295    37310400.390   150233482.993                                    37310392.778   157872527.445                                  
C12  23198742.521   120802010.396                                                                    23198739.055    98161434.045                                  
C19  22499273.752   117159665.286                                    22499274.198    88291970.156    22499266.014    95201723.667    22499266.836   118234455.882  
C20  25066472.145   130527755.861                                    25066477.237    98366202.940    25066468.589   106064361.308    25066465.319   131725282.438  
C22  23237958.719   121006152.817                                    23237945.228    91190785.095    23237938.777    98327298.720                                  
C30  25080333.038   130599881.249                                    25080339.471    98420640.645    25080337.935   106123117.177    25080325.426   131798016.939  
C36  22446830.171   116886545.640                                    22446837.068    88086404.730    22446832.869    94979978.450    22446826.775   117958971.971  
C39  25977088.223   135269595.697                                    25977079.127   101939620.263    25977078.055   109917575.424    25977082.165   136510464.094  
> 2026 06 07 17 17 03.0000000  0 14                     
C01  38580574.643   200899283.688                                                                    38580570.837   163247033.891                                  
C02  36975329.710   192540184.109                                                                    36975320.346   156454666.604                                  
C03  37011063.825   192726315.309                                                                    37011051.406   156605877.698                                  
C07  37170106.134   193554511.986                                                                    37170100.809   157278840.868                                  
C08  38028635.887   198025102.405                                                                    38028630.276   160911632.253                                  
C09  39008627.821   203128075.719    39008636.077   157071591.910                                                                                                  
C10  37310224.059   194284111.823    37310223.916   150232772.026                                    37310215.785   157871780.308                                  
C12  23206873.159   120844356.528                                                                    23206871.604    98195843.776                                  
C19  22503805.139   117183262.943                                    22503804.907    88309753.465    22503799.511    95220898.734    22503800.011   118258270.084  
C20  25076001.695   130577376.583                                    25076005.769    98403597.300    25075999.765   106104682.180    25075996.191   131775358.422  
C22                                                                  23233538.387    91173495.345    23233531.543    98308655.860                                  
C30  25073343.820   130563484.346                                    25073349.252    98393211.874    25073343.695   106093541.831    25073334.636   131761286.096  
C36  22445224.978   116878184.436                                    22445232.054    88080103.748    22445227.784    94973184.336    22445220.243   117950534.126  
C39  25971503.009   135240501.845                                    25971492.610   101917694.811    25971491.269   109893934.112    25971495.540   136481103.458  
> 2026 06 07 17 17 18.0000000  0 14                     
C01  38580550.878   200899159.736                                                                    38580547.071   163246933.209                                  
C02  36975531.344   192541233.759                                                                    36975521.748   156455519.555                                  
C03  37011212.620   192727090.184                                                                    37011200.112   156606507.354                                  
C07  37169937.665   193553637.880                                                                    37169932.430   157278130.584                                  
C08  38023878.009   198000326.274                                                                    38023871.451   160891499.679                                  
C09  39014257.939   203157399.822    39014267.017   157094267.211                                                                                                  
C10  37310044.028   194283174.165    37310043.939   150232046.978                                    37310035.809   157871018.401                                  
C12  23215017.484   120886764.699                                                                    23215015.608    98230303.884                                  
C19  22508357.541   117206971.418                                    22508356.737    88327620.251    22508351.930    95240163.806    22508353.145   118282196.059  
C20  25085536.033   130627023.645                                    25085539.214    98441011.487    25085532.942   106145024.455    25085529.976   131825460.901  
C22  23229163.371   120960317.9831                                   23229152.507    91156288.890    23229146.717    98290102.728    23229159.494   122070081.591  
C30  25066355.049   130527092.136                                    25066360.463    98365786.596    25066354.870   106063970.198    25066345.793   131724559.995  
C36  22443627.488   116869863.001                                    22443633.599    88073832.704    22443628.578    94966422.512    22443621.805   117942136.386  
C39                                                                  25965909.630   101895791.123    25965900.588   109870316.522    25965914.222   136451771.909  
> 2026 06 07 17 17 33.0000000  0 14                     
C01  38580527.165   200899036.225                                                                    38580523.359   163246832.842                                  
C02  36975733.032   192542283.915                                                                    36975723.650   156456372.914                                  
C03  37011361.576   192727865.300                                                                    37011348.978   156607137.247                                  
C07  37169766.551   193552750.426                                                                    37169761.637   157277409.482                                  
C08  38019123.920   197975569.803                                                                    38019117.219   160871383.075                                  
C09  39019888.808   203186729.898    39019898.189   157116946.990                                                                                                  
C10  37309860.656   194282219.398    37309860.764   150231308.694                                    37309852.329   157870242.525                                  
C12  23223174.497   120929235.742                                                                    23223172.174    98264815.055                                  
C19  22512931.528   117230791.575                                    22512931.171    88345571.243    22512925.364    95259519.679    22512927.204   118306234.635  
C20  25095075.072   130676697.797                                    25095077.502    98478446.149    25095070.015   106185388.800    25095069.943   131875590.867  
C22  23224799.595   120937597.458                                    23224788.552    91139166.581    23224784.317    98271640.440    23224796.325   122047152.604  
C30  25059368.225   130490705.963                                    25059372.424    98338365.902    25059367.671   106034403.525    25059359.523   131687840.003  
C36  22442037.431   116861582.401                                    22442042.219    88067592.444    22442037.448    94959693.870    22442032.588   117933779.837  
C39                                                                  25960333.405   101873910.141    25960328.026   109846723.224                                  
> 2026 06 07 17 17 48.0000000  0 14                     
C01  38580502.381   200898907.649                                                                    38580498.628   163246728.376                                  
C02  36975933.701   192543329.079                                                                    36975924.516   156457222.198                                  
C03  37011509.496   192728635.330                                                                    37011496.827   156607762.978                                  
C07  37169592.239   193551844.239                                                                    37169587.700   157276673.197                                  
C08  38014372.457   197950827.592                                                                    38014366.185   160851278.068                                  
C09  39025519.605   203216060.163    39025528.843   157139626.946                                                                                                  
C10  37309673.049   194281242.079    37309673.139   150230552.985                                    37309665.133   157869448.394                                  
C12  23231342.213   120971763.923                                                                    23231340.336    98299372.662                                  
C19  22517527.066   117254717.930                                    22517526.208    88363602.209    22517520.669    95278961.774    22517522.223   118330380.524  
C20  25104618.577   130726393.466                                    25104619.882    98515896.983    25104611.894   106225770.574    25104612.413   131925742.398  
C22  23220456.636   120914983.360                                    23220445.111    91122124.601    23220442.162    98253264.674    23220453.348   122024331.046  
C30  25052381.401   130454320.735                                    25052384.528    98310945.918    25052380.454   106004837.584    25052372.896   131651120.898  
C36  22440453.753   116853337.118                                    22440458.399    88061378.715    22440454.324    94952993.836    22440450.036   117925458.783  
C39                                                                  25954764.077   101852047.640    25954755.643   109823149.812                                  
> 2026 06 07 17 18 03.0000000  0 14                     
C01  38580476.435   200898772.694                                                                    38580472.754   163246618.730                                  
C02  36976133.173   192544367.973                                                                    36976123.720   156458066.368                                  
C03  37011656.147   192729398.946                                                                    37011643.424   156608383.493                                  
C07  37169414.389   193550918.055                                                                    37169409.904   157275920.621                                  
C08  38009623.300   197926098.445                                                                    38009617.725   160831183.654                                  
C09  39031151.028   203245389.433    39031159.801   157162327.2191                                   39031152.654   165153579.9591                                 
C10  37309480.868   194280240.956    37309480.832   150229778.835                                    37309473.488   157868634.903                                  
C12  23239519.489   121014347.616                                                                    23239518.685    98333975.370                                  
C19  22522141.920   117278748.804                                    22522141.330    88381711.984    22522135.505    95298488.865    22522135.630   118354631.909  
C20  25114166.086   130776108.996                                    25114166.622    98553362.746    25114160.725   106266168.445    25114160.010   131975914.045  
C22  23216133.852   120892474.672                                    23216122.290    91105161.966    23216118.949    98234974.573    23216130.439   122001615.842  
C30  25045393.345   130417935.442                                    25045395.418    98283525.893    25045393.238   105975271.594    25045385.643   131614401.805  
C36  22438877.222   116845125.582                                    22438882.440    88055190.459    22438877.365    94946321.283    22438874.202   117917171.868  
C39  25949225.788   135124424.2391                                   25949197.162   101830202.572    25949191.426   109799595.302    25949216.532   136364060.6471 
> 2026 06 07 17 18 18.0000000  0 14                     
C01  38580449.078   200898630.565                                                                    38580445.289   163246503.198                                  
C02  36976331.304   192545399.697                                                                    36976322.459   156458904.844                                  
C03  37011801.422   192730155.257                                                                    37011788.610   156608998.105                                  
C07  37169232.786   193549971.055                                                                    37169228.354   157275151.163                                  
C08  38004875.965   197901381.584                                                                    38004871.480   160811099.191                                  
C09  39036783.236   203274716.805    39036791.992   157185004.925                                    39036786.346   165177410.858                                  
C10  37309283.809   194279215.158    37309283.541   150228985.607                                    37309276.804   157867801.391                                  
C12  23247707.968   121056985.661                                                                    23247707.057    98368622.307                                  
C19  22526776.054   117302883.236                                    22526776.447    88399899.836    22526769.997    95318100.111    22526768.621   118378987.678  
C20  25123717.329   130825843.277                                    25123717.650    98590842.716    25123714.666   106306581.599    25123710.735   132026104.657  
C22  23211831.062   120870070.760                                    23211820.001    91088278.251    23211814.623    98216769.554    23211827.846   121979006.301  
C30  25038405.109   130381549.507                                    25038406.539    98256105.438    25038406.771   105945705.072    25038396.371   131577682.250  
C36  22437307.089   116836946.905                                    22437311.753    88049026.965    22437306.499    94939675.428    22437302.944   117908918.175  
C39  25943666.056   135095459.470                                    25943632.265   101808374.434    25943629.388   109775989.8171                                 
> 2026 06 07 17 18 33.0000000  0 14                     
C01  38580420.666   200898482.699                                                                    38580416.878   163246383.090                                  
C02  36976528.453   192546425.806                                                                    36976519.358   156459738.634                                  
C03  37011945.661   192730905.835                                                                    37011932.724   156609608.017                                  
C07  37169047.305   193549004.730                                                                    37169042.838   157274366.010                                  
C08  38000131.203   197876678.523                                                                    38000127.880   160791025.963                                  
C09  39042416.249   203304043.551    39042423.558   157207682.376                                    39042420.538   165201255.3671                                 
C10  37309082.121   194278166.226    37309081.442   150228174.511                                    37309075.617   157866948.998                                  
C12  23255908.027   121099679.460                                                                    23255905.240    98403314.461                                  
C19  22531430.899   117327122.580                                    22531431.113    88418166.717    22531424.663    95337796.580    22531425.324   118403449.443  
C20  25133272.324   130875597.529                                    25133273.503    98628337.685    25133270.305   106347010.998    25133264.694   132076315.344  
C22  23207548.197   120847773.200                                    23207538.030    91071474.718    23207530.667    98198650.951    23207545.141   121956504.141  
C30  25031417.088   130345164.750                                    25031420.698    98228685.771    25031420.609   105916139.479    25031409.298   131540963.594  
C36  22435743.049   116828802.437                                    22435747.713    88042889.266    22435742.674    94933057.421    22435738.779   117900699.022  
C39  25938103.268   135066518.506                                    25938072.569   101786564.038                                    25938088.365   136305599.627  
> 2026 06 07 17 18 48.0000000  0 14                     
C01  38580393.237   200898340.058                                                                    38580389.502   163246267.204                                  
C02  36976726.621   192547457.213                                                                    36976717.418   156460576.813                                  
C03  37012090.793   192731661.524                                                                    37012077.820   156610222.107                                  
C07  37168859.609   193548030.092                                                                    37168855.696   157273574.001                                  
C08  37995391.713   197852000.292                                                                    37995388.997   160770972.924                                  
C09  39048051.693   203333380.577                                                                    39048054.552   165225094.058                                  
C10  37308878.057   194277105.073    37308876.752   150227353.940                                    37308872.071   157866086.783                                  
C12  23264120.112   121142439.465                                                                    23264116.342    98438060.431                                  
C19  22536107.830   117351477.531                                    22536107.633    88436520.747    22536101.343    95357587.018    22536102.719   118428027.934  
C20  25142832.502   130925382.423                                    25142835.378    98665855.779    25142830.357   106387465.305    25142826.122   132126556.948  
C22  23203287.257   120825593.169                                    23203278.448    91054759.804    23203270.800    98180627.918    23203285.649   121934120.582  
C30  25024431.944   130308792.377                                    25024438.663    98201275.532    25024435.393   105886584.010    25024424.582   131504257.538  
C36  22434187.819   116820703.063                                    22434192.518    88036785.588    22434187.980    94926476.069    22434183.441   117892525.474  
C39  25932546.735   135037612.177                                    25932524.005   101764779.864                                    25932537.032   136276428.084  
> 2026 06 07 17 19 03.0000000  0 14                     
C01  38580368.864   200898213.271                                                                    38580365.218   163246164.223                                  
C02  36976927.897   192548504.488                                                                    36976918.820   156461427.781                                  
C03  37012238.892   192732432.947                                                                    37012225.883   156610848.971                                  
C07  37168671.645   193547057.753                                                                    37168668.482   157272783.986                                  
C08  37990659.531   197827357.517                                                                    37990656.690   160750948.717                                  
C09  39053691.424   203362738.390    39053691.388   157253031.8821                                   39053692.943   165248949.670                                  
C10  37308673.689   194276042.291    37308671.723   150226532.156                                    37308668.185   157865223.157                                  
C12  23272346.849   121185276.059                                                                    23272344.383    98472868.649                                  
C19  22540808.348   117375958.520                                    22540808.759    88454969.721    22540803.344    95377479.852    22540803.487   118452733.560  
C20  25152400.559   130975208.215                                    25152404.919    98703404.703    25152397.718   106427952.830    25152394.698   132176839.825  
C22  23199051.494   120803541.376                                    23199043.096    91038141.513    23199038.021    98162709.136    23199051.280   121911866.561  
C30  25017451.589   130272443.281                                    25017459.630    98173882.771    25017453.108   105857047.472    25017444.996   131467574.952  
C36  22432642.792   116812659.379                                    22432647.670    88030723.794    22432644.150    94919939.879    22432638.307   117884407.918  
C39  25927000.619   135008750.950                                    25926987.860   101743029.774                                    25926992.899   136247302.193  
> 2026 06 07 17 19 18.0000000  0 14                     
C01  38580344.955   200898088.961                                                                    38580341.435   163246063.155                                  
C02  36977129.621   192549554.301                                                                    36977120.651   156462280.889                                  
C03  37012387.472   192733206.746                                                                    37012374.571   156611477.779                                  
C07  37168482.215   193546074.281                                                                    37168478.624   157271984.861                                  
C08  37985931.584   197802736.991                                                                    37985928.547   160730942.579                                  
C09  39059331.513   203392103.586    39059332.174   157275738.870                                    39059332.031   165272811.330                                  
C10  37308466.569   194274964.613    37308463.906   150225698.789                                    37308461.530   157864347.548                                  
C12  23280584.844   121228175.603                                                                    23280584.487    98507728.047                                  
C19  22545531.613   117400552.039                                    22545532.310    88473503.483    22545526.824    95397464.115    22545526.181   118477552.676  
C20  25161974.406   131025061.247                                    25161979.320    98740974.172    25161970.636   106468462.502    25161968.313   132227150.183  
C22  23194838.247   120781604.722                                    23194829.866    91021609.966    23194828.240    98144883.839    23194839.283   121889728.642  
C30  25010473.271   130236104.455                                    25010480.669    98146497.778    25010473.325   105827519.263    25010468.268   131430902.740  
C36  22431104.358   116804657.915                                    22431110.916    88024693.788    22431108.504    94913437.970    22431100.105   117876332.924  
C39  25921461.954   134979921.683                                    25921453.109   101721303.581    25921450.554   109682139.5331   25921455.861   136218208.481  
> 2026 06 07 17 19 33.0000000  0 14                     
C01  38580317.580   200897946.372                                                                    38580313.756   163245947.339                                  
C02  36977327.770   192550585.926                                                                    36977318.550   156463119.200                                  
C03  37012532.587   192733962.222                                                                    37012519.471   156612091.658                                  
C07  37168288.283   193545059.096                                                                    37168282.368   157271160.117                                  
C08  37981203.602   197778118.046                                                                    37981200.778   160710937.700                                  
C09  39064967.260   203421455.176    39064968.922   157298435.442                                    39064966.992   165296661.958                                  
C10  37308252.694   194273851.279    37308249.478   150224837.880                                    37308248.102   157863442.819                                  
C12  23288831.148   121271117.092                                                                    23288829.844    98542621.524                                  
C19  22550273.194   117425237.159                                    22550273.194    88492106.282    22550266.958    95417522.805    22550267.655   118502464.259  
C20  25171549.612   131074920.537                                    25171553.579    98778548.335    25171544.823   106508977.257    25171544.537   132277466.932  
C22  23190643.565   120759762.574                                    23190635.560    91005149.732    23190636.275    98127135.427    23190645.513   121867686.172  
C30  25003493.041   130199755.443                                    25003497.491    98119105.143    25003493.988   105797982.806    25003488.574   131394220.297  
C36  22429571.500   116796677.690                                    22429579.023    88018679.850    22429575.735    94906953.381    22429565.889   117868279.553  
C39                                                                                                  25915917.697   109658722.082    25915921.699   136189125.870  
> 2026 06 07 17 19 48.0000000  0 14                     
C01  38580292.277   200897814.839                                                                    38580288.632   163245840.420                                  
C02  36977528.046   192551628.621                                                                    36977518.647   156463966.501                                  
C03  37012679.738   192734728.592                                                                    37012666.622   156612714.420                                  
C07  37168094.047   193544041.495                                                                    37168086.738   157270338.1831                                 
C08  37976481.677   197753529.943                                                                    37976479.014   160690957.917                                  
C09  39070604.919   203450822.570    39070608.582   157321144.208                                    39070605.098   165320525.341                                  
C10  37308037.516   194272731.517    37308034.121   150223972.049                                    37308033.495   157862532.960                                  
C12  23297091.622   121314129.506                                                                    23297086.530    98577572.613                                  
C19  22555037.344   117450042.914                                    22555037.218    88510800.038    22555030.107    95437679.526    22555031.250   118527497.581  
C20  25181130.821   131124815.098                                    25181133.037    98816149.055    25181126.032   106549520.651    25181127.426   132327819.244  
C22  23186472.953   120738044.509                                    23186465.573    90988782.905    23186468.450    98109487.768    23186474.794   121845768.836  
C30  24996516.385   130163425.924                                    24996519.012    98091727.163    24996517.707   105768462.129    24996511.560   131357557.457  
C36  22428047.772   116788747.996                                    22428057.225    88012703.964    22428052.418    94900509.832    22428043.806   117860277.066  
C39                                                                                                  25910386.823   109635337.505    25910395.704   136160083.924  
> 2026 06 07 17 20 03.0000000  0 14                     
C01  38580267.671   200897686.949                                                                    38580264.115   163245736.521                                  
C02  36977729.001   192552675.038                                                                    36977719.852   156464816.796                                  
C03  37012827.604   192735498.564                                                                    37012814.453   156613340.100                                  
C07  37167897.255   193543014.063                                                                                                                                  
C08  37971764.737   197728965.461                                                                    37971761.592   160670997.320                                  
C09                                  39076249.779   157343859.294                                    39076245.294   165344395.481                                  
C10  37307819.764   194271598.059    37307816.315   150223095.574                                    37307816.297   157861611.907                                  
C12  23305364.640   121357205.264                                                                    23305355.938    98612575.121                                  
C19  22559822.990   117474961.831                                    22559822.954    88529579.014    22559815.109    95457928.154    22559817.343   118552645.111  
C20  25190717.105   131174737.175                                    25190717.337    98853770.583    25190712.817   106590086.532    25190714.050   132378199.404  
C22  23182324.785   120716443.282                                    23182318.620    90972504.147    23182319.745    98091935.076    23182325.517   121823969.338  
C30  24989541.998   130127108.732                                    24989543.713    98064358.466    24989541.015   105738951.568    24989538.085   131320907.086  
C36  22426533.516   116780861.268                                    22426542.146    88006760.550    22426537.250    94894101.273    22426529.299   117852318.023  
C39                                                                  25904868.940   101656253.8171   25904864.241   109611979.691    25904876.124   136131075.185  
> 2026 06 07 17 20 18.0000000  0 14                     
C01  38580241.618   200897551.162                                                                    38580237.919   163245626.204                                  
C02  36977928.295   192553713.601                                                                    36977918.949   156465660.706                                  
C03  37012973.952   192736260.519                                                                    37012960.746   156613959.274                                  
C07  37167696.765   193541940.3981                                                                   37167695.889   157268668.483                                  
C08  37967050.049   197704413.130                                                                    37967046.118   160651046.570                                  
C09  39081889.296   203509628.2851   39081891.119   157366576.5841                                   39081885.419   165368262.710                                  
C10  37307597.169   194270439.326    37307593.846   150222199.582                                    37307593.738   157860670.389                                  
C12  23313646.218   121400332.399                                                                    23313638.945    98647619.418                                  
C19  22564627.577   117499982.057                                    22564626.951    88548434.372    22564619.643    95478259.130    22564622.681   118577894.913  
C20  25200307.785   131224675.186                                    25200305.748    98891404.001    25200302.567   106630665.186    25200301.316   132428595.495  
C22  23178196.772   120694947.580                                    23178191.537    90956304.929    23178191.805    98074468.060    23178196.451   121802276.410  
C30  24982567.683   130090792.723                                    24982568.558    98036990.640    24982566.450   105709441.874    24982565.092   131284257.820  
C36  22425025.763   116773005.894                                    22425032.089    88000840.783    22425028.283    94887718.216    22425020.563   117844390.605  
C39                                                                  25899354.613   101634622.261    25899348.806   109588639.074    25899358.098   136102087.970  
> 2026 06 07 17 20 33.0000000  0 14                     
C01  38580215.119   200897413.189                                                                    38580211.438   163245514.148                                  
C02  36978127.177   192554750.055                                                                    36978117.653   156466502.991                                  
C03  37013119.781   192737020.265                                                                    37013106.576   156614576.632                                  
C07  37167494.755   193540876.110                                                                    37167492.629   157267817.640                                  
C08  37962338.595   197679878.699                                                                    37962333.878   160631110.381                                  
C09  39087530.779   203539002.562    39087534.567   157389290.739                                    39087527.223   165392120.8361                                 
C10  37307370.983   194269261.025    37307367.785   150221288.487                                    37307367.177   157859713.012                                  
C12  23321937.766   121443516.414                                                                    23321933.817    98682709.996                                  
C19  22569452.856   117525109.182                                    22569450.355    88567370.285    22569444.404    95498676.963    22569448.854   118603252.597  
C20  25209902.110   131274634.401                                    25209900.216    98929053.399    25209896.017   106671261.119    25209895.177   132479013.046  
C22  23174090.042   120673563.240                                    23174085.450    90940189.723    23174084.252    98057091.518    23174088.988   121780695.916  
C30  24975594.207   130054483.853                                    24975596.459    98009628.167    24975595.243   105679938.002    24975592.367   131247615.876  
C36  22423524.337   116765187.588                                    22423530.841    87994948.897    22423527.160    94881365.202    22423518.994   117836500.618  
C39  25893840.108   134835979.5261                                   25893842.931   101612996.036    25893836.981   109565320.582                                  
> 2026 06 07 17 20 48.0000000  0 14                     
C01  38580189.423   200897279.184                                                                    38580185.778   163245405.213                                  
C02  36978326.684   192555790.465                                                                    36978316.999   156467348.357                                  
C03  37013266.396   192737783.773                                                                    37013253.102   156615197.062                                  
C07  37167290.030   193539802.523                                                                                                                                  
C08  37957631.716   197655368.351                                                                    37957626.516   160611193.767                                  
C09  39093173.424   203568385.190    39093177.480   157412011.249                                                                                                  
C10  37307142.367   194268069.289    37307139.186   150220366.993                                    37307137.596   157858744.579                                  
C12  23330243.127   121486763.143                                                                    23330239.357    98717851.498                                  
C19  22574299.793   117550349.107                                    22574297.005    88586391.170    22574291.216    95519186.414    22574296.987   118628724.079  
C20  25219501.653   131324620.629                                    25219501.564    98966723.155    25219494.148   106711878.998    25219494.899   132529457.860  
C22  23170005.666   120652296.540                                    23170000.162    90924163.150    23169999.251    98039810.512    23170004.379   121759234.088  
C30  24968623.966   130018188.489                                    24968628.058    97982275.920    24968623.805   105650445.088    24968621.661   131210987.537  
C36  22422030.611   116757412.314                                    22422039.439    87989089.418    22422033.971    94875047.146    22422026.644   117828653.973  
C39  25888340.469   134807315.827                                    25888336.949   101591394.718    25888334.948   109542028.792    25888342.542   136044123.4991 
> 2026 06 07 17 21 03.0000000  0 14                     
C01  38580166.193   200897158.293                                                                    38580162.494   163245307.046                                  
C02  36978528.783   192556844.107                                                                    36978519.688   156468204.615                                  
C03  37013415.531   192738560.357                                                                    37013402.272   156615828.095                                  
C07  37167086.252   193538728.718                                                                    37167078.782   157266076.6771                                 
C08  37952931.037   197630891.375                                                                    37952926.052   160591304.252                                  
C09  39098819.231   203597784.997    39098823.412   157434745.103                                    39098816.229   165439888.277                                  
C10  37306913.125   194266873.416    37306909.802   150219442.292                                    37306906.871   157857772.867                                  
C12  23338562.390   121530081.589                                                                    23338558.388    98753051.209                                  
C19  22579170.281   117575710.796                                    22579168.405    88605503.891    22579164.206    95539794.899    22579168.441   118654318.555  
C20  25229107.343   131374642.792                                    25229109.559    99004420.065    25229099.570   106752526.065    25229102.375   132579938.965  
C22  23165945.413   120631156.869                                    23165938.908    90908232.297    23165939.444    98022632.764    23165944.251   121737900.442  
C30  24961658.299   129981916.254                                    24961662.927    97954941.065    24961656.762   105620971.027    24961654.064   131174382.578  
C36  22420547.500   116749689.206                                    22420556.292    87983269.210    22420550.609    94868771.443    22420543.515   117820859.999  
C39  25882844.690   134778694.242                                    25882841.260   101569825.226                                    25882848.157   136015239.468  
> 2026 06 07 17 21 18.0000000  0 14                     
C01  38580139.836   200897021.393                                                                    38580136.316   163245195.739                                  
C02  36978727.844   192557881.763                                                                    36978718.177   156469047.840                                  
C03  37013561.503   192739320.789                                                                    37013548.494   156616446.079                                  
C07                                                                                                  37166867.946   157265180.232                                  
C08  37948231.127   197606418.656                                                                    37948226.695   160571418.175                                  
C09  39104462.804   203627173.051    39104466.968   157457469.878                                    39104462.500   165463778.451                                  
C10  37306677.469   194265644.149    37306673.913   150218491.750                                    37306669.445   157856774.045                                  
C12  23346889.015   121573442.131                                                                    23346885.781    98788285.222                                  
C19  22584058.817   117601165.036                                    22584056.315    88624686.250    22584052.330    95560478.509    22584055.851   118680006.194  
C20  25238714.462   131424671.430                                    25238718.554    99042121.852    25238708.190   106793178.436    25238709.727   132630426.640  
C22  23161903.761   120610115.239                                    23161898.418    90892375.210    23161899.330    98005534.655    23161902.761   121716665.726  
C30  24954691.882   129945638.102                                    24954695.491    97927601.832    24954690.184   105591492.168    24954687.093   131137771.628  
C36  22419069.357   116741988.906                                    22419077.219    87977466.206    22419072.198    94862514.326    22419064.568   117813089.069  
C39  25877349.948   134750085.779                                    25877347.893   101548265.499                                    25877355.005   135986368.525  
> 2026 06 07 17 21 33.0000000  0 14                     
C01  38580110.031   200896866.696                                                                    38580106.707   163245070.090                                  
C02  36978923.599   192558901.714                                                                    36978914.790   156469876.596                                  
C03  37013704.151   192740063.402                                                                    37013691.053   156617049.506                                  
C07                                                                                                  37166651.498   157264261.6741                                 
C08  37943531.967   197581948.484                                                                    37943527.857   160551534.201                                  
C09  39110104.287   203656547.186    39110107.968   157480183.779                                    39110103.715   165487647.393                                  
C10  37306435.165   194264379.879    37306431.287   150217514.118                                    37306425.766   157855746.698                                  
C12  23355223.914   121616842.858                                                                    23355220.805    98823551.861                                  
C19  22588964.203   117626709.723                                    22588962.184    88643936.820    22588956.359    95581235.633    22588959.807   118705785.183  
C20  25248323.440   131474704.578                                    25248327.836    99079827.020    25248318.776   106833834.418    25248319.277   132680918.858  
C22  23157880.658   120589170.019                                    23157875.226    90876590.842    23157877.442    97988514.898    23157879.568   121695528.383  
C30  24947724.374   129909352.697                                    24947726.626    97900257.085    24947722.123   105562007.420    24947720.390   131101153.289  
C36  22417595.287   116734309.580                                    22417602.274    87971679.035    22417597.575    94856274.254    22417590.481   117805339.317  
C39  25871857.046   134721488.598                                    25871855.974   101526714.309    25871861.513   109472320.0491   25871862.943   135957508.926  
> 2026 06 07 17 21 48.0000000  0 14                     
C01  38580083.942   200896731.316                                                                    38580080.601   163244960.078                                  
C02  36979123.017   192559940.972                                                                    36979115.030   156470721.165                                  
C03  37013850.552   192740825.186                                                                    37013837.311   156617668.537                                  
C07  37166435.497   193535383.4251                                                                   37166435.122   157263344.992                                  
C08  37938840.544   197557517.995                                                                    37938836.416   160531682.479                                  
C09  39115750.702   203685944.629    39115753.060   157502915.805                                    39115750.005   165511535.267                                  
C10  37306193.433   194263117.508    37306189.108   150216538.022                                    37306182.443   157854720.963                                  
C12  23363573.805   121660320.525                                                                    23363570.338    98858881.008                                  
C19  22593894.088   117652381.758                                    22593893.087    88663283.356    22593887.101    95602096.262    22593888.763   118731692.759  
C20  25257940.727   131524779.086                                    25257944.569    99117563.366    25257936.367   106874524.036    25257937.564   132731452.751  
C22  23153883.393   120568358.540                                    23153877.550    90860907.206    23153881.106    97971603.885    23153882.071   121674525.958  
C30  24940761.674   129873097.560                                    24940763.979    97872935.083    24940760.763   105532547.135    24940757.528   131064565.442  
C36  22416132.118   116726688.264                                    22416138.390    87965935.558    22416134.048    94850081.318    22416127.562   117797648.052  
C39  25866375.920   134692939.573                                    25866374.133   101505199.447                                    25866379.976   135928698.001  
> 2026 06 07 17 22 03.0000000  0 14                     
C01  38580056.442   200896588.597                                                                    38580053.189   163244844.076                                  
C02  36979321.006   192560972.945                                                                    36979312.697   156471559.724                                  
C03  37013995.577   192741579.540                                                                    37013982.015   156618281.526                                  
C07  37166214.065   193534234.783                                                                    37166214.904   157262411.491                                  
C08  37934151.337   197533100.686                                                                    37934147.191   160511841.439                                  
C09  39121397.027   203715338.463    39121397.349   157525644.963                                    39121395.508   165535420.144                                  
C10  37305946.786   194261830.557    37305942.140   150215542.904                                    37305934.814   157853675.175                                  
C12  23371932.666   121703848.110                                                                    23371929.753    98894250.772                                  
C19  22598843.664   117678154.312                                    22598842.485    88682705.691    22598837.285    95623038.578    22598837.160   118757701.796  
C20  25267560.605   131574867.950                                    25267563.571    99155310.520    25267556.209   106915225.346    25267556.495   132782001.081  
C22  23149907.303   120547654.261                                    23149901.139    90845304.357    23149904.480    97954779.970    23149905.677   121653631.740  
C30  24933799.634   129836846.162                                    24933801.421    97845615.902    24933800.260   105503089.902    24933796.490   131027981.374  
C36  22414674.596   116719098.183                                    22414681.368    87960215.639    22414677.490    94843913.741    22414670.200   117789988.308  
C39  25860898.064   134664412.141                                    25860897.152   101483700.770    25860900.744   109425921.301    25860901.066   135899908.808  
> 2026 06 07 17 22 18.0000000  0 14                     
C01  38580029.245   200896447.003                                                                    38580026.046   163244729.071                                  
C02  36979519.192   192562006.091                                                                    36979510.650   156472399.256                                  
C03  37014140.745   192742334.930                                                                    37014126.932   156618895.375                                  
C07  37165991.077   193533073.968                                                                    37165990.630   157261468.326                                  
C08  37929465.972   197508705.128                                                                    37929462.005   160492018.076                                  
C09  39127043.996   203744737.314    39127042.799   157548378.005                                    39127043.942   165559324.1831                                 
C10  37305696.852   194260527.506    37305692.081   150214535.273                                    37305684.523   157852616.318                                  
C12  23380303.338   121747433.944                                                                    23380301.176    98929667.839                                  
C19  22603813.576   117704035.744                                    22603813.165    88702210.023    22603806.392    95644069.320    22603807.518   118783820.570  
C20  25277183.914   131624979.419                                    25277186.540    99193074.716    25277179.911   106955944.981    25277180.072   132832572.241  
C22  23145953.818   120527065.923                                    23145946.777    90829788.985    23145945.133    97938050.469    23145951.548   121632854.522  
C30  24926840.454   129800607.325                                    24926841.062    97818306.268    24926841.187   105473642.907    24926833.825   130991410.206  
C36  22413224.775   116711547.753                                    22413231.940    87954525.605    22413227.866    94837778.389    22413219.843   117782368.590  
C39  25855425.354   134635914.772                                    25855426.640   101462224.834    25855429.535   109402764.635    25855429.106   135871149.987  
> 2026 06 07 17 22 33.0000000  0 14                     
C01  38580002.602   200896308.125                                                                    38579999.422   163244616.186                                  
C02  36979717.877   192563041.985                                                                    36979708.067   156473241.059                                  
C03  37014286.378   192743092.904                                                                    37014272.422   156619511.293                                  
C07  37165765.892   193531902.735                                                                                                                                  
C08  37924785.253   197484332.812                                                                    37924781.107   160472213.627                                  
C09  39132692.590   203774142.311    39132688.784   157571115.871                                    39132693.216   165583218.230                                  
C10  37305443.916   194259209.853    37305439.199   150213516.387                                    37305431.712   157851545.755                                  
C12  23388686.000   121791079.293                                                                    23388684.535    98965133.227                                  
C19  22608804.519   117730027.364                                    22608804.680    88721797.360    22608797.764    95665189.557    22608800.052   118810050.625  
C20  25286811.118   131675114.575                                    25286814.227    99230856.812    25286807.258   106996683.944    25286808.848   132883167.393  
C22  23142023.151   120506595.130                                    23142015.021    90814362.129    23142011.250    97921416.330    23142020.506   121612195.947  
C30  24919883.936   129764382.911                                    24919883.633    97791007.494    24919884.204   105444207.651    24919875.556   130954853.511  
C36  22411782.834   116704038.360                                    22411789.713    87948866.517    22411784.138    94831676.418    22411777.330   117774790.342  
C39  25849959.255   134607448.784                                    25849958.005   101440772.540    25849969.405   109379633.613    25849989.436   135842604.9551 
> 2026 06 07 17 22 48.0000000  0 14                     
C01  38579982.232   200896201.776                                                                    38579978.926   163244529.781                                  
C02  36979922.960   192564110.524                                                                    36979913.329   156474109.297                                  
C03  37014438.211   192743883.339                                                                    37014424.059   156620153.600                                  
C07  37165544.423   193530750.947                                                                                                                                  
C08  37920114.969   197460013.789                                                                    37920110.413   160452452.476                                  
C09  39138349.226   203803583.519                                                                                                                                  
C10  37305193.929   194257907.552    37305189.301   150212509.338                                    37305182.010   157850487.404                                  
C12  23397084.691   121834813.682                                                                    23397082.958    99000670.981                                  
C19  22613822.641   117756158.827                                    22613822.283    88741490.087    22613816.923    95686423.464    22613819.764   118836421.779  
C20  25296448.829   131725303.172                                    25296452.385    99268679.163    25296443.379   107037466.298    25296445.720   132933816.457  
C22  23138120.771   120486272.004                                    23138112.515    90799046.541    23138111.675    97904902.246    23138117.947   121591686.371  
C30  24912936.085   129728203.178                                    24912937.246    97763742.402    24912935.442   105414808.668    24912928.133   130918341.815  
C36  22410354.366   116696599.856                                    22410361.818    87943260.869    22410355.242    94825632.028    22410348.916   117767283.641  
C39  25844505.308   134579044.206                                    25844504.021   101419366.597                                                                  
> 2026 06 07 17 23 03.0000000  0 14                     
C01  38579957.983   200896075.271                                                                    38579954.838   163244427.048                                  
C02  36980124.058   192565158.875                                                                    36980113.390   156474961.186                                  
C03  37014586.202   192744653.535                                                                    37014571.889   156620779.429                                  
C07  37165316.772   193529565.942                                                                                                                                  
C08  37915444.936   197435695.371                                                                    37915440.290   160432691.823                                  
C09  39144002.467   203833007.868                                                                                                                                  
C10  37304936.740   194256567.825    37304932.201   150211473.365                                    37304925.268   157849398.792                                  
C12  23405489.744   121878584.074                                                                    23405485.044    99036237.985                                  
C19  22618855.826   117782376.959                                    22618857.488    88761248.265    22618852.217    95707727.969    22618854.772   118862880.597  
C20  25306086.647   131775492.203                                    25306090.632    99306501.792    25306079.500   107078248.961    25306084.396   132984465.932  
C22  23134236.456   120466044.010                                    23134228.915    90783802.716    23134229.058    97888465.398    23134233.293   121571272.774  
C30  24905986.232   129692015.649                                    24905988.591    97736471.381    24905984.731   105385403.398    24905978.674   130881822.285  
C36  22408929.133   116689179.377                                    22408936.852    87937668.756    22408930.152    94819602.269    22408924.648   117759795.058  
C39                                                                  25839052.861   101397967.032    25839037.691   109333421.6711                                 
> 2026 06 07 17 23 18.0000000  0 14                     
C01  38579935.790   200895959.701                                                                    38579932.752   163244333.115                                  
C02  36980327.300   192566218.187                                                                    36980317.687   156475821.974                                  
C03  37014736.177   192745434.527                                                                    37014721.917   156621414.044                                  
C07  37165088.584   193528378.743                                                                    37165075.933   157257594.6651                                 
C08  37910781.103   197411408.656                                                                    37910776.457   160412956.930                                  
C09  39149657.226   203862446.677                                                                                                                                  
C10  37304678.318   194255221.759    37304673.779   150210432.500                                    37304667.096   157848305.120                                  
C12  23413907.948   121922421.342                                                                    23413903.730    99071859.288                                  
C19  22623914.315   117808713.039                                    22623914.422    88781095.215    22623909.222    95729128.168    22623910.759   118889458.287  
C20  25315729.862   131825712.332                                    25315734.526    99344347.894    25315724.144   107119056.921    25315728.075   133035146.794  
C22  23130376.015   120445942.363                                    23130369.314    90768654.002    23130368.617    97872131.133    23130373.227   121550986.633  
C30  24899040.686   129655851.676                                    24899044.921    97709218.226    24899038.452   105356017.307    24899033.663   130845326.517  
C36  22407513.477   116681807.894                                    22407519.642    87932113.601    22407513.067    94813612.362    22407509.260   117752355.929  
C39  25833629.399   134522429.0261                                   25833611.476   101376597.257    25833594.500   109310379.566                                  
> 2026 06 07 17 23 33.0000000  0 14                     
C01  38579906.789   200895808.811                                                                    38579903.644   163244210.526                                  
C02  36980524.020   192567242.206                                                                    36980515.408   156476654.144                                  
C03  37014879.433   192746180.048                                                                    37014865.209   156622019.853                                  
C07  37164851.319   193527143.187                                                                    37164842.242   157256590.746                                  
C08  37906114.411   197387107.562                                                                    37906109.587   160393210.339                                  
C09  39155304.713   203891853.149                                                                                                                                  
C10  37304409.675   194253823.177    37304405.190   150209351.045                                    37304399.561   157847168.597                                  
C12  23422329.332   121966278.852                                                                    23422330.083    99107497.102                                  
C19  22628987.205   117835120.430                                    22628984.864    88800995.893    22628979.361    95750586.310    22628985.954   118916123.5931 
C20  25325370.468   131875917.074                                    25325375.167    99382182.416    25325367.877   107159852.423    25325368.484   133085812.170  
C22  23126530.887   120425921.103                                    23126524.990    90753565.841    23126522.542    97855862.126    23126528.885   121530781.512  
C30  24892091.226   129619665.380                                    24892098.749    97681948.207    24892089.529   105326613.046    24892084.365   130808808.184  
C36  22406098.340   116674439.089                                    22406103.612    87926560.459    22406098.501    94807624.613    22406094.052   117744919.523  
C39  25828177.095   134494065.932                                    25828171.163   101355222.487    25828150.649   109287332.087    25828166.695   135727980.831  
> 2026 06 07 17 23 48.0000000  0 14                     
C01  38579875.786   200895647.398                                                                    38579872.516   163244079.369                                  
C02  36980718.775   192568255.759                                                                    36980710.519   156477477.720                                  
C03  37015020.616   192746914.961                                                                    37015006.339   156622617.042                                  
C07  37164609.408   193525884.105                                                                    37164603.994   157255567.591                                  
C08  37901449.417   197362816.893                                                                    37901444.449   160373472.211                                  
C09  39160950.556   203921252.459                                                                                                                                  
C10  37304135.654   194252396.894    37304131.240   150208248.150                                    37304126.666   157846009.612                                  
C12  23430758.776   122010181.193                                                                    23430762.171    99143171.397                                  
C19  22634077.339   117861623.701                                    22634075.356    88820968.865    22634068.619    95772122.389    22634082.718   118942870.260  
C20  25335014.094   131926131.071                                    25335017.239    99420023.859    25335012.307   107200655.393    25335008.912   133136486.802  
C22  23122706.898   120406004.856                                    23122700.376    90738556.949    23122696.588    97839678.568    23122705.290   121510682.774  
C30  24885142.446   129583481.788                                    24885152.095    97654680.208    24885142.339   105297211.006    24885134.119   130772292.739  
C36  22404688.296   116667097.669                                    22404693.460    87921027.908    22404690.047    94801659.097    22404683.793   117737510.730  
C39  25822728.901   134465720.838                                    25822738.712   101333861.299    25822712.301   109264299.229    25822722.522   135699375.689  
> 2026 06 07 17 24 03.0000000  0 14                     
C01  38579846.588   200895495.246                                                                    38579843.264   163243955.721                                  
C02  36980915.209   192569278.600                                                                    36980906.846   156478308.897                                  
C03  37015163.586   192747659.065                                                                    37015149.255   156623221.716                                  
C07  37164366.872   193524621.248                                                                    37164362.941   157254541.449                                  
C08  37896789.873   197338556.569                                                                    37896785.405   160353758.732                                  
C09  39166598.561   203950663.906    39166595.720   157707555.2331                                   39166592.718   165726673.3631                                 
C10  37303860.060   194250962.674    37303855.807   150207139.098                                    37303852.072   157844844.252                                  
C12  23439201.764   122054147.886                                                                    23439204.266    99178897.973                                  
C19  22639189.685   117888242.515                                    22639188.255    88841028.922    22639180.732    95793752.356    22639194.563   118969733.389  
C20  25344663.455   131976373.817                                    25344665.260    99457886.933    25344660.543   107241481.716    25344658.613   133187190.461  
C22  23118907.300   120386213.899                                    23118899.903    90723642.397    23118896.311    97823596.762    23118912.232   121490707.3761 
C30  24878198.097   129547321.145                                    24878206.870    97627429.450    24878199.240   105267827.577    24878191.592   130735800.372  
C36  22403287.293   116659803.318                                    22403292.350    87915530.847    22403289.759    94795731.829    22403282.289   117730149.452  
C39  25817288.588   134437413.606                                    25817296.647   101312528.508    25817279.439   109241297.043    25817285.515   135670808.723  
> 2026 06 07 17 24 18.0000000  0 14                     
C01  38579817.926   200895345.978                                                                    38579814.370   163243834.450                                  
C02  36981112.072   192570304.331                                                                    36981103.209   156479142.407                                  
C03  37015307.056   192748405.880                                                                    37015292.672   156623828.595                                  
C07  37164122.424   193523348.385                                                                    37164118.957   157253507.118                                  
C08  37892135.171   197314320.159                                                                    37892131.311   160334064.713                                  
C09  39172247.442   203980081.374    39172245.387   157730302.715                                    39172241.581   165750579.977                                  
C10  37303581.732   194249514.135    37303577.729   150206019.043                                    37303574.709   157843667.179                                  
C12  23447656.599   122098172.206                                                                    23447657.278    99214671.329                                  
C19  22644321.865   117914970.071                                    22644322.258    88861171.041    22644313.555    95815470.779    22644326.403   118996706.352  
C20  25354316.623   132026638.517                                    25354318.303    99495766.617    25354311.834   107282325.871    25354311.674   133237916.311  
C22  23115130.575   120366541.792                                    23115122.266    90708817.460    23115118.907    97807611.625    23115133.166   121470854.746  
C30  24871256.893   129511177.279                                    24871264.183    97600191.357    24871257.911   105238457.775    24871252.640   130699324.862  
C36  22401894.349   116652549.509                                    22401900.603    87910064.316    22401896.958    94789837.504    22401889.328   117722829.127  
C39  25811856.387   134409137.745                                    25811851.866   101291219.403    25811853.528   109218320.406    25811855.583   135642273.430  
> 2026 06 07 17 24 33.0000000  0 14                     
C01  38579796.698   200895235.212                                                                    38579793.088   163243744.430                                  
C02  36981316.333   192571368.604                                                                    36981307.845   156480007.308                                  
C03  37015457.889   192749191.156                                                                    37015443.451   156624466.698                                  
C07  37163883.033   193522101.137                                                                    37163879.620   157252493.646                                  
C08  37887492.459   197290143.443                                                                    37887488.742   160314419.174                                  
C09  39177904.167   204009540.291    39177902.434   157753082.238                                    39177898.217   165774517.727                                  
C10  37303307.675   194248087.010    37303303.726   150204915.479                                    37303300.831   157842507.494                                  
C12  23456129.500   122142289.568                                                                    23456128.839    99250520.290                                  
C19  22649483.332   117941842.080                                    22649482.152    88881421.947    22649473.129    95837306.487    22649484.761   119023824.790  
C20  25363980.566   132076960.648                                    25363982.836    99533689.569    25363974.276   107323216.722    25363975.080   133288700.101  
C22  23111383.244   120347024.466                                    23111374.721    90694109.209    23111370.272    97791752.233    23111385.299   121451158.394  
C30  24864326.017   129475086.116                                    24864333.397    97572993.003    24864325.659   105209130.820    24864322.193   130662902.499  
C36  22400516.022   116645371.823                                    22400522.830    87904655.151    22400518.380    94784005.044    22400511.054   117715585.585  
C39                                                                  25806432.227   101269960.828    25806439.572   109195398.130    25806439.107   135613805.715  
> 2026 06 07 17 24 48.0000000  0 14                     
C01  38579772.288   200895107.826                                                                    38579768.447   163243640.937                                  
C02  36981517.377   192572416.274                                                                    36981509.283   156480858.595                                  
C03  37015605.505   192749959.662                                                                    37015590.995   156625091.168                                  
C07  37163638.281   193520824.312                                                                    37163634.510   157251456.160                                  
C08  37882850.873   197265971.265                                                                    37882846.871   160294777.336                                  
C09  39183557.890   204038985.186    39183556.836   157775850.946                                    39183550.332   165798444.265                                  
C10  37303027.149   194246626.055    37303023.236   150203785.810                                    37303019.626   157841320.373                                  
C12  23464609.406   122186444.400                                                                    23464608.227    99286399.698                                  
C19  22654662.096   117968803.162                                    22654657.254    88901739.873    22654650.964    95859214.488    22654661.435   119051033.101  
C20  25373644.384   132127284.663                                    25373648.154    99571613.984    25373637.808   107364109.112    25373639.649   133339485.869  
C22  23107654.498   120327606.899                                    23107646.314    90679476.071    23107640.542    97775973.908    23107656.177   121431562.594  
C30  24857394.426   129438992.822                                    24857402.092    97545792.989    24857394.980   105179802.086    24857391.514   130626478.042  
C36  22399141.840   116638214.957                                    22399147.469    87899261.711    22399143.716    94778189.489    22399136.408   117708363.086  
C39                                                                                                  25801023.632   109172485.377    25801026.919   135585349.958  
> 2026 06 07 17 25 03.0000000  0 14                     
C01  38579743.644   200894958.564                                                                    38579739.892   163243519.699                                  
C02  36981714.347   192573442.162                                                                    36981706.181   156481692.201                                  
C03  37015748.939   192750706.259                                                                    37015734.448   156625697.827                                  
C07  37163386.720   193519512.779                                                                    37163382.235   157250390.539                                  
C08  37878209.091   197241798.573                                                                    37878204.766   160275135.086                                  
C09  39189207.825   204068410.988    39189207.789   157798604.834                                    39189197.407   165822330.1181                                 
C10  37302739.172   194245126.139    37302735.258   150202626.018                                    37302729.826   157840101.521                                  
C12  23473095.870   122230631.395                                                                    23473092.600    99322305.206                                  
C19                                                                  22659850.171    88922120.766    22659846.883    95881190.419    22659852.583   119078325.678  
C20  25383308.130   132177605.143                                    25383312.401    99609535.722    25383301.465   107404998.642    25383302.841   133390268.037  
C22  23103943.280   120308284.070                                    23103935.918    90664914.348    23103929.789    97760272.581    23103944.049   121412062.453  
C30  24850461.281   129402892.535                                    24850467.625    97518587.696    24850464.140   105150467.679    24850460.066   130590046.501  
C36  22397770.714   116631073.714                                    22397773.395    87893880.056    22397771.536    94772386.647    22397764.961   117701156.304  
C39                                                                                                  25795609.603   109149577.993                                  
> 2026 06 07 17 25 18.0000000  0 14                     
C01  38579717.305   200894821.719                                                                    38579713.446   163243408.499                                  
C02  36981913.676   192574480.356                                                                    36981904.259   156482535.861                                  
C03  37015894.715   192751465.019                                                                    37015880.116   156626314.452                                  
C07  37163134.749   193518200.821                                                                    37163129.925   157249324.407                                  
C08  37873573.527   197217659.582                                                                    37873568.916   160255520.211                                  
C09  39194860.422   204097851.798    39194862.227   157821370.315                                    39194851.488   165846253.116                                  
C10  37302450.319   194243621.475    37302446.477   150201462.534                                    37302439.312   157838878.834                                  
C12  23481594.413   122274884.294                                                                    23481588.856    99358264.269                                  
C19  22665070.999   118022990.6581                                   22665066.603    88942590.200    22665063.440    95903261.861    22665066.978   119105736.907  
C20  25392978.202   132227956.049                                    25392981.401    99647480.350    25392971.483   107445912.871    25392971.859   133441080.866  
C22  23100256.365   120289090.265                                    23100249.735    90650449.849    23100243.713    97744676.104    23100256.097   121392692.602  
C30  24843533.961   129366819.672                                    24843538.697    97491403.120    24843537.946   105121155.562    24843531.549   130553642.682  
C36  22396408.988   116623982.127                                    22396410.131    87888535.905    22396408.076    94766624.197    22396403.323   117693999.653  
C39                                                                                                  25790206.511   109126703.571    25790193.556   135528391.6801 
> 2026 06 07 17 25 33.0000000  0 14                     
C01  38579689.787   200894678.912                                                                    38579686.142   163243292.461                                  
C02  36982111.862   192575512.702                                                                    36982101.766   156483374.699                                  
C03  37016039.365   192752217.826                                                                    37016024.569   156626926.146                                  
C07  37162878.829   193516870.173                                                                    37162873.826   157248243.117                                  
C08  37868940.786   197193536.139                                                                    37868935.961   160235917.973                                  
C09  39200512.269   204127289.197    39200516.862   157844133.148                                    39200504.532   165870173.447                                  
C10  37302157.106   194242093.854    37302153.246   150200281.260                                    37302145.813   157837637.437                                  
C12  23490101.712   122319184.622                                                                    23490095.922    99394261.874                                  
C19  22670303.763   118050251.759                                    22670302.102    88963134.317    22670296.920    95925413.769    22670303.049   119133248.194  
C20  25402650.508   132278318.752                                    25402651.794    99685433.877    25402643.718   107486836.664    25402643.396   133491905.639  
C22  23096591.410   120270007.464                                    23096584.620    90636068.979    23096578.044    97729169.767    23096590.517   121373401.6761 
C30  24836608.589   129330756.339                                    24836614.307    97464225.736    24836611.984   105091851.210    24836604.050   130517248.584  
C36  22395052.907   116616921.854                                    22395056.642    87883215.267    22395052.979    94760887.182    22395046.921   117686874.616  
C39  25784800.489   134268233.1141                                   25784792.662   101185069.5801                                   25784792.412   135500006.224  
> 2026 06 07 17 25 48.0000000  0 14                     
C01  38579662.698   200894538.167                                                                    38579658.963   163243178.061                                  
C02  36982310.512   192576547.101                                                                    36982300.666   156484215.278                                  
C03  37016184.354   192752972.538                                                                    37016169.505   156627539.419                                  
C07  37162620.658   193515528.707                                                                    37162616.101   157247153.140                                  
C08  37864312.655   197169436.225                                                                    37864307.634   160216334.880                                  
C09  39206164.885   204156730.911    39206175.660   157866899.416                                    39206158.130   165894097.273                                  
C10  37301860.873   194240551.083    37301857.049   150199088.319                                    37301850.956   157836383.883                                  
C12  23498619.643   122363539.921                                                                    23498614.461    99430304.231                                  
C19  22675560.544   118077619.711                                    22675559.508    88983758.921    22675552.467    95947652.441    22675557.542   119160867.191  
C20  25412326.334   132328700.949                                    25412326.101    99723402.105    25412318.864   107527776.253    25412319.704   133542750.058  
C22  23092949.596   120251043.754                                    23092942.627    90621777.830    23092935.819    97713760.202    23092942.252   121354264.066  
C30  24829687.130   129294710.785                                    24829693.170    97437061.760    24829689.507   105062561.337    24829680.304   130480872.425  
C36  22393704.046   116609900.769                                    22393709.925    87877924.126    22393705.565    94755181.921    22393698.561   117679789.073  
C39  25779404.776   134240135.788                                    25779392.875   101163895.313                                    25779398.218   135471651.221  
> 2026 06 07 17 26 03.0000000  0 14                     
C01  38579635.876   200894399.025                                                                    38579632.303   163243064.999                                  
C02  36982509.412   192577583.108                                                                    36982499.870   156485057.187                                  
C03  37016329.593   192753728.687                                                                    37016314.798   156628153.899                                  
C07  37162360.538   193514176.081                                                                    37162355.964   157246054.087                                  
C08  37859688.956   197145359.489                                                                    37859683.846   160196770.601                                  
C09  39211818.447   204186176.582    39211835.530   157889668.713                                    39211811.692   165918024.319                                  
C10  37301561.442   194238992.864    37301557.725   150197883.452                                    37301554.241   157835117.692                                  
C12  23507149.117   122407949.634                                                                    23507142.005    99466390.675                                  
C19  22680837.874   118105093.823                                    22680837.678    89004463.483    22680827.724    95969977.330    22680832.227   119188593.318  
C20  25422005.912   132379101.899                                    25422005.501    99761384.428    25421997.156   107568731.153    25422000.623   133593613.402  
C22  23089330.422   120232198.824                                    23089323.900    90607576.198    23089316.627    97698447.133    23089321.863   121335246.273  
C30  24822769.013   129258682.861                                    24822773.623    97409911.066    24822769.317   105033285.820    24822760.275   130444514.008  
C36  22392363.369   116602918.232                                    22392370.392    87872662.048    22392364.316    94749508.031    22392358.330   117672742.471  
C39  25774014.585   134212068.278                                    25774001.738   101142743.459    25774008.975   109058273.3601   25774007.813   135443326.264  
> 2026 06 07 17 26 18.0000000  0 14                     
C01  38579609.698   200894263.063                                                                    38579606.071   163242954.569                                  
C02  36982708.776   192578622.398                                                                    36982698.823   156485901.686                                  
C03  37016475.440   192754487.993                                                                    37016460.645   156628770.900                                  
C07  37162098.721   193512814.058                                                                    37162093.879   157244947.324                                  
C08  37855069.653   197121307.638                                                                    37855065.007   160177226.527                                  
C09  39217473.278   204215627.755                                                                    39217466.756   165941955.819                                  
C10  37301259.206   194237420.861    37301255.489   150196667.887                                    37301253.863   157833840.316                                  
C12  23515689.080   122452415.016                                                                    23515681.504    99502522.410                                  
C19  22686134.949   118132675.424                                    22686132.448    89025249.115    22686124.871    95992389.633    22686129.875   119216427.964  
C20  25431688.849   132429522.952                                    25431689.618    99799381.875    25431680.612   107609702.306    25431682.202   133644496.922  
C22  23085733.977   120213474.493                                    23085727.991    90593465.457    23085720.862    97683232.059    23085726.776   121316350.171  
C30  24815853.415   129222674.614                                    24815857.132    97382775.153    24815852.825   105004026.198    24815845.588   130408175.324  
C36  22391030.447   116595975.794                                    22391037.917    87867430.195    22391031.520    94743866.745    22391025.837   117665736.402  
C39  25768630.720   134184032.070                                    25768625.056   101121615.273    25768625.056   109035491.647    25768624.484   135415032.899  
> 2026 06 07 17 26 33.0000000  0 14                     
C01  38579582.841   200894123.362                                                                    38579578.946   163242841.027                                  
C02  36982907.212   192579657.888                                                                    36982897.491   156486743.039                                  
C03  37016620.447   192755243.403                                                                    37016605.759   156629384.713                                  
C07  37161833.616   193511435.588                                                                    37161829.757   157243827.122                                  
C08  37850453.638   197097273.641                                                                    37850449.921   160157696.990                                  
C09  39223127.787   204245077.137                                                                    39223122.123   165965885.887                                  
C10  37300952.680   194235828.002    37300949.178   150195436.225                                    37300948.856   157832545.977                                  
C12  23524238.175   122496928.716                                                                    23524231.260    99538693.381                                  
C19  22691450.912   118160357.343                                    22691444.765    89046110.323    22691441.728    96014883.457    22691446.963   119244363.921  
C20  25441373.645   132479956.750                                    25441375.825    99837388.999    25441367.570   107650683.922    25441367.445   133695393.369  
C22  23082158.993   120194863.879                                    23082153.615    90579440.403    23082147.271    97668109.366    23082152.918   121297568.745  
C30  24808940.533   129186679.228                                    24808943.839    97355648.964    24808941.320   104974777.048    24808933.171   130371849.676  
C36  22389703.279   116589066.434                                    22389710.552    87862223.246    22389705.299    94738252.301    22389698.455   117658763.560  
C39  25763252.698   134156020.178                                    25763248.392   101100505.320    25763242.710   109012706.7091   25763246.730   135386763.999  
> 2026 06 07 17 26 48.0000000  0 14                     
C01  38579553.536   200893971.003                                                                    38579549.694   163242717.216                                  
C02  36983103.414   192580680.778                                                                    36983093.157   156487571.2511                                 
C03  37016763.024   192755986.007                                                                    37016748.318   156629988.147                                  
C07  37161563.741   193510031.728                                                                    37161561.686   157242686.465                                  
C08  37845839.659   197073248.780                                                                    37845836.836   160138174.870                                  
C09  39228780.706   204274515.952    39228834.010   157958188.1291                                   39228776.328   165989807.267                                  
C10  37300640.651   194234205.459    37300637.203   150194181.601                                    37300637.649   157831227.576                                  
C12  23532793.488   122541481.660                                                                    23532788.038    99574896.306                                  
C19  22696783.708   118188130.481                                    22696780.116    89067040.270    22696775.184    96037451.447    22696780.688   119272391.909  
C20  25451059.353   132530394.271                                    25451061.872    99875398.884    25451054.367   107691668.518    25451054.510   133746293.616  
C22  23078604.702   120176358.248                                    23078599.431    90565494.484    23078593.980    97653072.016    23078599.270   121278893.313  
C30  24802028.527   129150688.177                                    24802032.012    97328526.041    24802030.832   104945531.435    24802021.451   130335528.423  
C36  22388380.525   116582181.168                                    22388387.351    87857034.483    22388382.473    94732657.449    22388376.576   117651815.068  
C39                                                                  25757868.726   101079407.035    25757870.638   108989957.215    25757869.387   135358510.748  
> 2026 06 07 17 27 03.0000000  0 14                     
C01  38579529.484   200893845.847                                                                    38579525.464   163242615.570                                  
C02  36983304.726   192581730.876                                                                    36983296.953   156488424.684                                  
C03  37016910.837   192756755.724                                                                    37016896.077   156630613.652                                  
C07  37161291.863   193508591.7031                                                                   37161296.509   157241557.655                                  
C08  37841235.348   197049272.979                                                                    37841233.061   160118692.605                                  
C09  39234439.772   204303983.932    39234492.182   157980974.625                                                                                                  
C10  37300330.695   194232593.161    37300327.282   150192934.893                                    37300327.961   157829917.433                                  
C12  23541362.792   122586113.360                                                                    23541359.701    99611163.278                                  
C19  22702142.967   118216034.606                                    22702139.376    89088068.859    22702134.336    96060125.820    22702137.589   119300551.977  
C20  25460753.655   132580875.021                                    25460754.531    99913441.387    25460748.116   107732688.241    25460748.795   133797237.460  
C22  23075078.858   120157997.627                                    23075073.747    90551657.856    23075068.565    97638152.502    23075074.105   121260364.194  
C30  24795125.223   129114741.650                                    24795129.423    97301436.701    24795126.707   104916322.029    24795117.808   130299252.150  
C36  22387070.404   116575359.740                                    22387076.783    87851893.868    22387072.280    94727114.507    22387065.436   117644931.010  
C39                                                                  25752502.891   101058350.388    25752508.055   108967252.584                                  
> 2026 06 07 17 27 18.0000000  0 14                     
C01  38579504.896   200893717.748                                                                    38579501.251   163242511.465                                  
C02  36983505.574   192582778.008                                                                    36983493.477   156489275.465                                  
C03  37017058.060   192757522.334                                                                    37017043.103   156631236.593                                  
C07  37161024.579   193507186.935                                                                    37161027.348   157240416.178                                  
C08  37836635.040   197025316.072                                                                    37836632.556   160099225.704                                  
C09  39240098.767   204333450.699    39240096.980   158003596.2331                                                                                                 
C10  37300017.023   194230960.857    37300013.592   150191672.714                                    37300014.199   157828591.168                                  
C12  23549942.907   122630793.504                                                                    23549939.977    99647469.531                                  
C19  22707521.311   118244039.215                                    22707518.059    89109173.213    22707511.715    96082881.791    22707514.056   119328813.444  
C20  25470449.887   132631368.542                                    25470449.494    99951493.545    25470444.116   107773718.405    25470443.758   133848194.244  
C22  23071574.707   120139751.933                                    23071570.400    90537907.871    23071565.325    97623326.400    23071570.936   121241951.161  
C30  24788224.421   129078809.752                                    24788229.978    97274358.325    24788224.528   104887124.525    24788216.344   130262990.607  
C36  22385767.037   116568571.849                                    22385773.292    87846778.514    22385769.718    94721598.819    22385760.408   117638080.913  
C39                                                                  25747144.310   101037312.532                                    25747157.158   135302213.9451 
> 2026 06 07 17 27 33.0000000  0 14                     
C01  38579476.914   200893572.127                                                                    38579473.197   163242393.193                                  
C02  36983703.170   192583807.603                                                                    36983690.590   156490112.145                                  
C03  37017201.852   192758271.304                                                                    37017186.824   156631845.218                                  
C07  37160749.574   193505752.093                                                                    37160751.486   157239250.276                                  
C08  37832035.893   197001363.568                                                                    37832032.623   160079762.389                                  
C09  39245755.045   204362901.776    39245752.400   158026369.658                                                                                                  
C10  37299696.881   194229294.070    37299693.147   150190383.855                                    37299694.237   157827236.720                                  
C12  23558530.778   122675507.143                                                                    23558525.971    99683802.945                                  
C19  22712915.504   118272129.539                                    22712913.682    89130342.124    22712905.390    96105707.426    22712908.517   119357161.155  
C20  25480145.226   132681859.984                                    25480145.512    99989544.142    25480140.187   107814746.864    25480139.776   133899148.963  
C22  23068089.640   120121606.769                                    23068086.441    90524233.676    23068081.241    97608581.990    23068086.262   121223639.560  
C30  24781323.279   129042878.278                                    24781330.373    97247280.262    24781323.941   104857927.271    24781316.239   130226729.393  
C36  22384467.405   116561802.833                                    22384473.874    87841677.420    22384470.372    94716098.505    22384462.027   117631249.816  
C39                                                                  25741784.211   101016282.534                                    25741794.235   135274052.058  
> 2026 06 07 17 27 48.0000000  0 14                     
C01  38579450.718   200893435.555                                                                    38579447.019   163242282.179                                  
C02  36983902.481   192584846.323                                                                    36983890.366   156490956.176                                  
C03  37017347.341   192759029.214                                                                    37017332.367   156632461.059                                  
C07  37160473.891   193504313.726                                                                    37160473.677   157238081.622                                  
C08  37827442.696   196977442.154                                                                    37827438.550   160060324.325                                  
C09  39251413.200   204392363.588    39251409.090   158049155.3401                                                                                                 
C10  37299375.274   194227619.354    37299371.040   150189088.834                                    37299373.237   157825875.916                                  
C12  23567129.727   122720280.496                                                                    23567124.598    99720184.889                                  
C19  22718331.069   118300331.917                                    22718329.854    89151595.535    22718321.563    96128624.099    22718328.139   119385622.253  
C20  25489845.729   132732375.551                                    25489847.766   100027612.996    25489841.119   107855795.009    25489841.297   133950128.135  
C22  23064629.214   120103588.902                                    23064626.748    90510655.353    23064621.262    97593940.992    23064626.105   121205456.373  
C30  24774427.838   129006974.013                                    24774435.218    97220222.735    24774427.981   104828752.167    24774420.458   130190495.696  
C36  22383176.190   116555079.178                                    22383183.248    87836610.505    22383178.692    94710635.032    22383171.919   117624464.506  
C39                                                                  25736428.757   100995280.346                                    25736443.767   135245927.395  
> 2026 06 07 17 28 03.0000000  0 14                     
C01  38579425.719   200893305.121                                                                    38579421.877   163242176.228                                  
C02  36984102.936   192585891.135                                                                    36984090.624   156491805.193                                  
C03  37017494.010   192759793.112                                                                    37017479.000   156633081.809                                  
C07  37160196.814   193502869.177                                                                    37160194.741   157236907.742                                  
C08  37822854.503   196953549.006                                                                    37822849.928   160040909.214                                  
C09  39257072.873   204421833.051                                                                                                                                  
C10  37299051.684   194225933.707    37299046.878   150187785.479                                    37299050.005   157824506.293                                  
C12  23575738.254   122765110.358                                                                    23575735.037    99756612.805                                  
C19  22723767.558   118328643.354                                    22723767.433    89172931.050    22723759.607    96151629.312    22723767.005   119414193.199  
C20  25499552.039   132782912.352                                    25499555.095   100065697.672    25499546.589   107896860.247    25499547.554   134001128.558  
C22  23061192.769   120085695.589                                    23061190.374    90497170.888    23061184.567    97579401.198    23061189.641   121187398.872  
C30  24767537.310   128971094.466                                    24767544.869    97193183.805    24767536.685   104799597.148    24767529.752   130154286.970  
C36  22381893.248   116548397.933                                    22381899.966    87831575.537    22381895.535    94705206.034    22381888.745   117617722.018  
C39  25731096.159   133988566.4251                                   25731083.221   100974303.685    25731097.249   108876674.1011   25731114.742   135217854.9911 
> 2026 06 07 17 28 18.0000000  0 14                     
C01  38579399.487   200893168.319                                                                    38579395.788   163242065.063                                  
C02  36984302.122   192586929.599                                                                    36984289.685   156492649.002                                  
C03  37017639.428   192760550.511                                                                    37017624.383   156633697.284                                  
C07  37159916.360   193501405.669                                                                    37159913.519   157235718.550                                  
C08  37818268.990   196929671.613                                                                    37818264.219   160021506.907                                  
C09  39262731.492   204451297.632    39262720.306   158094689.9521                                                                                                 
C10  37298725.128   194224224.818    37298718.016   150186464.114                                    37298721.733   157823117.670                                  
C12  23584354.232   122809983.994                                                                    23584353.231    99793076.222                                  
C19                                                                  22729222.489    89194339.046    22729215.627    96174712.679    22729221.774   119442861.234  
C20  25509259.547   132833457.393                                    25509263.675   100103788.612    25509254.115   107937932.179    25509254.704   134052137.277  
C22  23057777.337   120067914.432                                    23057775.532    90483770.953    23057769.332    97564952.544    23057775.300   121169454.562  
C30  24760649.463   128935227.327                                    24760657.183    97166154.259    24760649.624   104770452.207    24760639.975   130118090.842  
C36  22380615.577   116541746.493                                    22380621.885    87826562.992    22380618.132    94699801.178    22380611.217   117611009.499  
C39  25725755.876   133960752.776                                    25725743.064   100953343.186    25725764.435   108854073.003                                  
> 2026 06 07 17 28 33.0000000  0 14                     
C01  38579371.790   200893024.079                                                                    38579367.948   163241947.899                                  
C02  36984499.699   192587960.648                                                                    36984486.851   156493486.870                                  
C03  37017783.310   192761300.425                                                                    37017768.371   156634306.646                                  
C07  37159631.670   193499922.281                                                                    37159628.615   157234513.278                                  
C08  37813686.014   196905809.049                                                                    37813681.404   160002116.638                                  
C09  39268389.272   204480756.263    39268392.828   158117469.218                                                                                                  
C10  37298394.801   194222491.551    37298384.419   150185123.898                                    37298388.583   157821709.394                                  
C12  23592984.470   122854900.275                                                                    23592977.322    99829574.144                                  
C19  22734694.966   118385474.7501                                   22734695.324    89215818.582    22734690.231    96197873.218    22734695.056   119471625.220  
C20  25518967.394   132884009.354                                    25518971.057   100141884.782    25518963.320   107979009.779    25518961.962   134103153.041  
C22  23054383.295   120050244.570                                    23054382.241    90470454.854    23054375.647    97550594.343    23054381.990   121151622.597  
C30  24753764.261   128899371.965                                    24753771.337    97139133.604    24753765.136   104741316.873    24753755.415   130081906.570  
C36  22379343.088   116535123.706                                    22379349.467    87821572.028    22379345.858    94694419.611    22379338.513   117604325.912  
C39  25720417.345   133932959.507                                    25720404.407   100932398.021                                                                  
> 2026 06 07 17 28 48.0000000  0 14                     
C01  38579345.630   200892887.574                                                                    38579341.699   163241836.968                                  
C02  36984698.760   192588999.392                                                                    36984686.645   156494330.989                                  
C03  37017928.656   192762057.874                                                                    37017913.807   156634922.163                                  
C07  37159349.161   193498469.2381                                                                   37159344.015   157233304.158                                  
C08  37809108.685   196881976.459                                                                    37809104.593   159982750.751                                  
C09  39274048.820   204510223.743    39274053.645   158140255.341                                                                                                  
C10  37298062.402   194220749.191                                                                    37298053.020   157820293.539                                  
C12  23601627.430   122899873.738                                                                    23601612.688    99866118.554                                  
C19  22740191.263   118414087.040                                    22740185.152    89237380.748    22740186.010    96221123.000    22740187.404   119500499.990  
C20  25528678.958   132934583.103                                    25528680.173   100179997.332    25528676.009   108020105.088    25528673.383   134154190.758  
C22  23051014.448   120032701.202                                    23051013.108    90457234.124    23051006.032    97536338.940    23051012.107   121133918.306  
C30  24746884.633   128863543.706                                    24746890.387    97112133.357    24746883.775   104712203.560    24746876.413   130045749.626  
C36  22378078.676   116528544.593                                    22378086.234    87816613.948    22378082.017    94689073.508    22378074.584   117597686.379  
C39  25715086.211   133905201.445                                    25715074.024   100911479.451                                                                  
> 2026 06 07 17 29 03.0000000  0 14                     
C01  38579319.684   200892752.542                                                                    38579315.610   163241727.237                                  
C02  36984898.143   192590039.600                                                                    36984885.009   156495176.236                                  
C03  37018074.253   192762816.697                                                                    37018059.547   156635538.781                                  
C07  37159061.577   193496970.270                                                                    37159058.057   157232086.249                                  
C08  37804536.110   196858167.726                                                                    37804532.500   159963404.222                                  
C09  39279708.279   204539693.927    39279717.125   158163043.567                                                                                                  
C10                                  37297709.560   150182385.3451                                   37297714.688   157818865.213                                  
C12  23610274.787   122944897.828                                                                    23610260.259    99902704.180                                  
C19  22745703.821   118442802.576                                    22745702.624    89259020.809    22745701.069    96244456.777    22745701.355   119529479.247  
C20  25538393.095   132985172.101                                    25538391.683   100218121.367    25538390.486   108061212.793    25538389.003   134205243.872  
C22  23047669.206   120015278.302                                    23047666.544    90444104.145    23047659.503    97522181.431    23047665.436   121116335.596  
C30  24740008.847   128827736.708                                    24740013.333    97085149.123    24740006.739   104683107.491    24740001.861   130009614.115  
C36  22376822.233   116522002.721                                    22376830.525    87811684.022    22376827.112    94683757.755    22376818.427   117591084.521  
C39                                                                  25709750.270   100890582.864                                    25709810.829   135105951.059  
> 2026 06 07 17 29 18.0000000  0 14                     
C01  38579292.398   200892610.853                                                                    38579288.360   163241612.154                                  
C02  36985096.257   192591073.203                                                                    36985082.926   156496016.139                                  
C03  37018218.546   192763568.752                                                                    37018203.965   156636149.887                                  
C07  37158770.634   193495452.396                                                                    37158769.061   157230852.876                                  
C08  37799967.000   196834374.696                                                                    37799963.409   159944070.488                                  
C09  39285366.202   204569158.472    39285379.889   158185827.446                                                                                                  
C10                                  37297369.816   150181048.101                                    37297372.139   157817417.727                                  
C12  23618929.416   122989964.133                                                                    23618915.817    99939324.265                                  
C19  22751235.946   118471613.105                                    22751236.339    89280732.554    22751232.551    96267867.723    22751245.738   119558554.654  
C20  25548108.786   133035767.920                                    25548107.911   100256250.584    25548105.338   108102326.071    25548107.428   134256303.920  
C22  23044345.407   119997967.841                                    23044341.869    90431058.917    23044334.793    97508115.313    23044341.458   121098866.329  
C30  24733135.510   128791943.124                                    24733138.512    97058175.018    24733133.669   104654022.324    24733128.309   129973492.143  
C36  22375572.063   116515489.978                                    22375580.318    87806776.045    22375576.226    94678465.647    22375568.596   117584512.070  
C39                                                                  25704430.198   100869701.980                                    25704473.923   135077988.932  
> 2026 06 07 17 29 33.0000000  0 14                     
C01  38579264.433   200892465.272                                                                    38579260.520   163241493.863                                  
C02  36985293.745   192592102.839                                                                    36985280.075   156496852.831                                  
C03  37018362.087   192764316.738                                                                    37018347.471   156636757.718                                  
C07  37158476.599   193493918.332                                                                    37158476.813   157229606.389                                  
C08  37795401.680   196810600.255                                                                    37795397.820   159924751.857                                  
C09  39291023.159   204598620.148    39291043.101   158208609.132                                                                                                  
C10  37297048.013   194215517.4201   37297024.354   150179654.637                                    37297025.945   157815953.465                                  
C12  23627595.910   123035075.412                                                                    23627578.326    99975980.670                                  
C19  22756788.280   118500521.205                                    22756785.707    89302517.845    22756779.721    96291357.856    22756795.713   119587728.127  
C20  25557826.962   133086373.074                                    25557829.088   100294386.814    25557820.850   108143446.903    25557827.069   134307373.350  
C22  23041043.765   119980772.704                                    23041039.763    90418100.639    23041032.579    97494142.915    23041039.834   121081513.494  
C30  24726265.389   128756166.042                                    24726266.943    97031213.377    24726263.691   104624950.587    24726256.472   129937386.857  
C36  22374327.825   116509008.960                                    22374335.616    87801891.994    22374329.415    94673199.364    22374324.162   117577971.639  
C39  25699119.220   133822073.5231                                   25699114.610   100848838.910                                                                  
> 2026 06 07 17 29 48.0000000  0 14                     
C01  38579235.825   200892316.563                                                                    38579231.786   163241373.024                                  
C02  36985490.519   192593129.404                                                                    36985476.885   156497687.019                                  
C03  37018505.075   192765061.401                                                                    37018490.512   156637362.818                                  
C07  37158179.526   193492368.856                                                                    37158181.278   157228347.367                                  
C08  37790839.700   196786845.276                                                                    37790835.626   159905448.995                                  
C09  39296679.652   204628079.602                                                                                                                                  
C10  37296693.706   194213695.344    37296676.462   150178245.710                                    37296675.944   157814472.813                                  
C12                                                                                                  23636248.966   100012673.830                                  
C19  22762359.448   118529527.437                                    22762357.268    89324377.039    22762349.424    96314927.686    22762364.755   119617000.582  
C20  25567547.263   133136988.000                                    25567552.124   100332530.450    25567538.883   108184575.689    25567545.709   134358452.633  
C22  23037764.371   119963693.881                                    23037759.725    90405229.960    23037753.399    97480264.996    23037760.422   121064277.900  
C30  24719397.644   128720406.647                                    24719399.556    97004265.002    24719396.179   104595893.181    24719388.710   129901299.307  
C36  22373089.805   116502560.368                                    22373096.471    87797032.377    22373090.395    94667959.426    22373085.696   117571463.904  
C39  25693805.580   133794413.421                                    25693804.723   100827994.121                                                                  
> 2026 06 07 17 30 03.0000000  0 14                     
C01  38579209.664   200892180.665                                                                    38579205.823   163241262.613                                  
C02  36985689.848   192594168.758                                                                    36985677.196   156498531.643                                  
C03  37018650.440   192765818.800                                                                    37018635.948   156637978.318                                  
C07  37157882.293   193490819.961                                                                    37157886.403   157227088.825                                  
C08  37786284.028   196763125.693                                                                    37786279.847   159886174.931                                  
C09  39302338.718   204657552.700                                                                                                                                  
C10  37296342.955   194211869.278    37296327.552   150176833.734                                    37296325.300   157812989.029                                  
C12  23644939.994   123125340.7001                                                                   23644930.381   100049416.507                                  
C19  22767950.129   118558647.348                                    22767951.952    89346322.038    22767944.393    96338590.013    22767955.758   119646387.768  
C20  25577272.801   133187628.445                                    25577277.876   100370693.271    25577264.706   108225725.139    25577269.245   134409557.590  
C22  23034509.778   119946747.403                                    23034505.007    90392459.051    23034499.146    97466494.611    23034506.383   121047175.905  
C30  24712535.618   128684681.082                                    24712539.370    96977342.148    24712535.636   104566863.273    24712526.969   129865245.943  
C36  22371861.256   116496160.069                                    22371865.348    87792209.177    22371861.507    94662758.706    22371856.432   117565004.878  
C39  25688501.447   133766793.601                                    25688500.929   100807179.665    25688488.903   108696401.0931   25688502.805   134994043.4451 
> 2026 06 07 17 30 18.0000000  0 14                     
C01  38579178.519   200892018.534                                                                    38579174.838   163241130.891                                  
C02  36985884.352   192595181.855                                                                    36985871.254   156499354.841                                  
C03  37018790.765   192766549.892                                                                    37018776.238   156638572.365                                  
C07  37157577.340   193489232.629                                                                    37157590.063   157225799.179                                  
C08  37781727.839   196739402.537                                                                    37781723.407   159866897.971                                  
C09  39307992.745   204687000.183                                                                                                                                  
C10  37295983.859   194210000.212    37295969.814   150175388.401                                    37295966.151   157811470.270                                  
C12  23653628.128   123170579.500                                                                    23653616.066   100086176.640                                  
C19  22773557.197   118587841.866                                    22773560.306    89368323.178    22773552.872    96362312.930    22773559.930   119675812.8681 
C20  25586995.711   133238254.991                                    25586998.856   100408845.613    25586990.708   108266863.282    25586992.120   134460648.494  
C22  23031272.644   119929894.374                                    23031268.123    90379758.531    23031263.156    97452800.135    23031269.821   121030168.206  
C30  24705673.020   128648950.576                                    24705678.237    96950415.541    24705675.468   104537829.336    24705664.621   129829187.629  
C36  22370633.976   116489768.883                                    22370637.425    87787392.822    22370635.316    94657565.381    22370629.062   117558555.051  
C39  25683196.974   133739174.935                                    25683194.955   100786366.087    25683189.219   108673977.189    25683197.135   134966171.261  
> 2026 06 07 17 30 33.0000000  0 14                     
C01  38579150.750   200891873.985                                                                    38579146.873   163241013.434                                  
C02  36986082.359   192596212.558                                                                    36986069.547   156500192.384                                  
C03  37018934.379   192767298.350                                                                    37018919.994   156639180.574                                  
C07  37157273.227   193487650.723                                                                                                                                  
C08  37777179.708   196715719.673                                                                    37777175.169   159847653.754                                  
C09  39313650.471   204716465.813                                                                                                                                  
C10  37295625.210   194208131.916    37295611.469   150173943.715                                    37295607.680   157809923.1281                                 
C12  23662328.680   123215883.355                                                                    23662316.565   100122989.651                                  
C19  22779187.618   118617154.559                                    22779186.689    89390413.252    22779182.383    96386131.826    22779186.779   119705394.285  
C20  25596724.001   133288911.143                                    25596725.341   100447020.284    25596720.087   108308025.581    25596721.070   134511769.385  
C22  23028062.242   119913178.657                                    23028058.043    90367161.569    23028053.683    97439217.302    23028059.347   121013299.124  
C30  24698819.088   128613259.232                                    24698824.377    96923518.480    24698821.893   104508827.266    24698811.333   129793168.882  
C36  22369416.167   116483430.523                                    22369421.563    87782616.286    22369419.937    94652414.992    22369412.092   117552158.582  
C39  25677901.382   133711601.016                                    25677899.398   100765586.413    25677888.712   108651560.772    25677899.380   134938344.483  
> 2026 06 07 17 30 48.0000000  0 14                     
C01  38579125.180   200891740.740                                                                    38579121.427   163240905.213                                  
C02  36986282.670   192597254.547                                                                    36986269.787   156501039.179                                  
C03  37019080.190   192768058.072                                                                    37019065.913   156639797.915                                  
C07  37156969.007   193486067.994                                                                                                                                  
C08  37772638.278   196692070.970                                                                    37772633.882   159828437.293                                  
C09  39319311.288   204745943.424                                                                                                                                  
C10  37295265.310   194206258.221    37295251.372   150172494.780                                    37295248.048   157808400.583                                  
C12  23671039.185   123261245.770                                                                    23671030.019   100159850.225                                  
C19  22784837.946   118646578.603                                    22784834.015    89412587.457    22784830.942    96410041.425    22784838.911   119735088.503  
C20  25606456.561   133339590.358                                    25606457.615   100485212.386    25606450.181   108349206.580    25606451.915   134562913.567  
C22  23024877.482   119896594.228                                    23024873.783    90354663.513    23024869.280    97425741.147    23024874.265   120996562.586  
C30  24691972.196   128577601.168                                    24691976.538    96896646.551    24691972.357   104479852.267    24691965.049   129757183.715  
C36  22368207.095   116477138.747                                    22368214.010    87777874.763    22368212.706    94647302.395    22368204.200   117545809.052  
C39  25672613.455   133684065.701                                    25672616.368   100744835.766    25672602.716   108629186.203    25672610.936   134910556.659  
> 2026 06 07 17 31 03.0000000  0 14                     
C01  38579095.785   200891587.570                                                                    38579091.800   163240780.752                                  
C02  36986479.069   192598276.617                                                                    36986465.864   156501869.624                                  
C03  37019222.177   192768797.635                                                                    37019208.025   156640398.894                                  
C07  37156658.855   193484453.203                                                                    37156653.637   157221962.8311                                 
C08  37768097.116   196668425.166                                                                    37768093.309   159809223.161                                  
C09  39324968.781   204775401.453                                                                                                                                  
C10  37294897.905   194204347.803    37294883.896   150171017.490                                                                                                  
C12  23679753.372   123306634.931                                                                    23679747.850   100196732.690                                  
C19  22790503.177   118676082.784                                    22790501.426    89434821.970    22790494.689    96434016.074    22790514.256   119764812.3231 
C20  25616187.566   133390261.232                                    25616189.299   100523398.093    25616179.525   108390380.698    25616184.475   134614049.262  
C22  23021711.966   119880109.884                                    23021708.875    90342240.897    23021704.033    97412346.305    23021708.625   120979927.098  
C30  24685125.537   128541945.377                                    24685128.879    96869776.308    24685123.840   104450879.109    24685119.319   129721200.828  
C36  22367001.847   116470862.055                                    22367008.280    87773144.640    22367007.261    94642202.087    22366998.935   117539474.816  
C39  25667326.244   133656537.795                                    25667326.029   100724090.682    25667319.132   108606817.489    25667323.045   134882776.042  
> 2026 06 07 17 31 18.0000000  0 14                     
C01  38579067.892   200891442.176                                                                    38579063.800   163240662.624                                  
C02  36986676.897   192599306.448                                                                    36986662.459   156502706.512                                  
C03  37019365.683   192769544.877                                                                    37019351.549   156641006.146                                  
C07  37156348.112   193482834.142                                                                    37156338.803   157220629.173                                  
C08  37763561.564   196644810.092                                                                    37763558.527   159790034.009                                  
C09  39330627.365   204804867.642    39330640.213   158368144.8021                                                                                                 
C10  37294528.570   194202428.485    37294514.722   150169533.311                                    37294513.238   157805290.6071                                 
C12  23688479.799   123352078.630                                                                    23688475.045   100233659.415                                  
C19  22796191.280   118705694.705                                    22796188.225    89457137.641    22796182.399    96458078.157    22796196.445   119794695.983  
C20  25625920.483   133440951.069                                    25625923.968   100561598.168    25625915.462   108431570.347    25625920.036   134665204.204  
C22  23018571.378   119863753.541                                    23018568.573    90329914.746    23018562.801    97399055.470    23018568.162   120963420.755  
C30  24678284.507   128506320.008                                    24678286.901    96842928.989    24678282.345   104421930.670    24678278.574   129685248.596  
C36  22365805.087   116464628.191                                    22365810.502    87768446.750    22365810.662    94637136.555    22365802.246   117533183.728  
C39  25662044.571   133629044.620                                    25662045.947   100703371.959    25662039.783   108584477.148    25662045.733   134855030.700  
> 2026 06 07 17 31 33.0000000  0 14                     
C01  38579040.766   200891300.907                                                                    38579036.406   163240547.780                                  
C02  36986875.457   192600340.317                                                                    36986860.394   156503546.533                                  
C03  37019509.940   192770296.100                                                                    37019495.806   156641616.574                                  
C07  37156035.923   193481207.115                                                                    37156024.558   157219306.171                                  
C08  37759031.177   196621222.100                                                                    37759028.926   159770866.862                                  
C09                                  39336301.012   158390933.231                                                                                                  
C10  37294156.430   194200496.550    37294143.314   150168039.320                                    37294143.796   157803728.282                                  
C12  23697216.786   123397572.711                                                                    23697211.372   100270627.050                                  
C19  22801898.628   118735410.316                                    22801894.197    89479531.398    22801891.677    96482224.497    22801899.558   119824684.238  
C20  25635655.688   133491656.025                                    25635661.156   100599809.621    25635654.473   108472772.268    25635658.797   134716374.373  
C22  23015454.914   119847521.679                                    23015451.965    90317682.349    23015445.514    97385865.762    23015451.375   120947039.998  
C30  24671447.283   128470721.634                                    24671450.124    96816101.958    24671446.318   104393004.123    24671441.904   129649323.556  
C36  22364615.368   116458433.320                                    22364619.871    87763778.259    22364620.889    94632102.700    22364613.027   117526931.947  
C39                                                                  25656771.387   100682676.688    25656767.081   108562162.164    25656774.818   134827316.675  
> 2026 06 07 17 31 48.0000000  0 14                     
C01  38579012.390   200891153.376                                                                    38579008.138   163240427.951                                  
C02  36987072.982   192601367.965                                                                                                                                  
C03  37019653.017   192771040.870                                                                    37019638.722   156642221.763                                  
C07  37155719.838   193479561.820                                                                    37155707.186   157217969.250                                  
C08  37754503.775   196597650.924                                                                    37754502.649   159751713.375                                  
C09                                  39341960.936   158413716.966                                                                                                  
C10  37293776.945   194198475.6431   37293767.868   150166527.588                                    37293769.851   157802144.1601                                 
C12  23705961.367   123443106.618                                                                    23705955.489   100307627.015                                  
C19  22807622.898   118765218.863                                    22807620.075    89501995.343    22807616.180    96506446.501    22807623.828   119854766.349  
C20                                                                  25645398.004   100638024.549    25645393.322   108513977.823    25645404.759   134767549.179  
C22  23012360.177   119831404.029                                    23012356.479    90305536.013    23012349.992    97372768.834    23012356.014   120930774.462  
C30  24664613.275   128435140.158                                    24664616.759    96789287.707    24664614.508   104364091.332    24664608.879   129613415.658  
C36  22363430.491   116452266.972                                    22363434.190    87759131.270    22363434.708    94627092.047    22363429.079   117520708.983  
C39                                                                  25651500.561   100661997.052    25651497.792   108539864.060    25651506.297   134799623.698  
> 2026 06 07 17 32 03.0000000  0 14                     
C01  38578982.603   200890998.537                                                                    38578978.421   163240302.162                                  
C02  36987269.112   192602388.322                                                                    36987253.280   156505173.8331                                 
C03  37019794.611   192771778.234                                                                    37019780.245   156642820.996                                  
C07  37155399.660   193477897.193                                                                    37155386.687   157216616.676                                  
C08  37749979.838   196574095.584                                                                    37749979.195   159732572.769                                  
C09                                  39347618.268   158436495.065                                                                                                  
C10                                  37293388.115   150164997.376                                    37293391.868   157800536.150                                  
C12  23714712.811   123488678.907                                                                    23714707.665   100344658.226                                  
C19  22813366.288   118795119.513                                    22813363.626    89524528.508    22813355.728    96530743.148    22813364.090   119884941.238  
C20                                                                  25655136.479   100676241.749    25655131.994   108555185.935    25655155.902   134818727.209  
C22  23009287.009   119815399.707                                    23009282.203    90293475.111    23009276.270    97359764.030    23009282.077   120914623.284  
C30  24657782.698   128399574.927                                    24657786.557    96762485.705    24657785.950   104335191.721    24657775.354   129577524.241  
C36  22362250.117   116446128.044                                    22362255.602    87754505.012    22362250.831    94622103.738    22362250.170   117514513.752  
C39                                                                  25646235.454   100641332.174    25646232.148   108517581.993    25646241.940   134771950.758  
> 2026 06 07 17 32 18.0000000  0 14                     
C01  38578952.243   200890840.930                                                                    38578948.276   163240174.091                                  
C02  36987464.617   192603405.818                                                                    36987449.017   156506000.670                                  
C03  37019935.652   192772512.647                                                                    37019921.231   156643417.774                                  
C07  37155076.839   193476217.871                                                                    37155064.384   157215252.124                                  
C08  37745460.351   196550560.612                                                                    37745459.297   159713448.710                                  
C09  39353260.930   204922767.3681   39353273.725   158459271.016                                                                                                  
C10                                  37293004.628   150163452.043                                    37293009.524   157798912.382                                  
C12  23723472.170   123534293.751                                                                    23723468.257   100381724.069                                  
C19  22819125.742   118825116.080                                    22819124.045    89547134.088    22819114.932    96555117.723    22819123.830   119915213.067  
C20  25664932.045   133644015.2011                                   25664874.953   100714464.481    25664872.255   108596477.0711   25664903.490   134869912.629  
C22  23006236.231   119799513.291                                    23006230.692    90281503.033    23006225.385    97346855.016    23006230.263   120898591.093  
C30  24650955.945   128364030.757                                    24650960.466    96735699.531    24650960.090   104306309.192    24650950.084   129541653.910  
C36  22361076.158   116440020.903                                    22361086.271    87749902.724    22361075.925    94617141.259    22361076.926   117508350.562  
C39                                                                  25640976.189   100620685.546    25640971.329   108495319.586                                  
